[
  {
    "id": 16945,
    "name": "Gare ouest",
    "latitude": "46.7813205",
    "longitude": "6.6398028",
    "thumbnail_url": ""
  },
  {
    "id": 19553,
    "name": "Villette",
    "latitude": "46.7774189",
    "longitude": "6.6577762",
    "thumbnail_url": ""
  },
  {
    "id": 18762,
    "name": "Y-Parc, Innovation",
    "latitude": "46.7638726",
    "longitude": "6.6364354",
    "thumbnail_url": ""
  },
  {
    "id": 16877,
    "name": "Vautier",
    "latitude": "46.7818434",
    "longitude": "6.6367135",
    "thumbnail_url": ""
  },
  {
    "id": 17290,
    "name": "Avenue de Grandson",
    "latitude": "46.7877183",
    "longitude": "6.6306181",
    "thumbnail_url": ""
  },
  {
    "id": 16314,
    "name": "Rue de Montagny",
    "latitude": "46.7813291",
    "longitude": "6.6255055",
    "thumbnail_url": ""
  },
  {
    "id": 18779,
    "name": "Maison-Rouge",
    "latitude": "46.7792686",
    "longitude": "6.6453401",
    "thumbnail_url": ""
  },
  {
    "id": 17128,
    "name": "Iles",
    "latitude": "46.7720754",
    "longitude": "6.6359921",
    "thumbnail_url": ""
  },
  {
    "id": 16283,
    "name": "Conservatoire",
    "latitude": "46.7849178",
    "longitude": "6.6360569",
    "thumbnail_url": ""
  },
  {
    "id": 17291,
    "name": "Mujon",
    "latitude": "46.7844836",
    "longitude": "6.6333266",
    "thumbnail_url": ""
  },
  {
    "id": 17293,
    "name": "eHnV",
    "latitude": "46.7719437",
    "longitude": "6.6461294",
    "thumbnail_url": ""
  },
  {
    "id": 16302,
    "name": "Buron",
    "latitude": "46.7772114",
    "longitude": "6.6485143",
    "thumbnail_url": ""
  },
  {
    "id": 17232,
    "name": "Condémines",
    "latitude": "46.7695009",
    "longitude": "6.6526667",
    "thumbnail_url": ""
  },
  {
    "id": 21308,
    "name": "Pierre de Savoie",
    "latitude": "46.7684825",
    "longitude": "6.64101",
    "thumbnail_url": ""
  },
  {
    "id": 16388,
    "name": "Boulodrome",
    "latitude": "46.7909522",
    "longitude": "6.6395616",
    "thumbnail_url": ""
  },
  {
    "id": 16921,
    "name": "Gare",
    "latitude": "46.7809886",
    "longitude": "6.6413791",
    "thumbnail_url": ""
  },
  {
    "id": 16330,
    "name": "Avenue des Bains",
    "latitude": "46.7724618",
    "longitude": "6.6496881",
    "thumbnail_url": ""
  },
  {
    "id": 17112,
    "name": "Scierie",
    "latitude": "46.7780072",
    "longitude": "6.6522819",
    "thumbnail_url": ""
  },
  {
    "id": 16285,
    "name": "HEIG-VD Cheseaux",
    "latitude": "46.7788408",
    "longitude": "6.6583166",
    "thumbnail_url": ""
  },
  {
    "id": 14993,
    "name": "Collège des Rives",
    "latitude": "46.785265",
    "longitude": "6.6411045",
    "thumbnail_url": ""
  },
  {
    "id": 20011,
    "name": "Sport 5",
    "latitude": "46.7819652",
    "longitude": "6.6494833",
    "thumbnail_url": ""
  },
  {
    "id": 19549,
    "name": "Oiseaux",
    "latitude": "46.7752041",
    "longitude": "6.6332731",
    "thumbnail_url": ""
  },
  {
    "id": 16307,
    "name": "Marive",
    "latitude": "46.7857601",
    "longitude": "6.638189",
    "thumbnail_url": ""
  },
  {
    "id": 17001,
    "name": "Rives du Lac",
    "latitude": "46.7851494",
    "longitude": "6.6439231",
    "thumbnail_url": ""
  },
  {
    "id": 17113,
    "name": "Stade ",
    "latitude": "46.7827357",
    "longitude": "6.6457893",
    "thumbnail_url": ""
  },
  {
    "id": 17642,
    "name": "Prés du Lac",
    "latitude": "46.7913781",
    "longitude": "6.6319157",
    "thumbnail_url": ""
  },
  {
    "id": 16279,
    "name": "Casernes",
    "latitude": "46.7793069",
    "longitude": "6.6373107",
    "thumbnail_url": ""
  },
  {
    "id": 18764,
    "name": "Chatelard",
    "latitude": "46.7783539",
    "longitude": "6.6174077",
    "thumbnail_url": ""
  },
  {
    "id": 19409,
    "name": "Vaumarcus - VD",
    "latitude": "46.8777655",
    "longitude": "6.7573493",
    "thumbnail_url": ""
  },
  {
    "id": 20133,
    "name": "Pro Natura",
    "latitude": "46.7852411",
    "longitude": "6.6661551",
    "thumbnail_url": ""
  },
  {
    "id": 19546,
    "name": "Batellerie",
    "latitude": "46.7887594",
    "longitude": "6.6412567",
    "thumbnail_url": ""
  },
  {
    "id": 16304,
    "name": "Plaine",
    "latitude": "46.7775368",
    "longitude": "6.6434345",
    "thumbnail_url": ""
  },
  {
    "id": 19986,
    "name": "Trois-Lacs",
    "latitude": "46.7715449",
    "longitude": "6.6346759",
    "thumbnail_url": ""
  },
  {
    "id": 17243,
    "name": "Général-Guisan",
    "latitude": "46.7774187",
    "longitude": "6.6318273",
    "thumbnail_url": ""
  },
  {
    "id": 17301,
    "name": "Coin de Terre",
    "latitude": "46.7893027",
    "longitude": "6.6369442",
    "thumbnail_url": ""
  },
  {
    "id": 16280,
    "name": "Plage",
    "latitude": "46.7839414",
    "longitude": "6.6525422",
    "thumbnail_url": ""
  },
  {
    "id": 17248,
    "name": "Y-Parc, Découvertes",
    "latitude": "46.7665527",
    "longitude": "6.6451659",
    "thumbnail_url": ""
  },
  {
    "id": 17252,
    "name": "Indépendance",
    "latitude": "46.773037",
    "longitude": "6.6384993",
    "thumbnail_url": ""
  },
  {
    "id": 17264,
    "name": "Camping",
    "latitude": "46.7848784",
    "longitude": "6.6488543",
    "thumbnail_url": ""
  },
  {
    "id": 17295,
    "name": "Aulus Faustus",
    "latitude": "46.774497",
    "longitude": "6.6456452",
    "thumbnail_url": ""
  },
  {
    "id": 19418,
    "name": "Jardins du Coeur",
    "latitude": "46.7798224",
    "longitude": "6.6509388",
    "thumbnail_url": ""
  },
  {
    "id": 17214,
    "name": "Y-Parc, Parking",
    "latitude": "46.7650004",
    "longitude": "6.6413101",
    "thumbnail_url": ""
  },
  {
    "id": 14435,
    "name": "Y-Parc, Galilée",
    "latitude": "46.764909",
    "longitude": "6.6461271",
    "thumbnail_url": ""
  },
  {
    "id": 17246,
    "name": "Sous-Bois",
    "latitude": "46.7757291",
    "longitude": "6.6520961",
    "thumbnail_url": ""
  },
  {
    "id": 14992,
    "name": "Bel-Air",
    "latitude": "46.7804518",
    "longitude": "6.6369698",
    "thumbnail_url": ""
  },
  {
    "id": 17111,
    "name": "Haldimand",
    "latitude": "46.7788871",
    "longitude": "6.6478478",
    "thumbnail_url": ""
  },
  {
    "id": 19319,
    "name": "Chateau",
    "latitude": "46.778004",
    "longitude": "6.6410482",
    "thumbnail_url": ""
  },
  {
    "id": 15147,
    "name": "Jean-André Venel",
    "latitude": "46.7694474",
    "longitude": "6.6451896",
    "thumbnail_url": ""
  },
  {
    "id": 19550,
    "name": "Moulins",
    "latitude": "46.7722606",
    "longitude": "6.6310059",
    "thumbnail_url": ""
  },
  {
    "id": 17234,
    "name": "St-Georges",
    "latitude": "46.7816423",
    "longitude": "6.6290342",
    "thumbnail_url": ""
  },
  {
    "id": 17242,
    "name": "Collesano",
    "latitude": "46.7867249",
    "longitude": "6.6437606",
    "thumbnail_url": ""
  },
  {
    "id": 20010,
    "name": "Sports",
    "latitude": "46.7803201",
    "longitude": "6.6530063",
    "thumbnail_url": ""
  },
  {
    "id": 16288,
    "name": "CPNV",
    "latitude": "46.7737937",
    "longitude": "6.6342311",
    "thumbnail_url": ""
  },
  {
    "id": 19987,
    "name": "Y-Parc, Maric",
    "latitude": "46.7639407",
    "longitude": "6.63965",
    "thumbnail_url": ""
  },
  {
    "id": 18761,
    "name": "Aérodrome",
    "latitude": "46.7651446",
    "longitude": "6.6159699",
    "thumbnail_url": ""
  },
  {
    "id": 17249,
    "name": "ZI Yverdon-Sud",
    "latitude": "46.7604885",
    "longitude": "6.6433592",
    "thumbnail_url": ""
  },
  {
    "id": 19984,
    "name": "Vuagère",
    "latitude": "46.7747129",
    "longitude": "6.6295013",
    "thumbnail_url": ""
  },
  {
    "id": 21307,
    "name": "Stade de rugby",
    "latitude": "46.7735756",
    "longitude": "6.6263288",
    "thumbnail_url": ""
  },
  {
    "id": 16284,
    "name": "HEIG-VD St-Roch",
    "latitude": "46.7813519",
    "longitude": "6.6477014",
    "thumbnail_url": ""
  },
  {
    "id": 17297,
    "name": "Fontenay",
    "latitude": "46.7831",
    "longitude": "6.6318728",
    "thumbnail_url": ""
  },
  {
    "id": 16764,
    "name": "Philosophe",
    "latitude": "46.7752651",
    "longitude": "6.6420879",
    "thumbnail_url": ""
  },
  {
    "id": 18760,
    "name": "Thièle",
    "latitude": "46.7817152",
    "longitude": "6.638893",
    "thumbnail_url": ""
  },
  {
    "id": 19985,
    "name": "Fleurettes",
    "latitude": "46.7847644",
    "longitude": "6.6296161",
    "thumbnail_url": ""
  },
  {
    "id": 17296,
    "name": "Centre funéraire",
    "latitude": "46.7725906",
    "longitude": "6.6426457",
    "thumbnail_url": ""
  },
  {
    "id": 16308,
    "name": "Piscine couverte",
    "latitude": "46.7850132",
    "longitude": "6.6466891",
    "thumbnail_url": ""
  },
  {
    "id": 17181,
    "name": "Four",
    "latitude": "46.7785389",
    "longitude": "6.6386812",
    "thumbnail_url": ""
  },
  {
    "id": 18013,
    "name": "Dérivée",
    "latitude": "46.7876823",
    "longitude": "6.6417099",
    "thumbnail_url": ""
  },
  {
    "id": 17239,
    "name": "Midi",
    "latitude": "46.7767049",
    "longitude": "6.6366068",
    "thumbnail_url": ""
  },
  {
    "id": 17240,
    "name": "Mont d'Or",
    "latitude": "46.778133",
    "longitude": "6.6344066",
    "thumbnail_url": ""
  },
  {
    "id": 16281,
    "name": "Remparts",
    "latitude": "46.7799374",
    "longitude": "6.6399975",
    "thumbnail_url": ""
  },
  {
    "id": 19483,
    "name": "Jardins",
    "latitude": "46.7732291",
    "longitude": "6.6214405",
    "thumbnail_url": ""
  },
  {
    "id": 16541,
    "name": "Aviron",
    "latitude": "46.7867063",
    "longitude": "6.6399673",
    "thumbnail_url": ""
  },
  {
    "id": 17903,
    "name": "Champ-Pittet",
    "latitude": "46.7827456",
    "longitude": "6.6643696",
    "thumbnail_url": ""
  },
  {
    "id": 17529,
    "name": "Champs-Lovats",
    "latitude": "46.7666082",
    "longitude": "6.6510047",
    "thumbnail_url": ""
  },
  {
    "id": 17892,
    "name": "Office du Tourisme",
    "latitude": "46.780168",
    "longitude": "6.6429209",
    "thumbnail_url": ""
  },
  {
    "id": 17233,
    "name": "Verdan",
    "latitude": "46.7873595",
    "longitude": "6.6270974",
    "thumbnail_url": ""
  },
  {
    "id": 17231,
    "name": "4 Marronniers",
    "latitude": "46.7757214",
    "longitude": "6.6480922",
    "thumbnail_url": ""
  },
  {
    "id": 17298,
    "name": "Roselière",
    "latitude": "46.7875291",
    "longitude": "6.6392243",
    "thumbnail_url": ""
  },
  {
    "id": 19723,
    "name": "Plaisance",
    "latitude": "46.7700928",
    "longitude": "6.64787",
    "thumbnail_url": ""
  },
  {
    "id": 16305,
    "name": "Centre Thermal",
    "latitude": "46.7716581",
    "longitude": "6.6476773",
    "thumbnail_url": ""
  },
  {
    "id": 24061,
    "name": "Y-Parc, Pythagore",
    "latitude": "46.7655784",
    "longitude": "6.6430736",
    "thumbnail_url": ""
  },
  {
    "id": 19983,
    "name": "Kiener",
    "latitude": "46.7787539",
    "longitude": "6.6270091",
    "thumbnail_url": ""
  }
]