{
  "type": "FeatureCollection",
  "features": [
    {
      "type": "Feature",
      "geometry": {
        "type": "Point",
        "coordinates": [
          10.2098685,
          56.1913889
        ]
      },
      "properties": {
        "id": 31704,
        "name": "Football stadium ",
        "address": "",
        "city": "",
        "capacity": 0,
        "available_bikes": 0,
        "hub_type": "standard",
        "status": "active"
      }
    },
    {
      "type": "Feature",
      "geometry": {
        "type": "Point",
        "coordinates": [
          10.1719525,
          56.1883606
        ]
      },
      "properties": {
        "id": 26298,
        "name": "Skejby Indgang C",
        "address": "",
        "city": "",
        "capacity": 0,
        "available_bikes": 0,
        "hub_type": "standard",
        "status": "active"
      }
    },
    {
      "type": "Feature",
      "geometry": {
        "type": "Point",
        "coordinates": [
          10.1977625,
          56.1480212
        ]
      },
      "properties": {
        "id": 3872,
        "name": "Jægergårdsgade/SuperBrugsen",
        "address": "",
        "city": "",
        "capacity": 0,
        "available_bikes": 0,
        "hub_type": "standard",
        "status": "active"
      }
    },
    {
      "type": "Feature",
      "geometry": {
        "type": "Point",
        "coordinates": [
          10.195747,
          56.1328741
        ]
      },
      "properties": {
        "id": 5144,
        "name": "Ceres Arena",
        "address": "",
        "city": "",
        "capacity": 0,
        "available_bikes": 0,
        "hub_type": "standard",
        "status": "active"
      }
    },
    {
      "type": "Feature",
      "geometry": {
        "type": "Point",
        "coordinates": [
          10.2047022,
          56.1544566
        ]
      },
      "properties": {
        "id": 3857,
        "name": "Østergade/Jyske Bank",
        "address": "",
        "city": "",
        "capacity": 0,
        "available_bikes": 0,
        "hub_type": "standard",
        "status": "active"
      }
    },
    {
      "type": "Feature",
      "geometry": {
        "type": "Point",
        "coordinates": [
          10.1962657,
          56.1773871
        ]
      },
      "properties": {
        "id": 31753,
        "name": "Frederikshaldsgade",
        "address": "",
        "city": "",
        "capacity": 0,
        "available_bikes": 0,
        "hub_type": "standard",
        "status": "active"
      }
    },
    {
      "type": "Feature",
      "geometry": {
        "type": "Point",
        "coordinates": [
          10.212995,
          56.1603675
        ]
      },
      "properties": {
        "id": 5015,
        "name": "Nørreport 15",
        "address": "",
        "city": "",
        "capacity": 0,
        "available_bikes": 0,
        "hub_type": "standard",
        "status": "active"
      }
    },
    {
      "type": "Feature",
      "geometry": {
        "type": "Point",
        "coordinates": [
          10.2009009,
          56.176782
        ]
      },
      "properties": {
        "id": 4490,
        "name": "Fakta, Kongsbergs Pl.",
        "address": "",
        "city": "",
        "capacity": 0,
        "available_bikes": 0,
        "hub_type": "standard",
        "status": "active"
      }
    },
    {
      "type": "Feature",
      "geometry": {
        "type": "Point",
        "coordinates": [
          10.2019457,
          56.1675996
        ]
      },
      "properties": {
        "id": 5875,
        "name": "Medicinerhuset ",
        "address": "",
        "city": "",
        "capacity": 0,
        "available_bikes": 0,
        "hub_type": "standard",
        "status": "active"
      }
    },
    {
      "type": "Feature",
      "geometry": {
        "type": "Point",
        "coordinates": [
          10.2306473,
          56.1768939
        ]
      },
      "properties": {
        "id": 3910,
        "name": "Den Permanente",
        "address": "",
        "city": "",
        "capacity": 0,
        "available_bikes": 0,
        "hub_type": "standard",
        "status": "active"
      }
    },
    {
      "type": "Feature",
      "geometry": {
        "type": "Point",
        "coordinates": [
          10.2070314,
          56.1571583
        ]
      },
      "properties": {
        "id": 6694,
        "name": "Magasin",
        "address": "",
        "city": "",
        "capacity": 0,
        "available_bikes": 0,
        "hub_type": "standard",
        "status": "active"
      }
    },
    {
      "type": "Feature",
      "geometry": {
        "type": "Point",
        "coordinates": [
          10.1825485,
          56.1613064
        ]
      },
      "properties": {
        "id": 3891,
        "name": "Aarhus BSS-Vestre Ringgade/Vibovej",
        "address": "",
        "city": "",
        "capacity": 0,
        "available_bikes": 0,
        "hub_type": "standard",
        "status": "active"
      }
    },
    {
      "type": "Feature",
      "geometry": {
        "type": "Point",
        "coordinates": [
          10.1941229,
          56.1552468
        ]
      },
      "properties": {
        "id": 3885,
        "name": "Folkestedet",
        "address": "",
        "city": "",
        "capacity": 0,
        "available_bikes": 0,
        "hub_type": "standard",
        "status": "active"
      }
    },
    {
      "type": "Feature",
      "geometry": {
        "type": "Point",
        "coordinates": [
          10.2213155,
          56.1646704
        ]
      },
      "properties": {
        "id": 5011,
        "name": "Kystpromenaden, Parking",
        "address": "",
        "city": "",
        "capacity": 0,
        "available_bikes": 0,
        "hub_type": "standard",
        "status": "active"
      }
    },
    {
      "type": "Feature",
      "geometry": {
        "type": "Point",
        "coordinates": [
          10.2062316,
          56.1584801
        ]
      },
      "properties": {
        "id": 5466,
        "name": "Klostertovet",
        "address": "",
        "city": "",
        "capacity": 0,
        "available_bikes": 0,
        "hub_type": "standard",
        "status": "active"
      }
    },
    {
      "type": "Feature",
      "geometry": {
        "type": "Point",
        "coordinates": [
          10.2168265,
          56.1633098
        ]
      },
      "properties": {
        "id": 3907,
        "name": "Hjortholmsvej/Østbanen",
        "address": "",
        "city": "",
        "capacity": 0,
        "available_bikes": 0,
        "hub_type": "standard",
        "status": "active"
      }
    },
    {
      "type": "Feature",
      "geometry": {
        "type": "Point",
        "coordinates": [
          10.2237978,
          56.1209243
        ]
      },
      "properties": {
        "id": 5659,
        "name": "Ørneredevej 7",
        "address": "",
        "city": "",
        "capacity": 0,
        "available_bikes": 0,
        "hub_type": "standard",
        "status": "active"
      }
    },
    {
      "type": "Feature",
      "geometry": {
        "type": "Point",
        "coordinates": [
          10.2028884,
          56.1534695
        ]
      },
      "properties": {
        "id": 3830,
        "name": "Frederiksgade_Rema 1000",
        "address": "",
        "city": "",
        "capacity": 0,
        "available_bikes": 0,
        "hub_type": "standard",
        "status": "active"
      }
    },
    {
      "type": "Feature",
      "geometry": {
        "type": "Point",
        "coordinates": [
          10.1640346,
          56.2122769
        ]
      },
      "properties": {
        "id": 31210,
        "name": "Klokhøjen",
        "address": "",
        "city": "",
        "capacity": 0,
        "available_bikes": 0,
        "hub_type": "standard",
        "status": "active"
      }
    },
    {
      "type": "Feature",
      "geometry": {
        "type": "Point",
        "coordinates": [
          10.2056105,
          56.1066016
        ]
      },
      "properties": {
        "id": 6626,
        "name": "Fitness World_Skåde Center",
        "address": "",
        "city": "",
        "capacity": 0,
        "available_bikes": 0,
        "hub_type": "standard",
        "status": "active"
      }
    },
    {
      "type": "Feature",
      "geometry": {
        "type": "Point",
        "coordinates": [
          10.2203053,
          56.1958788
        ]
      },
      "properties": {
        "id": 13386,
        "name": "Grenåvej",
        "address": "",
        "city": "",
        "capacity": 0,
        "available_bikes": 0,
        "hub_type": "standard",
        "status": "active"
      }
    },
    {
      "type": "Feature",
      "geometry": {
        "type": "Point",
        "coordinates": [
          10.2112428,
          56.1518169
        ]
      },
      "properties": {
        "id": 3863,
        "name": "Spanien/Train ",
        "address": "",
        "city": "",
        "capacity": 0,
        "available_bikes": 0,
        "hub_type": "standard",
        "status": "active"
      }
    },
    {
      "type": "Feature",
      "geometry": {
        "type": "Point",
        "coordinates": [
          10.1665406,
          56.1498133
        ]
      },
      "properties": {
        "id": 7999,
        "name": "Søren Frichs Vej 55",
        "address": "",
        "city": "",
        "capacity": 0,
        "available_bikes": 0,
        "hub_type": "standard",
        "status": "active"
      }
    },
    {
      "type": "Feature",
      "geometry": {
        "type": "Point",
        "coordinates": [
          10.2160989,
          56.1254186
        ]
      },
      "properties": {
        "id": 4249,
        "name": "Marselisborg kajak club",
        "address": "",
        "city": "",
        "capacity": 0,
        "available_bikes": 0,
        "hub_type": "standard",
        "status": "active"
      }
    },
    {
      "type": "Feature",
      "geometry": {
        "type": "Point",
        "coordinates": [
          10.1949678,
          56.1406417
        ]
      },
      "properties": {
        "id": 6219,
        "name": "Stadion Allé/Marselis blvd",
        "address": "",
        "city": "",
        "capacity": 0,
        "available_bikes": 0,
        "hub_type": "standard",
        "status": "active"
      }
    },
    {
      "type": "Feature",
      "geometry": {
        "type": "Point",
        "coordinates": [
          10.2239062,
          56.1644999
        ]
      },
      "properties": {
        "id": 4518,
        "name": "Harbor Bath, traffic island",
        "address": "",
        "city": "",
        "capacity": 0,
        "available_bikes": 0,
        "hub_type": "standard",
        "status": "active"
      }
    },
    {
      "type": "Feature",
      "geometry": {
        "type": "Point",
        "coordinates": [
          10.21542,
          56.1520206
        ]
      },
      "properties": {
        "id": 23922,
        "name": "Q-Park Mindet 1",
        "address": "",
        "city": "",
        "capacity": 0,
        "available_bikes": 0,
        "hub_type": "standard",
        "status": "active"
      }
    },
    {
      "type": "Feature",
      "geometry": {
        "type": "Point",
        "coordinates": [
          10.2458536,
          56.2018657
        ]
      },
      "properties": {
        "id": 5566,
        "name": "Ravnsøvej 42",
        "address": "",
        "city": "",
        "capacity": 0,
        "available_bikes": 0,
        "hub_type": "standard",
        "status": "active"
      }
    },
    {
      "type": "Feature",
      "geometry": {
        "type": "Point",
        "coordinates": [
          10.2058212,
          56.1564434
        ]
      },
      "properties": {
        "id": 3851,
        "name": "Åboulevarden 45",
        "address": "",
        "city": "",
        "capacity": 0,
        "available_bikes": 0,
        "hub_type": "standard",
        "status": "active"
      }
    },
    {
      "type": "Feature",
      "geometry": {
        "type": "Point",
        "coordinates": [
          10.2185116,
          56.158337
        ]
      },
      "properties": {
        "id": 5469,
        "name": "Dome of Visions",
        "address": "",
        "city": "",
        "capacity": 0,
        "available_bikes": 0,
        "hub_type": "standard",
        "status": "active"
      }
    },
    {
      "type": "Feature",
      "geometry": {
        "type": "Point",
        "coordinates": [
          10.1992245,
          56.1525134
        ]
      },
      "properties": {
        "id": 3833,
        "name": "Music House",
        "address": "",
        "city": "",
        "capacity": 0,
        "available_bikes": 0,
        "hub_type": "standard",
        "status": "active"
      }
    },
    {
      "type": "Feature",
      "geometry": {
        "type": "Point",
        "coordinates": [
          10.2041886,
          56.1458477
        ]
      },
      "properties": {
        "id": 3874,
        "name": "Sct. Pauls Kirke",
        "address": "",
        "city": "",
        "capacity": 0,
        "available_bikes": 0,
        "hub_type": "standard",
        "status": "active"
      }
    },
    {
      "type": "Feature",
      "geometry": {
        "type": "Point",
        "coordinates": [
          10.1930125,
          56.1461425
        ]
      },
      "properties": {
        "id": 3878,
        "name": "Frederiks Alle-Apotek",
        "address": "",
        "city": "",
        "capacity": 0,
        "available_bikes": 0,
        "hub_type": "standard",
        "status": "active"
      }
    },
    {
      "type": "Feature",
      "geometry": {
        "type": "Point",
        "coordinates": [
          10.1179737,
          56.1502206
        ]
      },
      "properties": {
        "id": 4255,
        "name": "Brabrand Football Oval",
        "address": "",
        "city": "",
        "capacity": 0,
        "available_bikes": 0,
        "hub_type": "standard",
        "status": "active"
      }
    },
    {
      "type": "Feature",
      "geometry": {
        "type": "Point",
        "coordinates": [
          10.1574129,
          56.1265574
        ]
      },
      "properties": {
        "id": 5007,
        "name": "Viby Stadion",
        "address": "",
        "city": "",
        "capacity": 0,
        "available_bikes": 0,
        "hub_type": "standard",
        "status": "active"
      }
    },
    {
      "type": "Feature",
      "geometry": {
        "type": "Point",
        "coordinates": [
          10.1685219,
          56.1500007
        ]
      },
      "properties": {
        "id": 6256,
        "name": "Søren Frichs Vej 53",
        "address": "",
        "city": "",
        "capacity": 0,
        "available_bikes": 0,
        "hub_type": "standard",
        "status": "active"
      }
    },
    {
      "type": "Feature",
      "geometry": {
        "type": "Point",
        "coordinates": [
          10.209979,
          56.1482509
        ]
      },
      "properties": {
        "id": 16236,
        "name": "Jægergårdsgade 154",
        "address": "",
        "city": "",
        "capacity": 0,
        "available_bikes": 0,
        "hub_type": "standard",
        "status": "active"
      }
    },
    {
      "type": "Feature",
      "geometry": {
        "type": "Point",
        "coordinates": [
          10.2137205,
          56.1392669
        ]
      },
      "properties": {
        "id": 5021,
        "name": "City Bike Parking Marselisborg Havn",
        "address": "",
        "city": "",
        "capacity": 0,
        "available_bikes": 0,
        "hub_type": "standard",
        "status": "active"
      }
    },
    {
      "type": "Feature",
      "geometry": {
        "type": "Point",
        "coordinates": [
          10.1933969,
          56.1548004
        ]
      },
      "properties": {
        "id": 6630,
        "name": "Carl Blochs Gade 35",
        "address": "",
        "city": "",
        "capacity": 0,
        "available_bikes": 0,
        "hub_type": "standard",
        "status": "active"
      }
    },
    {
      "type": "Feature",
      "geometry": {
        "type": "Point",
        "coordinates": [
          10.2105002,
          56.1576336
        ]
      },
      "properties": {
        "id": 3920,
        "name": "Rosensgade",
        "address": "",
        "city": "",
        "capacity": 0,
        "available_bikes": 0,
        "hub_type": "standard",
        "status": "active"
      }
    },
    {
      "type": "Feature",
      "geometry": {
        "type": "Point",
        "coordinates": [
          10.2078373,
          56.1604293
        ]
      },
      "properties": {
        "id": 8116,
        "name": "Nørregade 46",
        "address": "",
        "city": "",
        "capacity": 0,
        "available_bikes": 0,
        "hub_type": "standard",
        "status": "active"
      }
    },
    {
      "type": "Feature",
      "geometry": {
        "type": "Point",
        "coordinates": [
          10.1974365,
          56.167204
        ]
      },
      "properties": {
        "id": 5571,
        "name": "Langelandsgade 136",
        "address": "",
        "city": "",
        "capacity": 0,
        "available_bikes": 0,
        "hub_type": "standard",
        "status": "active"
      }
    },
    {
      "type": "Feature",
      "geometry": {
        "type": "Point",
        "coordinates": [
          10.2318335,
          56.1101681
        ]
      },
      "properties": {
        "id": 4918,
        "name": "Campground",
        "address": "",
        "city": "",
        "capacity": 0,
        "available_bikes": 0,
        "hub_type": "standard",
        "status": "active"
      }
    },
    {
      "type": "Feature",
      "geometry": {
        "type": "Point",
        "coordinates": [
          10.2264469,
          56.1661524
        ]
      },
      "properties": {
        "id": 3912,
        "name": "Ester Aggebos Gade",
        "address": "",
        "city": "",
        "capacity": 0,
        "available_bikes": 0,
        "hub_type": "standard",
        "status": "active"
      }
    },
    {
      "type": "Feature",
      "geometry": {
        "type": "Point",
        "coordinates": [
          10.1980712,
          56.1525508
        ]
      },
      "properties": {
        "id": 3832,
        "name": "Scandinavian center_Music House",
        "address": "",
        "city": "",
        "capacity": 0,
        "available_bikes": 0,
        "hub_type": "standard",
        "status": "active"
      }
    },
    {
      "type": "Feature",
      "geometry": {
        "type": "Point",
        "coordinates": [
          10.1886606,
          56.1692467
        ]
      },
      "properties": {
        "id": 4364,
        "name": "Storcenter Nord, Shopping Center",
        "address": "",
        "city": "",
        "capacity": 0,
        "available_bikes": 0,
        "hub_type": "standard",
        "status": "active"
      }
    },
    {
      "type": "Feature",
      "geometry": {
        "type": "Point",
        "coordinates": [
          10.2098759,
          56.1601301
        ]
      },
      "properties": {
        "id": 4520,
        "name": "Paradisgade 6",
        "address": "",
        "city": "",
        "capacity": 0,
        "available_bikes": 0,
        "hub_type": "standard",
        "status": "active"
      }
    },
    {
      "type": "Feature",
      "geometry": {
        "type": "Point",
        "coordinates": [
          10.2070472,
          56.1673903
        ]
      },
      "properties": {
        "id": 4133,
        "name": "Nørregade/Letbanen/AU",
        "address": "",
        "city": "",
        "capacity": 0,
        "available_bikes": 0,
        "hub_type": "standard",
        "status": "active"
      }
    },
    {
      "type": "Feature",
      "geometry": {
        "type": "Point",
        "coordinates": [
          10.1996337,
          56.1445896
        ]
      },
      "properties": {
        "id": 5354,
        "name": "VUC",
        "address": "",
        "city": "",
        "capacity": 0,
        "available_bikes": 0,
        "hub_type": "standard",
        "status": "active"
      }
    },
    {
      "type": "Feature",
      "geometry": {
        "type": "Point",
        "coordinates": [
          10.210979,
          56.154145
        ]
      },
      "properties": {
        "id": 15751,
        "name": "Highlanders Bar",
        "address": "",
        "city": "",
        "capacity": 0,
        "available_bikes": 0,
        "hub_type": "standard",
        "status": "active"
      }
    },
    {
      "type": "Feature",
      "geometry": {
        "type": "Point",
        "coordinates": [
          10.1855004,
          56.1454037
        ]
      },
      "properties": {
        "id": 8582,
        "name": "Nordborggade 24",
        "address": "",
        "city": "",
        "capacity": 0,
        "available_bikes": 0,
        "hub_type": "standard",
        "status": "active"
      }
    },
    {
      "type": "Feature",
      "geometry": {
        "type": "Point",
        "coordinates": [
          10.222356,
          56.168824
        ]
      },
      "properties": {
        "id": 13373,
        "name": "Fiskerivej",
        "address": "",
        "city": "",
        "capacity": 0,
        "available_bikes": 0,
        "hub_type": "standard",
        "status": "active"
      }
    },
    {
      "type": "Feature",
      "geometry": {
        "type": "Point",
        "coordinates": [
          10.2067441,
          56.1566316
        ]
      },
      "properties": {
        "id": 6918,
        "name": "Åboulevarden 41",
        "address": "",
        "city": "",
        "capacity": 0,
        "available_bikes": 0,
        "hub_type": "standard",
        "status": "active"
      }
    },
    {
      "type": "Feature",
      "geometry": {
        "type": "Point",
        "coordinates": [
          10.1848019,
          56.1514421
        ]
      },
      "properties": {
        "id": 17706,
        "name": "Dirch Passers Gade 3",
        "address": "",
        "city": "",
        "capacity": 0,
        "available_bikes": 0,
        "hub_type": "standard",
        "status": "active"
      }
    },
    {
      "type": "Feature",
      "geometry": {
        "type": "Point",
        "coordinates": [
          10.1845515,
          56.1571309
        ]
      },
      "properties": {
        "id": 5141,
        "name": "Regenburgsgade 15",
        "address": "",
        "city": "",
        "capacity": 0,
        "available_bikes": 0,
        "hub_type": "standard",
        "status": "active"
      }
    },
    {
      "type": "Feature",
      "geometry": {
        "type": "Point",
        "coordinates": [
          10.2036515,
          56.1557301
        ]
      },
      "properties": {
        "id": 3853,
        "name": "Christiansgade/Memphis Roadhouse",
        "address": "",
        "city": "",
        "capacity": 0,
        "available_bikes": 0,
        "hub_type": "standard",
        "status": "active"
      }
    },
    {
      "type": "Feature",
      "geometry": {
        "type": "Point",
        "coordinates": [
          10.130459,
          56.1550052
        ]
      },
      "properties": {
        "id": 32485,
        "name": "Sigridsvej",
        "address": "",
        "city": "",
        "capacity": 0,
        "available_bikes": 0,
        "hub_type": "standard",
        "status": "active"
      }
    },
    {
      "type": "Feature",
      "geometry": {
        "type": "Point",
        "coordinates": [
          10.2020871,
          56.1651705
        ]
      },
      "properties": {
        "id": 4989,
        "name": "Høegh-Guldbergs Gade",
        "address": "",
        "city": "",
        "capacity": 0,
        "available_bikes": 0,
        "hub_type": "standard",
        "status": "active"
      }
    },
    {
      "type": "Feature",
      "geometry": {
        "type": "Point",
        "coordinates": [
          10.1770959,
          56.1363677
        ]
      },
      "properties": {
        "id": 13413,
        "name": "Rosenvand Allé 3",
        "address": "",
        "city": "",
        "capacity": 0,
        "available_bikes": 0,
        "hub_type": "standard",
        "status": "active"
      }
    },
    {
      "type": "Feature",
      "geometry": {
        "type": "Point",
        "coordinates": [
          10.1158464,
          56.1290674
        ]
      },
      "properties": {
        "id": 23883,
        "name": "Klokkeskovvej",
        "address": "",
        "city": "",
        "capacity": 0,
        "available_bikes": 0,
        "hub_type": "standard",
        "status": "active"
      }
    },
    {
      "type": "Feature",
      "geometry": {
        "type": "Point",
        "coordinates": [
          10.1839051,
          56.1626044
        ]
      },
      "properties": {
        "id": 3892,
        "name": "Aarhus BSS_Studenterlauget",
        "address": "",
        "city": "",
        "capacity": 0,
        "available_bikes": 0,
        "hub_type": "standard",
        "status": "active"
      }
    },
    {
      "type": "Feature",
      "geometry": {
        "type": "Point",
        "coordinates": [
          10.2051052,
          56.1719392
        ]
      },
      "properties": {
        "id": 3899,
        "name": "Nobel Parken/Aarhus University Library",
        "address": "",
        "city": "",
        "capacity": 0,
        "available_bikes": 0,
        "hub_type": "standard",
        "status": "active"
      }
    },
    {
      "type": "Feature",
      "geometry": {
        "type": "Point",
        "coordinates": [
          10.2118497,
          56.1543236
        ]
      },
      "properties": {
        "id": 3923,
        "name": "Mindebrogade",
        "address": "",
        "city": "",
        "capacity": 0,
        "available_bikes": 0,
        "hub_type": "standard",
        "status": "active"
      }
    },
    {
      "type": "Feature",
      "geometry": {
        "type": "Point",
        "coordinates": [
          10.2150245,
          56.1874735
        ]
      },
      "properties": {
        "id": 15355,
        "name": "Netto/Meny Vindrosen",
        "address": "",
        "city": "",
        "capacity": 0,
        "available_bikes": 0,
        "hub_type": "standard",
        "status": "active"
      }
    },
    {
      "type": "Feature",
      "geometry": {
        "type": "Point",
        "coordinates": [
          10.1917934,
          56.1477949
        ]
      },
      "properties": {
        "id": 5145,
        "name": "Læssøegade 45",
        "address": "",
        "city": "",
        "capacity": 0,
        "available_bikes": 0,
        "hub_type": "standard",
        "status": "active"
      }
    },
    {
      "type": "Feature",
      "geometry": {
        "type": "Point",
        "coordinates": [
          10.2057114,
          56.1513421
        ]
      },
      "properties": {
        "id": 5112,
        "name": "Aarhus Central Food Market",
        "address": "",
        "city": "",
        "capacity": 0,
        "available_bikes": 0,
        "hub_type": "standard",
        "status": "active"
      }
    },
    {
      "type": "Feature",
      "geometry": {
        "type": "Point",
        "coordinates": [
          10.2468471,
          56.1904986
        ]
      },
      "properties": {
        "id": 4342,
        "name": "Rowing Club, Risskov",
        "address": "",
        "city": "",
        "capacity": 0,
        "available_bikes": 0,
        "hub_type": "standard",
        "status": "active"
      }
    },
    {
      "type": "Feature",
      "geometry": {
        "type": "Point",
        "coordinates": [
          10.167554,
          56.1749331
        ]
      },
      "properties": {
        "id": 11432,
        "name": "Snogebæksvej",
        "address": "",
        "city": "",
        "capacity": 0,
        "available_bikes": 0,
        "hub_type": "standard",
        "status": "active"
      }
    },
    {
      "type": "Feature",
      "geometry": {
        "type": "Point",
        "coordinates": [
          10.2066444,
          56.1540727
        ]
      },
      "properties": {
        "id": 3841,
        "name": "Salling",
        "address": "",
        "city": "",
        "capacity": 0,
        "available_bikes": 0,
        "hub_type": "standard",
        "status": "active"
      }
    },
    {
      "type": "Feature",
      "geometry": {
        "type": "Point",
        "coordinates": [
          10.2150153,
          56.1591002
        ]
      },
      "properties": {
        "id": 3849,
        "name": "Navitas/Bestseller",
        "address": "",
        "city": "",
        "capacity": 0,
        "available_bikes": 0,
        "hub_type": "standard",
        "status": "active"
      }
    },
    {
      "type": "Feature",
      "geometry": {
        "type": "Point",
        "coordinates": [
          10.2301118,
          56.1658952
        ]
      },
      "properties": {
        "id": 14098,
        "name": "Helga Perdersens Gade",
        "address": "",
        "city": "",
        "capacity": 0,
        "available_bikes": 0,
        "hub_type": "standard",
        "status": "active"
      }
    },
    {
      "type": "Feature",
      "geometry": {
        "type": "Point",
        "coordinates": [
          10.180172,
          56.2035507
        ]
      },
      "properties": {
        "id": 32345,
        "name": "Ikea lot",
        "address": "",
        "city": "",
        "capacity": 0,
        "available_bikes": 0,
        "hub_type": "standard",
        "status": "active"
      }
    },
    {
      "type": "Feature",
      "geometry": {
        "type": "Point",
        "coordinates": [
          10.2231958,
          56.1656602
        ]
      },
      "properties": {
        "id": 16469,
        "name": "Aarhus Lystbådehavn",
        "address": "",
        "city": "",
        "capacity": 0,
        "available_bikes": 0,
        "hub_type": "standard",
        "status": "active"
      }
    },
    {
      "type": "Feature",
      "geometry": {
        "type": "Point",
        "coordinates": [
          10.2240591,
          56.2090677
        ]
      },
      "properties": {
        "id": 22510,
        "name": "Match Padel",
        "address": "",
        "city": "",
        "capacity": 0,
        "available_bikes": 0,
        "hub_type": "standard",
        "status": "active"
      }
    },
    {
      "type": "Feature",
      "geometry": {
        "type": "Point",
        "coordinates": [
          10.2814677,
          56.2027976
        ]
      },
      "properties": {
        "id": 4982,
        "name": "Åkrogs Strand",
        "address": "",
        "city": "",
        "capacity": 0,
        "available_bikes": 0,
        "hub_type": "standard",
        "status": "active"
      }
    },
    {
      "type": "Feature",
      "geometry": {
        "type": "Point",
        "coordinates": [
          10.2070257,
          56.1666152
        ]
      },
      "properties": {
        "id": 4986,
        "name": "AU, VAB",
        "address": "",
        "city": "",
        "capacity": 0,
        "available_bikes": 0,
        "hub_type": "standard",
        "status": "active"
      }
    },
    {
      "type": "Feature",
      "geometry": {
        "type": "Point",
        "coordinates": [
          10.1872642,
          56.1514643
        ]
      },
      "properties": {
        "id": 23841,
        "name": "Lone Kellermanns Gade",
        "address": "",
        "city": "",
        "capacity": 0,
        "available_bikes": 0,
        "hub_type": "standard",
        "status": "active"
      }
    },
    {
      "type": "Feature",
      "geometry": {
        "type": "Point",
        "coordinates": [
          10.2111507,
          56.1562462
        ]
      },
      "properties": {
        "id": 3844,
        "name": "Aarhus Theatre/Cafe Hack",
        "address": "",
        "city": "",
        "capacity": 0,
        "available_bikes": 0,
        "hub_type": "standard",
        "status": "active"
      }
    },
    {
      "type": "Feature",
      "geometry": {
        "type": "Point",
        "coordinates": [
          10.195448,
          56.1538652
        ]
      },
      "properties": {
        "id": 3884,
        "name": "Godsbanen_2",
        "address": "",
        "city": "",
        "capacity": 0,
        "available_bikes": 0,
        "hub_type": "standard",
        "status": "active"
      }
    },
    {
      "type": "Feature",
      "geometry": {
        "type": "Point",
        "coordinates": [
          10.2061195,
          56.2005196
        ]
      },
      "properties": {
        "id": 32297,
        "name": "Børnehuset Ved Skoven",
        "address": "",
        "city": "",
        "capacity": 0,
        "available_bikes": 0,
        "hub_type": "standard",
        "status": "active"
      }
    },
    {
      "type": "Feature",
      "geometry": {
        "type": "Point",
        "coordinates": [
          10.2422693,
          56.192605
        ]
      },
      "properties": {
        "id": 4341,
        "name": "Fakta Q, Risskov",
        "address": "",
        "city": "",
        "capacity": 0,
        "available_bikes": 0,
        "hub_type": "standard",
        "status": "active"
      }
    },
    {
      "type": "Feature",
      "geometry": {
        "type": "Point",
        "coordinates": [
          10.164743,
          56.1552372
        ]
      },
      "properties": {
        "id": 4254,
        "name": "Gårdbutikker",
        "address": "",
        "city": "",
        "capacity": 0,
        "available_bikes": 0,
        "hub_type": "standard",
        "status": "active"
      }
    },
    {
      "type": "Feature",
      "geometry": {
        "type": "Point",
        "coordinates": [
          10.1890187,
          56.1856074
        ]
      },
      "properties": {
        "id": 27755,
        "name": "Kulturhus Bunkeren",
        "address": "",
        "city": "",
        "capacity": 0,
        "available_bikes": 0,
        "hub_type": "standard",
        "status": "active"
      }
    },
    {
      "type": "Feature",
      "geometry": {
        "type": "Point",
        "coordinates": [
          10.1887984,
          56.1518977
        ]
      },
      "properties": {
        "id": 23842,
        "name": "Thomas Koppels Gade",
        "address": "",
        "city": "",
        "capacity": 0,
        "available_bikes": 0,
        "hub_type": "standard",
        "status": "active"
      }
    },
    {
      "type": "Feature",
      "geometry": {
        "type": "Point",
        "coordinates": [
          10.1877422,
          56.1659074
        ]
      },
      "properties": {
        "id": 16514,
        "name": "Vestre Ringgade #2",
        "address": "",
        "city": "",
        "capacity": 0,
        "available_bikes": 0,
        "hub_type": "standard",
        "status": "active"
      }
    },
    {
      "type": "Feature",
      "geometry": {
        "type": "Point",
        "coordinates": [
          10.2258696,
          56.1684505
        ]
      },
      "properties": {
        "id": 5012,
        "name": "International Sailing Center, Aarhus",
        "address": "",
        "city": "",
        "capacity": 0,
        "available_bikes": 0,
        "hub_type": "standard",
        "status": "active"
      }
    },
    {
      "type": "Feature",
      "geometry": {
        "type": "Point",
        "coordinates": [
          10.2172388,
          56.1529391
        ]
      },
      "properties": {
        "id": 31728,
        "name": "Aarhus havn",
        "address": "",
        "city": "",
        "capacity": 0,
        "available_bikes": 0,
        "hub_type": "standard",
        "status": "active"
      }
    },
    {
      "type": "Feature",
      "geometry": {
        "type": "Point",
        "coordinates": [
          10.2269921,
          56.1647437
        ]
      },
      "properties": {
        "id": 4888,
        "name": "Harbor Apartments",
        "address": "",
        "city": "",
        "capacity": 0,
        "available_bikes": 0,
        "hub_type": "standard",
        "status": "active"
      }
    },
    {
      "type": "Feature",
      "geometry": {
        "type": "Point",
        "coordinates": [
          10.2080718,
          56.1515931
        ]
      },
      "properties": {
        "id": 4346,
        "name": "Corner Bus Station",
        "address": "",
        "city": "",
        "capacity": 0,
        "available_bikes": 0,
        "hub_type": "standard",
        "status": "active"
      }
    },
    {
      "type": "Feature",
      "geometry": {
        "type": "Point",
        "coordinates": [
          10.1727112,
          56.1374714
        ]
      },
      "properties": {
        "id": 13412,
        "name": "Bjørnholms Alle",
        "address": "",
        "city": "",
        "capacity": 0,
        "available_bikes": 0,
        "hub_type": "standard",
        "status": "active"
      }
    },
    {
      "type": "Feature",
      "geometry": {
        "type": "Point",
        "coordinates": [
          10.1805121,
          56.1924196
        ]
      },
      "properties": {
        "id": 31558,
        "name": "Hedeager 2",
        "address": "",
        "city": "",
        "capacity": 0,
        "available_bikes": 0,
        "hub_type": "standard",
        "status": "active"
      }
    },
    {
      "type": "Feature",
      "geometry": {
        "type": "Point",
        "coordinates": [
          10.2186745,
          56.12309
        ]
      },
      "properties": {
        "id": 4891,
        "name": "Deer Park Main Entrance",
        "address": "",
        "city": "",
        "capacity": 0,
        "available_bikes": 0,
        "hub_type": "standard",
        "status": "active"
      }
    },
    {
      "type": "Feature",
      "geometry": {
        "type": "Point",
        "coordinates": [
          10.1966294,
          56.1609701
        ]
      },
      "properties": {
        "id": 15644,
        "name": "Langelandsgade 30",
        "address": "",
        "city": "",
        "capacity": 0,
        "available_bikes": 0,
        "hub_type": "standard",
        "status": "active"
      }
    },
    {
      "type": "Feature",
      "geometry": {
        "type": "Point",
        "coordinates": [
          10.1687881,
          56.1494993
        ]
      },
      "properties": {
        "id": 30551,
        "name": "Søren Frichs Vej 51",
        "address": "",
        "city": "",
        "capacity": 0,
        "available_bikes": 0,
        "hub_type": "standard",
        "status": "active"
      }
    },
    {
      "type": "Feature",
      "geometry": {
        "type": "Point",
        "coordinates": [
          10.2372994,
          56.1948737
        ]
      },
      "properties": {
        "id": 6286,
        "name": "Vestre Strandallé ",
        "address": "",
        "city": "",
        "capacity": 0,
        "available_bikes": 0,
        "hub_type": "standard",
        "status": "active"
      }
    },
    {
      "type": "Feature",
      "geometry": {
        "type": "Point",
        "coordinates": [
          10.2120593,
          56.1624091
        ]
      },
      "properties": {
        "id": 16248,
        "name": "Knudrisgade 5",
        "address": "",
        "city": "",
        "capacity": 0,
        "available_bikes": 0,
        "hub_type": "standard",
        "status": "active"
      }
    },
    {
      "type": "Feature",
      "geometry": {
        "type": "Point",
        "coordinates": [
          10.1948438,
          56.1577865
        ]
      },
      "properties": {
        "id": 15767,
        "name": "Mønsgade 4",
        "address": "",
        "city": "",
        "capacity": 0,
        "available_bikes": 0,
        "hub_type": "standard",
        "status": "active"
      }
    },
    {
      "type": "Feature",
      "geometry": {
        "type": "Point",
        "coordinates": [
          10.2326918,
          56.2042092
        ]
      },
      "properties": {
        "id": 24549,
        "name": "Arresøvej",
        "address": "",
        "city": "",
        "capacity": 0,
        "available_bikes": 0,
        "hub_type": "standard",
        "status": "active"
      }
    },
    {
      "type": "Feature",
      "geometry": {
        "type": "Point",
        "coordinates": [
          10.2073119,
          56.1956812
        ]
      },
      "properties": {
        "id": 26537,
        "name": "Spar Vejlby",
        "address": "",
        "city": "",
        "capacity": 0,
        "available_bikes": 0,
        "hub_type": "standard",
        "status": "active"
      }
    },
    {
      "type": "Feature",
      "geometry": {
        "type": "Point",
        "coordinates": [
          10.2060338,
          56.1665697
        ]
      },
      "properties": {
        "id": 32314,
        "name": "søauditorierne",
        "address": "",
        "city": "",
        "capacity": 0,
        "available_bikes": 0,
        "hub_type": "standard",
        "status": "active"
      }
    },
    {
      "type": "Feature",
      "geometry": {
        "type": "Point",
        "coordinates": [
          10.2187262,
          56.1613719
        ]
      },
      "properties": {
        "id": 4515,
        "name": "Ølandsgade",
        "address": "",
        "city": "",
        "capacity": 0,
        "available_bikes": 0,
        "hub_type": "standard",
        "status": "active"
      }
    },
    {
      "type": "Feature",
      "geometry": {
        "type": "Point",
        "coordinates": [
          10.1997227,
          56.17067
        ]
      },
      "properties": {
        "id": 3896,
        "name": "Nordre Ringgade/Aarhus University Library",
        "address": "",
        "city": "",
        "capacity": 0,
        "available_bikes": 0,
        "hub_type": "standard",
        "status": "active"
      }
    },
    {
      "type": "Feature",
      "geometry": {
        "type": "Point",
        "coordinates": [
          10.2191104,
          56.1636021
        ]
      },
      "properties": {
        "id": 23534,
        "name": "Hjortholmsvej 2B",
        "address": "",
        "city": "",
        "capacity": 0,
        "available_bikes": 0,
        "hub_type": "standard",
        "status": "active"
      }
    },
    {
      "type": "Feature",
      "geometry": {
        "type": "Point",
        "coordinates": [
          10.2194883,
          56.139503
        ]
      },
      "properties": {
        "id": 32416,
        "name": "Marselisborg Lystbådehavn Caravan",
        "address": "",
        "city": "",
        "capacity": 0,
        "available_bikes": 0,
        "hub_type": "standard",
        "status": "active"
      }
    },
    {
      "type": "Feature",
      "geometry": {
        "type": "Point",
        "coordinates": [
          10.1947687,
          56.1869652
        ]
      },
      "properties": {
        "id": 3932,
        "name": "Nydamsvej/Randersvej, Aarhus Tech",
        "address": "",
        "city": "",
        "capacity": 0,
        "available_bikes": 0,
        "hub_type": "standard",
        "status": "active"
      }
    },
    {
      "type": "Feature",
      "geometry": {
        "type": "Point",
        "coordinates": [
          10.2106407,
          56.1733655
        ]
      },
      "properties": {
        "id": 4338,
        "name": "Aldersrovej 33",
        "address": "",
        "city": "",
        "capacity": 0,
        "available_bikes": 0,
        "hub_type": "standard",
        "status": "active"
      }
    },
    {
      "type": "Feature",
      "geometry": {
        "type": "Point",
        "coordinates": [
          10.2152983,
          56.1746729
        ]
      },
      "properties": {
        "id": 15130,
        "name": "Steen billes gade",
        "address": "",
        "city": "",
        "capacity": 0,
        "available_bikes": 0,
        "hub_type": "standard",
        "status": "active"
      }
    },
    {
      "type": "Feature",
      "geometry": {
        "type": "Point",
        "coordinates": [
          10.1743883,
          56.1977597
        ]
      },
      "properties": {
        "id": 32347,
        "name": "elbek",
        "address": "",
        "city": "",
        "capacity": 0,
        "available_bikes": 0,
        "hub_type": "standard",
        "status": "active"
      }
    },
    {
      "type": "Feature",
      "geometry": {
        "type": "Point",
        "coordinates": [
          10.1818333,
          56.1534949
        ]
      },
      "properties": {
        "id": 12519,
        "name": "Søren Frichs Vej Corner",
        "address": "",
        "city": "",
        "capacity": 0,
        "available_bikes": 0,
        "hub_type": "standard",
        "status": "active"
      }
    },
    {
      "type": "Feature",
      "geometry": {
        "type": "Point",
        "coordinates": [
          10.1985975,
          56.1582707
        ]
      },
      "properties": {
        "id": 3888,
        "name": "Vesterbro Torv",
        "address": "",
        "city": "",
        "capacity": 0,
        "available_bikes": 0,
        "hub_type": "standard",
        "status": "active"
      }
    },
    {
      "type": "Feature",
      "geometry": {
        "type": "Point",
        "coordinates": [
          10.2034044,
          56.1741371
        ]
      },
      "properties": {
        "id": 20927,
        "name": "Funch Thomsens Gade",
        "address": "",
        "city": "",
        "capacity": 0,
        "available_bikes": 0,
        "hub_type": "standard",
        "status": "active"
      }
    },
    {
      "type": "Feature",
      "geometry": {
        "type": "Point",
        "coordinates": [
          10.2470269,
          56.1947277
        ]
      },
      "properties": {
        "id": 6554,
        "name": "Sports complex Risskov",
        "address": "",
        "city": "",
        "capacity": 0,
        "available_bikes": 0,
        "hub_type": "standard",
        "status": "active"
      }
    },
    {
      "type": "Feature",
      "geometry": {
        "type": "Point",
        "coordinates": [
          10.1901197,
          56.1714957
        ]
      },
      "properties": {
        "id": 4972,
        "name": "Finlandsgade 21",
        "address": "",
        "city": "",
        "capacity": 0,
        "available_bikes": 0,
        "hub_type": "standard",
        "status": "active"
      }
    },
    {
      "type": "Feature",
      "geometry": {
        "type": "Point",
        "coordinates": [
          10.163355,
          56.128709
        ]
      },
      "properties": {
        "id": 20782,
        "name": "Viby Torv",
        "address": "",
        "city": "",
        "capacity": 0,
        "available_bikes": 0,
        "hub_type": "standard",
        "status": "active"
      }
    },
    {
      "type": "Feature",
      "geometry": {
        "type": "Point",
        "coordinates": [
          10.199221,
          56.150665
        ]
      },
      "properties": {
        "id": 3870,
        "name": "Frederiks Alle/Føtex",
        "address": "",
        "city": "",
        "capacity": 0,
        "available_bikes": 0,
        "hub_type": "standard",
        "status": "active"
      }
    },
    {
      "type": "Feature",
      "geometry": {
        "type": "Point",
        "coordinates": [
          10.2132709,
          56.1549838
        ]
      },
      "properties": {
        "id": 13614,
        "name": "Hack Kampmanns Pl. ",
        "address": "",
        "city": "",
        "capacity": 0,
        "available_bikes": 0,
        "hub_type": "standard",
        "status": "active"
      }
    },
    {
      "type": "Feature",
      "geometry": {
        "type": "Point",
        "coordinates": [
          10.2147739,
          56.1585978
        ]
      },
      "properties": {
        "id": 3848,
        "name": "Navitas",
        "address": "",
        "city": "",
        "capacity": 0,
        "available_bikes": 0,
        "hub_type": "standard",
        "status": "active"
      }
    },
    {
      "type": "Feature",
      "geometry": {
        "type": "Point",
        "coordinates": [
          10.2030446,
          56.1516103
        ]
      },
      "properties": {
        "id": 3825,
        "name": "City Hall Tower",
        "address": "",
        "city": "",
        "capacity": 0,
        "available_bikes": 0,
        "hub_type": "standard",
        "status": "active"
      }
    },
    {
      "type": "Feature",
      "geometry": {
        "type": "Point",
        "coordinates": [
          10.1041786,
          56.1533108
        ]
      },
      "properties": {
        "id": 23222,
        "name": "Søvej Brabrand",
        "address": "",
        "city": "",
        "capacity": 0,
        "available_bikes": 0,
        "hub_type": "standard",
        "status": "active"
      }
    },
    {
      "type": "Feature",
      "geometry": {
        "type": "Point",
        "coordinates": [
          10.1669475,
          56.192252
        ]
      },
      "properties": {
        "id": 26300,
        "name": "Skejby Indgang J",
        "address": "",
        "city": "",
        "capacity": 0,
        "available_bikes": 0,
        "hub_type": "standard",
        "status": "active"
      }
    },
    {
      "type": "Feature",
      "geometry": {
        "type": "Point",
        "coordinates": [
          10.2076517,
          56.1492311
        ]
      },
      "properties": {
        "id": 20963,
        "name": "Værkmestergade",
        "address": "",
        "city": "",
        "capacity": 0,
        "available_bikes": 0,
        "hub_type": "standard",
        "status": "active"
      }
    },
    {
      "type": "Feature",
      "geometry": {
        "type": "Point",
        "coordinates": [
          10.190061,
          56.1945341
        ]
      },
      "properties": {
        "id": 17072,
        "name": "Skejby parken 8",
        "address": "",
        "city": "",
        "capacity": 0,
        "available_bikes": 0,
        "hub_type": "standard",
        "status": "active"
      }
    },
    {
      "type": "Feature",
      "geometry": {
        "type": "Point",
        "coordinates": [
          10.1872515,
          56.1642977
        ]
      },
      "properties": {
        "id": 3890,
        "name": "Vestre Ringgade-Bottanisk have",
        "address": "",
        "city": "",
        "capacity": 0,
        "available_bikes": 0,
        "hub_type": "standard",
        "status": "active"
      }
    },
    {
      "type": "Feature",
      "geometry": {
        "type": "Point",
        "coordinates": [
          10.199254,
          56.1699309
        ]
      },
      "properties": {
        "id": 3895,
        "name": "Aarhus University Library",
        "address": "",
        "city": "",
        "capacity": 0,
        "available_bikes": 0,
        "hub_type": "standard",
        "status": "active"
      }
    },
    {
      "type": "Feature",
      "geometry": {
        "type": "Point",
        "coordinates": [
          10.1789836,
          56.1563006
        ]
      },
      "properties": {
        "id": 6258,
        "name": "Silkeborgvej 142",
        "address": "",
        "city": "",
        "capacity": 0,
        "available_bikes": 0,
        "hub_type": "standard",
        "status": "active"
      }
    },
    {
      "type": "Feature",
      "geometry": {
        "type": "Point",
        "coordinates": [
          10.1655742,
          56.1501288
        ]
      },
      "properties": {
        "id": 15890,
        "name": "Søren Frichs Vej 59",
        "address": "",
        "city": "",
        "capacity": 0,
        "available_bikes": 0,
        "hub_type": "standard",
        "status": "active"
      }
    },
    {
      "type": "Feature",
      "geometry": {
        "type": "Point",
        "coordinates": [
          10.2162384,
          56.170854
        ]
      },
      "properties": {
        "id": 4336,
        "name": "Tordenskjoldsgade",
        "address": "",
        "city": "",
        "capacity": 0,
        "available_bikes": 0,
        "hub_type": "standard",
        "status": "active"
      }
    },
    {
      "type": "Feature",
      "geometry": {
        "type": "Point",
        "coordinates": [
          10.1335748,
          56.1605808
        ]
      },
      "properties": {
        "id": 20335,
        "name": "Aarhus Kollegiet lottesvej",
        "address": "",
        "city": "",
        "capacity": 0,
        "available_bikes": 0,
        "hub_type": "standard",
        "status": "active"
      }
    },
    {
      "type": "Feature",
      "geometry": {
        "type": "Point",
        "coordinates": [
          10.1812738,
          56.1564415
        ]
      },
      "properties": {
        "id": 4971,
        "name": "Silkeborgvej 96",
        "address": "",
        "city": "",
        "capacity": 0,
        "available_bikes": 0,
        "hub_type": "standard",
        "status": "active"
      }
    },
    {
      "type": "Feature",
      "geometry": {
        "type": "Point",
        "coordinates": [
          10.2028917,
          56.1708167
        ]
      },
      "properties": {
        "id": 32539,
        "name": "Bartholin's Allé",
        "address": "",
        "city": "",
        "capacity": 0,
        "available_bikes": 0,
        "hub_type": "standard",
        "status": "active"
      }
    },
    {
      "type": "Feature",
      "geometry": {
        "type": "Point",
        "coordinates": [
          10.1991082,
          56.157487
        ]
      },
      "properties": {
        "id": 22551,
        "name": "Vestergade/Vesterbro",
        "address": "",
        "city": "",
        "capacity": 0,
        "available_bikes": 0,
        "hub_type": "standard",
        "status": "active"
      }
    },
    {
      "type": "Feature",
      "geometry": {
        "type": "Point",
        "coordinates": [
          10.1740212,
          56.151639
        ]
      },
      "properties": {
        "id": 12594,
        "name": "Valhalvej ",
        "address": "",
        "city": "",
        "capacity": 0,
        "available_bikes": 0,
        "hub_type": "standard",
        "status": "active"
      }
    },
    {
      "type": "Feature",
      "geometry": {
        "type": "Point",
        "coordinates": [
          10.2126878,
          56.1530159
        ]
      },
      "properties": {
        "id": 3827,
        "name": "Dokk1_1",
        "address": "",
        "city": "",
        "capacity": 0,
        "available_bikes": 0,
        "hub_type": "standard",
        "status": "active"
      }
    },
    {
      "type": "Feature",
      "geometry": {
        "type": "Point",
        "coordinates": [
          10.1991004,
          56.1545771
        ]
      },
      "properties": {
        "id": 3880,
        "name": "Aros",
        "address": "",
        "city": "",
        "capacity": 0,
        "available_bikes": 0,
        "hub_type": "standard",
        "status": "active"
      }
    },
    {
      "type": "Feature",
      "geometry": {
        "type": "Point",
        "coordinates": [
          10.24757,
          56.0887795
        ]
      },
      "properties": {
        "id": 4345,
        "name": "Moesgaard Beach",
        "address": "",
        "city": "",
        "capacity": 0,
        "available_bikes": 0,
        "hub_type": "standard",
        "status": "active"
      }
    },
    {
      "type": "Feature",
      "geometry": {
        "type": "Point",
        "coordinates": [
          10.260802,
          56.201582
        ]
      },
      "properties": {
        "id": 27979,
        "name": "Netto Risskov",
        "address": "",
        "city": "",
        "capacity": 0,
        "available_bikes": 0,
        "hub_type": "standard",
        "status": "active"
      }
    },
    {
      "type": "Feature",
      "geometry": {
        "type": "Point",
        "coordinates": [
          10.1824531,
          56.1547326
        ]
      },
      "properties": {
        "id": 4358,
        "name": "Netto, Vestre Ringgade",
        "address": "",
        "city": "",
        "capacity": 0,
        "available_bikes": 0,
        "hub_type": "standard",
        "status": "active"
      }
    },
    {
      "type": "Feature",
      "geometry": {
        "type": "Point",
        "coordinates": [
          10.2235461,
          56.1938325
        ]
      },
      "properties": {
        "id": 28929,
        "name": "Risskov Bibliotek",
        "address": "",
        "city": "",
        "capacity": 0,
        "available_bikes": 0,
        "hub_type": "standard",
        "status": "active"
      }
    },
    {
      "type": "Feature",
      "geometry": {
        "type": "Point",
        "coordinates": [
          10.2881488,
          56.2102322
        ]
      },
      "properties": {
        "id": 31849,
        "name": "Egå Marina",
        "address": "",
        "city": "",
        "capacity": 0,
        "available_bikes": 0,
        "hub_type": "standard",
        "status": "active"
      }
    },
    {
      "type": "Feature",
      "geometry": {
        "type": "Point",
        "coordinates": [
          10.092562,
          56.1869604
        ]
      },
      "properties": {
        "id": 23824,
        "name": "Tilst Disc Golf Bane",
        "address": "",
        "city": "",
        "capacity": 0,
        "available_bikes": 0,
        "hub_type": "standard",
        "status": "active"
      }
    },
    {
      "type": "Feature",
      "geometry": {
        "type": "Point",
        "coordinates": [
          10.2298091,
          56.1652572
        ]
      },
      "properties": {
        "id": 3911,
        "name": "Isbjerget",
        "address": "",
        "city": "",
        "capacity": 0,
        "available_bikes": 0,
        "hub_type": "standard",
        "status": "active"
      }
    },
    {
      "type": "Feature",
      "geometry": {
        "type": "Point",
        "coordinates": [
          10.156518,
          56.1708107
        ]
      },
      "properties": {
        "id": 19862,
        "name": "Åby Ringvej/Viborgvej",
        "address": "",
        "city": "",
        "capacity": 0,
        "available_bikes": 0,
        "hub_type": "standard",
        "status": "active"
      }
    },
    {
      "type": "Feature",
      "geometry": {
        "type": "Point",
        "coordinates": [
          10.222093,
          56.0884113
        ]
      },
      "properties": {
        "id": 4343,
        "name": "Moesgaard Museum",
        "address": "",
        "city": "",
        "capacity": 0,
        "available_bikes": 0,
        "hub_type": "standard",
        "status": "active"
      }
    },
    {
      "type": "Feature",
      "geometry": {
        "type": "Point",
        "coordinates": [
          10.2160433,
          56.1625201
        ]
      },
      "properties": {
        "id": 4138,
        "name": "Paustian",
        "address": "",
        "city": "",
        "capacity": 0,
        "available_bikes": 0,
        "hub_type": "standard",
        "status": "active"
      }
    },
    {
      "type": "Feature",
      "geometry": {
        "type": "Point",
        "coordinates": [
          10.1931785,
          56.1578606
        ]
      },
      "properties": {
        "id": 29264,
        "name": "Den Gamle by",
        "address": "",
        "city": "",
        "capacity": 0,
        "available_bikes": 0,
        "hub_type": "standard",
        "status": "active"
      }
    },
    {
      "type": "Feature",
      "geometry": {
        "type": "Point",
        "coordinates": [
          10.1768051,
          56.1922874
        ]
      },
      "properties": {
        "id": 15044,
        "name": "Letbanen Stop Aarhus Hospital",
        "address": "",
        "city": "",
        "capacity": 0,
        "available_bikes": 0,
        "hub_type": "standard",
        "status": "active"
      }
    },
    {
      "type": "Feature",
      "geometry": {
        "type": "Point",
        "coordinates": [
          10.1897697,
          56.1526303
        ]
      },
      "properties": {
        "id": 4360,
        "name": "Carl Blochs Gade, Apartments",
        "address": "",
        "city": "",
        "capacity": 0,
        "available_bikes": 0,
        "hub_type": "standard",
        "status": "active"
      }
    },
    {
      "type": "Feature",
      "geometry": {
        "type": "Point",
        "coordinates": [
          10.2119281,
          56.1617383
        ]
      },
      "properties": {
        "id": 3925,
        "name": "Letbanen Nørreport/Nørregade",
        "address": "",
        "city": "",
        "capacity": 0,
        "available_bikes": 0,
        "hub_type": "standard",
        "status": "active"
      }
    },
    {
      "type": "Feature",
      "geometry": {
        "type": "Point",
        "coordinates": [
          10.2062443,
          56.1414006
        ]
      },
      "properties": {
        "id": 6475,
        "name": "Kildegården 14",
        "address": "",
        "city": "",
        "capacity": 0,
        "available_bikes": 0,
        "hub_type": "standard",
        "status": "active"
      }
    },
    {
      "type": "Feature",
      "geometry": {
        "type": "Point",
        "coordinates": [
          10.1359582,
          56.1531891
        ]
      },
      "properties": {
        "id": 27878,
        "name": "Silkeborgvej/Tinesvej",
        "address": "",
        "city": "",
        "capacity": 0,
        "available_bikes": 0,
        "hub_type": "standard",
        "status": "active"
      }
    },
    {
      "type": "Feature",
      "geometry": {
        "type": "Point",
        "coordinates": [
          10.219255,
          56.1690083
        ]
      },
      "properties": {
        "id": 32522,
        "name": "park entrance ",
        "address": "",
        "city": "",
        "capacity": 0,
        "available_bikes": 0,
        "hub_type": "standard",
        "status": "active"
      }
    },
    {
      "type": "Feature",
      "geometry": {
        "type": "Point",
        "coordinates": [
          10.1888534,
          56.1567967
        ]
      },
      "properties": {
        "id": 20786,
        "name": "Ringkøbingvej 28",
        "address": "",
        "city": "",
        "capacity": 0,
        "available_bikes": 0,
        "hub_type": "standard",
        "status": "active"
      }
    },
    {
      "type": "Feature",
      "geometry": {
        "type": "Point",
        "coordinates": [
          10.1694819,
          56.1300976
        ]
      },
      "properties": {
        "id": 23557,
        "name": "Byvangen",
        "address": "",
        "city": "",
        "capacity": 0,
        "available_bikes": 0,
        "hub_type": "standard",
        "status": "active"
      }
    },
    {
      "type": "Feature",
      "geometry": {
        "type": "Point",
        "coordinates": [
          10.1849278,
          56.1270219
        ]
      },
      "properties": {
        "id": 31835,
        "name": "Frendsvang Ruddel",
        "address": "",
        "city": "",
        "capacity": 0,
        "available_bikes": 0,
        "hub_type": "standard",
        "status": "active"
      }
    },
    {
      "type": "Feature",
      "geometry": {
        "type": "Point",
        "coordinates": [
          10.1999664,
          56.1780951
        ]
      },
      "properties": {
        "id": 3930,
        "name": "Randersvej/Stockholmsgade Letbanen stop (Syd)",
        "address": "",
        "city": "",
        "capacity": 0,
        "available_bikes": 0,
        "hub_type": "standard",
        "status": "active"
      }
    },
    {
      "type": "Feature",
      "geometry": {
        "type": "Point",
        "coordinates": [
          10.1918566,
          56.1826814
        ]
      },
      "properties": {
        "id": 16927,
        "name": "Grundtvig Hus Kollegiet",
        "address": "",
        "city": "",
        "capacity": 0,
        "available_bikes": 0,
        "hub_type": "standard",
        "status": "active"
      }
    },
    {
      "type": "Feature",
      "geometry": {
        "type": "Point",
        "coordinates": [
          10.1955511,
          56.1470762
        ]
      },
      "properties": {
        "id": 3879,
        "name": "Ole Rømers Gade/Seven Eleven",
        "address": "",
        "city": "",
        "capacity": 0,
        "available_bikes": 0,
        "hub_type": "standard",
        "status": "active"
      }
    },
    {
      "type": "Feature",
      "geometry": {
        "type": "Point",
        "coordinates": [
          10.1930957,
          56.1710791
        ]
      },
      "properties": {
        "id": 20204,
        "name": "Helsingforsgade",
        "address": "",
        "city": "",
        "capacity": 0,
        "available_bikes": 0,
        "hub_type": "standard",
        "status": "active"
      }
    },
    {
      "type": "Feature",
      "geometry": {
        "type": "Point",
        "coordinates": [
          10.2045193,
          56.1644596
        ]
      },
      "properties": {
        "id": 6445,
        "name": "Vennelyst Blvd.",
        "address": "",
        "city": "",
        "capacity": 0,
        "available_bikes": 0,
        "hub_type": "standard",
        "status": "active"
      }
    },
    {
      "type": "Feature",
      "geometry": {
        "type": "Point",
        "coordinates": [
          10.1964437,
          56.1825521
        ]
      },
      "properties": {
        "id": 3931,
        "name": "Randersvej/Hasle Ringvej (Nord)",
        "address": "",
        "city": "",
        "capacity": 0,
        "available_bikes": 0,
        "hub_type": "standard",
        "status": "active"
      }
    },
    {
      "type": "Feature",
      "geometry": {
        "type": "Point",
        "coordinates": [
          10.1865688,
          56.1427627
        ]
      },
      "properties": {
        "id": 5000,
        "name": "Fakta, Skanderborgvej",
        "address": "",
        "city": "",
        "capacity": 0,
        "available_bikes": 0,
        "hub_type": "standard",
        "status": "active"
      }
    },
    {
      "type": "Feature",
      "geometry": {
        "type": "Point",
        "coordinates": [
          10.20202,
          56.1644555
        ]
      },
      "properties": {
        "id": 30317,
        "name": "Fynsgade 6",
        "address": "",
        "city": "",
        "capacity": 0,
        "available_bikes": 0,
        "hub_type": "standard",
        "status": "active"
      }
    },
    {
      "type": "Feature",
      "geometry": {
        "type": "Point",
        "coordinates": [
          10.2098117,
          56.1562918
        ]
      },
      "properties": {
        "id": 3843,
        "name": "Old Irish",
        "address": "",
        "city": "",
        "capacity": 0,
        "available_bikes": 0,
        "hub_type": "standard",
        "status": "active"
      }
    },
    {
      "type": "Feature",
      "geometry": {
        "type": "Point",
        "coordinates": [
          10.2039,
          56.1717824
        ]
      },
      "properties": {
        "id": 3928,
        "name": "Aarhus University_Letbanen stop_Randersvej",
        "address": "",
        "city": "",
        "capacity": 0,
        "available_bikes": 0,
        "hub_type": "standard",
        "status": "active"
      }
    },
    {
      "type": "Feature",
      "geometry": {
        "type": "Point",
        "coordinates": [
          10.200945,
          56.1481169
        ]
      },
      "properties": {
        "id": 3871,
        "name": "Jægergårdsgade/Netto",
        "address": "",
        "city": "",
        "capacity": 0,
        "available_bikes": 0,
        "hub_type": "standard",
        "status": "active"
      }
    },
    {
      "type": "Feature",
      "geometry": {
        "type": "Point",
        "coordinates": [
          10.1950731,
          56.1527423
        ]
      },
      "properties": {
        "id": 3881,
        "name": "Scandinavian Center/Godsbanen Side",
        "address": "",
        "city": "",
        "capacity": 0,
        "available_bikes": 0,
        "hub_type": "standard",
        "status": "active"
      }
    },
    {
      "type": "Feature",
      "geometry": {
        "type": "Point",
        "coordinates": [
          10.2117676,
          56.1862837
        ]
      },
      "properties": {
        "id": 14389,
        "name": "Møllehatte",
        "address": "",
        "city": "",
        "capacity": 0,
        "available_bikes": 0,
        "hub_type": "standard",
        "status": "active"
      }
    },
    {
      "type": "Feature",
      "geometry": {
        "type": "Point",
        "coordinates": [
          10.2053186,
          56.1712613
        ]
      },
      "properties": {
        "id": 3927,
        "name": "Aarhus University-Nørrebrogade Parking",
        "address": "",
        "city": "",
        "capacity": 0,
        "available_bikes": 0,
        "hub_type": "standard",
        "status": "active"
      }
    },
    {
      "type": "Feature",
      "geometry": {
        "type": "Point",
        "coordinates": [
          10.2054903,
          56.1574083
        ]
      },
      "properties": {
        "id": 18386,
        "name": "Emil Betts Passage 7",
        "address": "",
        "city": "",
        "capacity": 0,
        "available_bikes": 0,
        "hub_type": "standard",
        "status": "active"
      }
    },
    {
      "type": "Feature",
      "geometry": {
        "type": "Point",
        "coordinates": [
          10.1836952,
          56.1895649
        ]
      },
      "properties": {
        "id": 3933,
        "name": "Olof Palmes Alle",
        "address": "",
        "city": "",
        "capacity": 0,
        "available_bikes": 0,
        "hub_type": "standard",
        "status": "active"
      }
    },
    {
      "type": "Feature",
      "geometry": {
        "type": "Point",
        "coordinates": [
          10.2049819,
          56.1669933
        ]
      },
      "properties": {
        "id": 4988,
        "name": "Søauditoriene",
        "address": "",
        "city": "",
        "capacity": 0,
        "available_bikes": 0,
        "hub_type": "standard",
        "status": "active"
      }
    },
    {
      "type": "Feature",
      "geometry": {
        "type": "Point",
        "coordinates": [
          10.1885137,
          56.1460807
        ]
      },
      "properties": {
        "id": 31836,
        "name": "Gerlachsgade",
        "address": "",
        "city": "",
        "capacity": 0,
        "available_bikes": 0,
        "hub_type": "standard",
        "status": "active"
      }
    },
    {
      "type": "Feature",
      "geometry": {
        "type": "Point",
        "coordinates": [
          10.2069234,
          56.1592085
        ]
      },
      "properties": {
        "id": 31208,
        "name": "Arca",
        "address": "",
        "city": "",
        "capacity": 0,
        "available_bikes": 0,
        "hub_type": "standard",
        "status": "active"
      }
    },
    {
      "type": "Feature",
      "geometry": {
        "type": "Point",
        "coordinates": [
          10.2033404,
          56.1528884
        ]
      },
      "properties": {
        "id": 3837,
        "name": "City Hall/Rådhuspladsen Entrance",
        "address": "",
        "city": "",
        "capacity": 0,
        "available_bikes": 0,
        "hub_type": "standard",
        "status": "active"
      }
    },
    {
      "type": "Feature",
      "geometry": {
        "type": "Point",
        "coordinates": [
          10.2103436,
          56.1519179
        ]
      },
      "properties": {
        "id": 3862,
        "name": "Aarhus Rutebilstation",
        "address": "",
        "city": "",
        "capacity": 0,
        "available_bikes": 0,
        "hub_type": "standard",
        "status": "active"
      }
    },
    {
      "type": "Feature",
      "geometry": {
        "type": "Point",
        "coordinates": [
          10.1690911,
          56.12358
        ]
      },
      "properties": {
        "id": 22619,
        "name": "Engtoften",
        "address": "",
        "city": "",
        "capacity": 0,
        "available_bikes": 0,
        "hub_type": "standard",
        "status": "active"
      }
    },
    {
      "type": "Feature",
      "geometry": {
        "type": "Point",
        "coordinates": [
          10.2051555,
          56.1703791
        ]
      },
      "properties": {
        "id": 3901,
        "name": "Aarhus University/Nørrebrogade",
        "address": "",
        "city": "",
        "capacity": 0,
        "available_bikes": 0,
        "hub_type": "standard",
        "status": "active"
      }
    },
    {
      "type": "Feature",
      "geometry": {
        "type": "Point",
        "coordinates": [
          10.2016492,
          56.1710248
        ]
      },
      "properties": {
        "id": 4978,
        "name": "AU, Building 1412",
        "address": "",
        "city": "",
        "capacity": 0,
        "available_bikes": 0,
        "hub_type": "standard",
        "status": "active"
      }
    },
    {
      "type": "Feature",
      "geometry": {
        "type": "Point",
        "coordinates": [
          10.2197262,
          56.1712574
        ]
      },
      "properties": {
        "id": 5479,
        "name": "Otto Ruds Gade 3",
        "address": "",
        "city": "",
        "capacity": 0,
        "available_bikes": 0,
        "hub_type": "standard",
        "status": "active"
      }
    },
    {
      "type": "Feature",
      "geometry": {
        "type": "Point",
        "coordinates": [
          10.1815826,
          56.1409911
        ]
      },
      "properties": {
        "id": 5002,
        "name": "Sønderborggade 9",
        "address": "",
        "city": "",
        "capacity": 0,
        "available_bikes": 0,
        "hub_type": "standard",
        "status": "active"
      }
    },
    {
      "type": "Feature",
      "geometry": {
        "type": "Point",
        "coordinates": [
          10.2060879,
          56.1552295
        ]
      },
      "properties": {
        "id": 20816,
        "name": "Telefonsmøgen",
        "address": "",
        "city": "",
        "capacity": 0,
        "available_bikes": 0,
        "hub_type": "standard",
        "status": "active"
      }
    },
    {
      "type": "Feature",
      "geometry": {
        "type": "Point",
        "coordinates": [
          10.1300847,
          56.1560155
        ]
      },
      "properties": {
        "id": 31729,
        "name": "sigridvej",
        "address": "",
        "city": "",
        "capacity": 0,
        "available_bikes": 0,
        "hub_type": "standard",
        "status": "active"
      }
    },
    {
      "type": "Feature",
      "geometry": {
        "type": "Point",
        "coordinates": [
          10.1769766,
          56.1561243
        ]
      },
      "properties": {
        "id": 28253,
        "name": "Silkeborgvej 178",
        "address": "",
        "city": "",
        "capacity": 0,
        "available_bikes": 0,
        "hub_type": "standard",
        "status": "active"
      }
    },
    {
      "type": "Feature",
      "geometry": {
        "type": "Point",
        "coordinates": [
          10.2043851,
          56.159852
        ]
      },
      "properties": {
        "id": 4886,
        "name": "Nørre Alle",
        "address": "",
        "city": "",
        "capacity": 0,
        "available_bikes": 0,
        "hub_type": "standard",
        "status": "active"
      }
    },
    {
      "type": "Feature",
      "geometry": {
        "type": "Point",
        "coordinates": [
          10.1938658,
          56.1529437
        ]
      },
      "properties": {
        "id": 3882,
        "name": "Godsbanen-Radar",
        "address": "",
        "city": "",
        "capacity": 0,
        "available_bikes": 0,
        "hub_type": "standard",
        "status": "active"
      }
    },
    {
      "type": "Feature",
      "geometry": {
        "type": "Point",
        "coordinates": [
          10.1907185,
          56.1438656
        ]
      },
      "properties": {
        "id": 3877,
        "name": "Harald Jensens Plads",
        "address": "",
        "city": "",
        "capacity": 0,
        "available_bikes": 0,
        "hub_type": "standard",
        "status": "active"
      }
    },
    {
      "type": "Feature",
      "geometry": {
        "type": "Point",
        "coordinates": [
          10.2185877,
          56.1770351
        ]
      },
      "properties": {
        "id": 3908,
        "name": "Skovfaldet/Dronning Margrethes Vej",
        "address": "",
        "city": "",
        "capacity": 0,
        "available_bikes": 0,
        "hub_type": "standard",
        "status": "active"
      }
    },
    {
      "type": "Feature",
      "geometry": {
        "type": "Point",
        "coordinates": [
          10.1996111,
          56.1720026
        ]
      },
      "properties": {
        "id": 13231,
        "name": "Student Bar_Frederik Nielsens Vej",
        "address": "",
        "city": "",
        "capacity": 0,
        "available_bikes": 0,
        "hub_type": "standard",
        "status": "active"
      }
    },
    {
      "type": "Feature",
      "geometry": {
        "type": "Point",
        "coordinates": [
          10.2004409,
          56.1712064
        ]
      },
      "properties": {
        "id": 3904,
        "name": "Aarhus University Student House",
        "address": "",
        "city": "",
        "capacity": 0,
        "available_bikes": 0,
        "hub_type": "standard",
        "status": "active"
      }
    },
    {
      "type": "Feature",
      "geometry": {
        "type": "Point",
        "coordinates": [
          10.1878696,
          56.1651642
        ]
      },
      "properties": {
        "id": 15530,
        "name": "Vestre Ringgade #1",
        "address": "",
        "city": "",
        "capacity": 0,
        "available_bikes": 0,
        "hub_type": "standard",
        "status": "active"
      }
    },
    {
      "type": "Feature",
      "geometry": {
        "type": "Point",
        "coordinates": [
          10.1863197,
          56.1396855
        ]
      },
      "properties": {
        "id": 15145,
        "name": "Kongsvang Alle 22",
        "address": "",
        "city": "",
        "capacity": 0,
        "available_bikes": 0,
        "hub_type": "standard",
        "status": "active"
      }
    },
    {
      "type": "Feature",
      "geometry": {
        "type": "Point",
        "coordinates": [
          10.190052,
          56.1589332
        ]
      },
      "properties": {
        "id": 3886,
        "name": "Gamle By main entrance",
        "address": "",
        "city": "",
        "capacity": 0,
        "available_bikes": 0,
        "hub_type": "standard",
        "status": "active"
      }
    },
    {
      "type": "Feature",
      "geometry": {
        "type": "Point",
        "coordinates": [
          10.1976561,
          56.1691516
        ]
      },
      "properties": {
        "id": 3893,
        "name": "Gustav Wieds Vej/Langelandsgade",
        "address": "",
        "city": "",
        "capacity": 0,
        "available_bikes": 0,
        "hub_type": "standard",
        "status": "active"
      }
    },
    {
      "type": "Feature",
      "geometry": {
        "type": "Point",
        "coordinates": [
          10.2094028,
          56.1566415
        ]
      },
      "properties": {
        "id": 20851,
        "name": "Sankt Clemens torv",
        "address": "",
        "city": "",
        "capacity": 0,
        "available_bikes": 0,
        "hub_type": "standard",
        "status": "active"
      }
    },
    {
      "type": "Feature",
      "geometry": {
        "type": "Point",
        "coordinates": [
          10.1566381,
          56.1314107
        ]
      },
      "properties": {
        "id": 27261,
        "name": "Damagervej 1L",
        "address": "",
        "city": "",
        "capacity": 0,
        "available_bikes": 0,
        "hub_type": "standard",
        "status": "active"
      }
    },
    {
      "type": "Feature",
      "geometry": {
        "type": "Point",
        "coordinates": [
          10.2292897,
          56.1643274
        ]
      },
      "properties": {
        "id": 27884,
        "name": "This Jensens Gade 26",
        "address": "",
        "city": "",
        "capacity": 0,
        "available_bikes": 0,
        "hub_type": "standard",
        "status": "active"
      }
    },
    {
      "type": "Feature",
      "geometry": {
        "type": "Point",
        "coordinates": [
          10.1615594,
          56.1287263
        ]
      },
      "properties": {
        "id": 12948,
        "name": "Viby Ringvej/Skanderborgvej",
        "address": "",
        "city": "",
        "capacity": 0,
        "available_bikes": 0,
        "hub_type": "standard",
        "status": "active"
      }
    },
    {
      "type": "Feature",
      "geometry": {
        "type": "Point",
        "coordinates": [
          10.2169257,
          56.1644348
        ]
      },
      "properties": {
        "id": 5014,
        "name": "Netto, Skovvejen",
        "address": "",
        "city": "",
        "capacity": 0,
        "available_bikes": 0,
        "hub_type": "standard",
        "status": "active"
      }
    },
    {
      "type": "Feature",
      "geometry": {
        "type": "Point",
        "coordinates": [
          10.2117672,
          56.1709925
        ]
      },
      "properties": {
        "id": 20768,
        "name": "Aldersrovej",
        "address": "",
        "city": "",
        "capacity": 0,
        "available_bikes": 0,
        "hub_type": "standard",
        "status": "active"
      }
    },
    {
      "type": "Feature",
      "geometry": {
        "type": "Point",
        "coordinates": [
          10.1898032,
          56.1562855
        ]
      },
      "properties": {
        "id": 4136,
        "name": "VIA",
        "address": "",
        "city": "",
        "capacity": 0,
        "available_bikes": 0,
        "hub_type": "standard",
        "status": "active"
      }
    },
    {
      "type": "Feature",
      "geometry": {
        "type": "Point",
        "coordinates": [
          10.2137192,
          56.1264172
        ]
      },
      "properties": {
        "id": 14462,
        "name": "Strandvejen 37",
        "address": "",
        "city": "",
        "capacity": 0,
        "available_bikes": 0,
        "hub_type": "standard",
        "status": "active"
      }
    },
    {
      "type": "Feature",
      "geometry": {
        "type": "Point",
        "coordinates": [
          10.2057838,
          56.1451774
        ]
      },
      "properties": {
        "id": 4999,
        "name": "Hendrik Pontoppidans Gade 2",
        "address": "",
        "city": "",
        "capacity": 0,
        "available_bikes": 0,
        "hub_type": "standard",
        "status": "active"
      }
    },
    {
      "type": "Feature",
      "geometry": {
        "type": "Point",
        "coordinates": [
          10.2153463,
          56.1693931
        ]
      },
      "properties": {
        "id": 15645,
        "name": "Trøjborgvej 22",
        "address": "",
        "city": "",
        "capacity": 0,
        "available_bikes": 0,
        "hub_type": "standard",
        "status": "active"
      }
    },
    {
      "type": "Feature",
      "geometry": {
        "type": "Point",
        "coordinates": [
          10.2097023,
          56.1489213
        ]
      },
      "properties": {
        "id": 14096,
        "name": "Fredericks plads/Spanien 63",
        "address": "",
        "city": "",
        "capacity": 0,
        "available_bikes": 0,
        "hub_type": "standard",
        "status": "active"
      }
    },
    {
      "type": "Feature",
      "geometry": {
        "type": "Point",
        "coordinates": [
          10.2039097,
          56.1561933
        ]
      },
      "properties": {
        "id": 3852,
        "name": "Åboulevarden/Huj",
        "address": "",
        "city": "",
        "capacity": 0,
        "available_bikes": 0,
        "hub_type": "standard",
        "status": "active"
      }
    },
    {
      "type": "Feature",
      "geometry": {
        "type": "Point",
        "coordinates": [
          10.22269,
          56.0863467
        ]
      },
      "properties": {
        "id": 29715,
        "name": "Moesgård Alle",
        "address": "",
        "city": "",
        "capacity": 0,
        "available_bikes": 0,
        "hub_type": "standard",
        "status": "active"
      }
    },
    {
      "type": "Feature",
      "geometry": {
        "type": "Point",
        "coordinates": [
          10.2377155,
          56.1996758
        ]
      },
      "properties": {
        "id": 13331,
        "name": "Lystrupvej",
        "address": "",
        "city": "",
        "capacity": 0,
        "available_bikes": 0,
        "hub_type": "standard",
        "status": "active"
      }
    },
    {
      "type": "Feature",
      "geometry": {
        "type": "Point",
        "coordinates": [
          10.2187974,
          56.1895075
        ]
      },
      "properties": {
        "id": 14095,
        "name": "Grenåvej 150",
        "address": "",
        "city": "",
        "capacity": 0,
        "available_bikes": 0,
        "hub_type": "standard",
        "status": "active"
      }
    },
    {
      "type": "Feature",
      "geometry": {
        "type": "Point",
        "coordinates": [
          10.1836543,
          56.156047
        ]
      },
      "properties": {
        "id": 7567,
        "name": "Silkeborgvej/Ennova",
        "address": "",
        "city": "",
        "capacity": 0,
        "available_bikes": 0,
        "hub_type": "standard",
        "status": "active"
      }
    },
    {
      "type": "Feature",
      "geometry": {
        "type": "Point",
        "coordinates": [
          10.2072068,
          56.1637291
        ]
      },
      "properties": {
        "id": 4997,
        "name": "Høegh-Guldbergs Gade 6A",
        "address": "",
        "city": "",
        "capacity": 0,
        "available_bikes": 0,
        "hub_type": "standard",
        "status": "active"
      }
    },
    {
      "type": "Feature",
      "geometry": {
        "type": "Point",
        "coordinates": [
          10.2077539,
          56.1538893
        ]
      },
      "properties": {
        "id": 3980,
        "name": "Østergade/Fjall Raven",
        "address": "",
        "city": "",
        "capacity": 0,
        "available_bikes": 0,
        "hub_type": "standard",
        "status": "active"
      }
    },
    {
      "type": "Feature",
      "geometry": {
        "type": "Point",
        "coordinates": [
          10.1930571,
          56.1698658
        ]
      },
      "properties": {
        "id": 16057,
        "name": "Fitness World_Jens Baggesens Vej",
        "address": "",
        "city": "",
        "capacity": 0,
        "available_bikes": 0,
        "hub_type": "standard",
        "status": "active"
      }
    },
    {
      "type": "Feature",
      "geometry": {
        "type": "Point",
        "coordinates": [
          10.1520587,
          56.1466833
        ]
      },
      "properties": {
        "id": 19274,
        "name": "Viby ringvej/søren frichs vej",
        "address": "",
        "city": "",
        "capacity": 0,
        "available_bikes": 0,
        "hub_type": "standard",
        "status": "active"
      }
    },
    {
      "type": "Feature",
      "geometry": {
        "type": "Point",
        "coordinates": [
          10.1951087,
          56.1719974
        ]
      },
      "properties": {
        "id": 30167,
        "name": "Helsingforsgade",
        "address": "",
        "city": "",
        "capacity": 0,
        "available_bikes": 0,
        "hub_type": "standard",
        "status": "active"
      }
    },
    {
      "type": "Feature",
      "geometry": {
        "type": "Point",
        "coordinates": [
          10.1753351,
          56.1630524
        ]
      },
      "properties": {
        "id": 6696,
        "name": "Viborgvej 57",
        "address": "",
        "city": "",
        "capacity": 0,
        "available_bikes": 0,
        "hub_type": "standard",
        "status": "active"
      }
    },
    {
      "type": "Feature",
      "geometry": {
        "type": "Point",
        "coordinates": [
          10.2115868,
          56.1502894
        ]
      },
      "properties": {
        "id": 30315,
        "name": "Job Center",
        "address": "",
        "city": "",
        "capacity": 0,
        "available_bikes": 0,
        "hub_type": "standard",
        "status": "active"
      }
    },
    {
      "type": "Feature",
      "geometry": {
        "type": "Point",
        "coordinates": [
          10.1896369,
          56.168551
        ]
      },
      "properties": {
        "id": 22689,
        "name": "Jens Baggesens vej",
        "address": "",
        "city": "",
        "capacity": 0,
        "available_bikes": 0,
        "hub_type": "standard",
        "status": "active"
      }
    },
    {
      "type": "Feature",
      "geometry": {
        "type": "Point",
        "coordinates": [
          10.134939,
          56.1587149
        ]
      },
      "properties": {
        "id": 26269,
        "name": "Dortesvej",
        "address": "",
        "city": "",
        "capacity": 0,
        "available_bikes": 0,
        "hub_type": "standard",
        "status": "active"
      }
    },
    {
      "type": "Feature",
      "geometry": {
        "type": "Point",
        "coordinates": [
          10.1999152,
          56.151992
        ]
      },
      "properties": {
        "id": 3962,
        "name": "Bora Bora/HQ",
        "address": "",
        "city": "",
        "capacity": 0,
        "available_bikes": 0,
        "hub_type": "standard",
        "status": "active"
      }
    },
    {
      "type": "Feature",
      "geometry": {
        "type": "Point",
        "coordinates": [
          10.2366608,
          56.1844725
        ]
      },
      "properties": {
        "id": 20767,
        "name": "Rolighedsvej",
        "address": "",
        "city": "",
        "capacity": 0,
        "available_bikes": 0,
        "hub_type": "standard",
        "status": "active"
      }
    },
    {
      "type": "Feature",
      "geometry": {
        "type": "Point",
        "coordinates": [
          10.2237522,
          56.1654115
        ]
      },
      "properties": {
        "id": 5468,
        "name": "Dagmar Petersens Gade",
        "address": "",
        "city": "",
        "capacity": 0,
        "available_bikes": 0,
        "hub_type": "standard",
        "status": "active"
      }
    },
    {
      "type": "Feature",
      "geometry": {
        "type": "Point",
        "coordinates": [
          10.1927745,
          56.1605544
        ]
      },
      "properties": {
        "id": 3889,
        "name": "Botanisk Have",
        "address": "",
        "city": "",
        "capacity": 0,
        "available_bikes": 0,
        "hub_type": "standard",
        "status": "active"
      }
    },
    {
      "type": "Feature",
      "geometry": {
        "type": "Point",
        "coordinates": [
          10.1495946,
          56.1195383
        ]
      },
      "properties": {
        "id": 27453,
        "name": "Ravnsbjerg Kollegiet",
        "address": "",
        "city": "",
        "capacity": 0,
        "available_bikes": 0,
        "hub_type": "standard",
        "status": "active"
      }
    },
    {
      "type": "Feature",
      "geometry": {
        "type": "Point",
        "coordinates": [
          10.1818102,
          56.172526
        ]
      },
      "properties": {
        "id": 16461,
        "name": "Hammershusvej 39",
        "address": "",
        "city": "",
        "capacity": 0,
        "available_bikes": 0,
        "hub_type": "standard",
        "status": "active"
      }
    },
    {
      "type": "Feature",
      "geometry": {
        "type": "Point",
        "coordinates": [
          10.2041061,
          56.1711937
        ]
      },
      "properties": {
        "id": 3897,
        "name": "Nordre Ringgade/Nørrebrogade/AU Building 1326",
        "address": "",
        "city": "",
        "capacity": 0,
        "available_bikes": 0,
        "hub_type": "standard",
        "status": "active"
      }
    },
    {
      "type": "Feature",
      "geometry": {
        "type": "Point",
        "coordinates": [
          10.1839198,
          56.1550546
        ]
      },
      "properties": {
        "id": 4998,
        "name": "Daugbjergvej 17",
        "address": "",
        "city": "",
        "capacity": 0,
        "available_bikes": 0,
        "hub_type": "standard",
        "status": "active"
      }
    },
    {
      "type": "Feature",
      "geometry": {
        "type": "Point",
        "coordinates": [
          10.1941905,
          56.1561977
        ]
      },
      "properties": {
        "id": 15121,
        "name": "Ceres Haven",
        "address": "",
        "city": "",
        "capacity": 0,
        "available_bikes": 0,
        "hub_type": "standard",
        "status": "active"
      }
    },
    {
      "type": "Feature",
      "geometry": {
        "type": "Point",
        "coordinates": [
          10.2040045,
          56.1448109
        ]
      },
      "properties": {
        "id": 5355,
        "name": "Tietgens Pl.",
        "address": "",
        "city": "",
        "capacity": 0,
        "available_bikes": 0,
        "hub_type": "standard",
        "status": "active"
      }
    },
    {
      "type": "Feature",
      "geometry": {
        "type": "Point",
        "coordinates": [
          10.206962,
          56.1473674
        ]
      },
      "properties": {
        "id": 20469,
        "name": "Brammersgade 45",
        "address": "",
        "city": "",
        "capacity": 0,
        "available_bikes": 0,
        "hub_type": "standard",
        "status": "active"
      }
    },
    {
      "type": "Feature",
      "geometry": {
        "type": "Point",
        "coordinates": [
          10.202993,
          56.1551834
        ]
      },
      "properties": {
        "id": 15798,
        "name": "Christiansgade 25",
        "address": "",
        "city": "",
        "capacity": 0,
        "available_bikes": 0,
        "hub_type": "standard",
        "status": "active"
      }
    },
    {
      "type": "Feature",
      "geometry": {
        "type": "Point",
        "coordinates": [
          10.2069436,
          56.1165614
        ]
      },
      "properties": {
        "id": 4900,
        "name": "Antroposofisk Kulturhus",
        "address": "",
        "city": "",
        "capacity": 0,
        "available_bikes": 0,
        "hub_type": "standard",
        "status": "active"
      }
    },
    {
      "type": "Feature",
      "geometry": {
        "type": "Point",
        "coordinates": [
          10.2064916,
          56.1560067
        ]
      },
      "properties": {
        "id": 3842,
        "name": "Normal/Waxies",
        "address": "",
        "city": "",
        "capacity": 0,
        "available_bikes": 0,
        "hub_type": "standard",
        "status": "active"
      }
    },
    {
      "type": "Feature",
      "geometry": {
        "type": "Point",
        "coordinates": [
          10.1931698,
          56.1528507
        ]
      },
      "properties": {
        "id": 21882,
        "name": "Favilla Studio",
        "address": "",
        "city": "",
        "capacity": 0,
        "available_bikes": 0,
        "hub_type": "standard",
        "status": "active"
      }
    },
    {
      "type": "Feature",
      "geometry": {
        "type": "Point",
        "coordinates": [
          10.2022363,
          56.1296593
        ]
      },
      "properties": {
        "id": 4247,
        "name": "Marselisborg Castle",
        "address": "",
        "city": "",
        "capacity": 0,
        "available_bikes": 0,
        "hub_type": "standard",
        "status": "active"
      }
    },
    {
      "type": "Feature",
      "geometry": {
        "type": "Point",
        "coordinates": [
          10.2092275,
          56.1555255
        ]
      },
      "properties": {
        "id": 3838,
        "name": "Canal Street/London Bar",
        "address": "",
        "city": "",
        "capacity": 0,
        "available_bikes": 0,
        "hub_type": "standard",
        "status": "active"
      }
    },
    {
      "type": "Feature",
      "geometry": {
        "type": "Point",
        "coordinates": [
          10.2220146,
          56.1637858
        ]
      },
      "properties": {
        "id": 23142,
        "name": "Johanne Bergs Gade",
        "address": "",
        "city": "",
        "capacity": 0,
        "available_bikes": 0,
        "hub_type": "standard",
        "status": "active"
      }
    },
    {
      "type": "Feature",
      "geometry": {
        "type": "Point",
        "coordinates": [
          10.213342,
          56.1573216
        ]
      },
      "properties": {
        "id": 4005,
        "name": "Skolebakken/Cafe Cross",
        "address": "",
        "city": "",
        "capacity": 0,
        "available_bikes": 0,
        "hub_type": "standard",
        "status": "active"
      }
    },
    {
      "type": "Feature",
      "geometry": {
        "type": "Point",
        "coordinates": [
          10.1624367,
          56.1292665
        ]
      },
      "properties": {
        "id": 4139,
        "name": "Viby Centret",
        "address": "",
        "city": "",
        "capacity": 0,
        "available_bikes": 0,
        "hub_type": "standard",
        "status": "active"
      }
    },
    {
      "type": "Feature",
      "geometry": {
        "type": "Point",
        "coordinates": [
          10.2003414,
          56.1414465
        ]
      },
      "properties": {
        "id": 13618,
        "name": "Marselis Blvd. 32",
        "address": "",
        "city": "",
        "capacity": 0,
        "available_bikes": 0,
        "hub_type": "standard",
        "status": "active"
      }
    },
    {
      "type": "Feature",
      "geometry": {
        "type": "Point",
        "coordinates": [
          10.2131882,
          56.1370407
        ]
      },
      "properties": {
        "id": 18383,
        "name": "Badcafé ",
        "address": "",
        "city": "",
        "capacity": 0,
        "available_bikes": 0,
        "hub_type": "standard",
        "status": "active"
      }
    },
    {
      "type": "Feature",
      "geometry": {
        "type": "Point",
        "coordinates": [
          10.1836233,
          56.1593603
        ]
      },
      "properties": {
        "id": 4968,
        "name": "Thomas Nielsens Gade",
        "address": "",
        "city": "",
        "capacity": 0,
        "available_bikes": 0,
        "hub_type": "standard",
        "status": "active"
      }
    },
    {
      "type": "Feature",
      "geometry": {
        "type": "Point",
        "coordinates": [
          10.2049644,
          56.152196
        ]
      },
      "properties": {
        "id": 3866,
        "name": "Ryesgade/IMERCO",
        "address": "",
        "city": "",
        "capacity": 0,
        "available_bikes": 0,
        "hub_type": "standard",
        "status": "active"
      }
    },