[
  {
    "id": 26795,
    "name": "Antwerp Ossenmarkt",
    "latitude": "51.2220094",
    "longitude": "4.4133097",
    "thumbnail_url": ""
  },
  {
    "id": 29305,
    "name": "Duffel Gemeentehuis 3E2P - fietsenrek",
    "latitude": "51.0951375",
    "longitude": "4.5061719",
    "thumbnail_url": ""
  },
  {
    "id": 23351,
    "name": "Wilrijk Jules Moretuslei dropzone ",
    "latitude": "51.172219",
    "longitude": "4.3886944",
    "thumbnail_url": ""
  },
  {
    "id": 26862,
    "name": "Antwerp Schengenplein",
    "latitude": "51.2332895",
    "longitude": "4.4110163",
    "thumbnail_url": ""
  },
  {
    "id": 24320,
    "name": "Stabroek 's Hertogendijk",
    "latitude": "51.3264223",
    "longitude": "4.3844368",
    "thumbnail_url": ""
  },
  {
    "id": 29632,
    "name": "Mechelen Buurtparking Hamerstraat",
    "latitude": "51.0207625",
    "longitude": "4.4927656",
    "thumbnail_url": ""
  },
  {
    "id": 31959,
    "name": "Veronique",
    "latitude": "51.173888",
    "longitude": "4.375745",
    "thumbnail_url": ""
  },
  {
    "id": 28860,
    "name": "Antwerp Park Spoor Noord",
    "latitude": "51.2299882",
    "longitude": "4.4210038",
    "thumbnail_url": ""
  },
  {
    "id": 26823,
    "name": "Deurne Venneborglaan",
    "latitude": "51.2198801",
    "longitude": "4.4704934",
    "thumbnail_url": ""
  },
  {
    "id": 35110,
    "name": "Kenzo",
    "latitude": "51.2033426",
    "longitude": "4.069358",
    "thumbnail_url": ""
  },
  {
    "id": 24045,
    "name": "Borgerhout Kwekerijstraat",
    "latitude": "51.2204387",
    "longitude": "4.4417214",
    "thumbnail_url": ""
  },
  {
    "id": 35196,
    "name": "Felicity",
    "latitude": "51.2839578",
    "longitude": "4.4160542",
    "thumbnail_url": ""
  },
  {
    "id": 28210,
    "name": "Hoboken Alfred Cool fietsenrek",
    "latitude": "51.188172",
    "longitude": "4.3909847",
    "thumbnail_url": ""
  },
  {
    "id": 36350,
    "name": "Jean-Yves",
    "latitude": "51.062261",
    "longitude": "4.555545",
    "thumbnail_url": ""
  },
  {
    "id": 26843,
    "name": "Borgerhout Mars",
    "latitude": "51.2014238",
    "longitude": "4.442068",
    "thumbnail_url": ""
  },
  {
    "id": 26270,
    "name": "Antwerp Schoenmarkt",
    "latitude": "51.2184202",
    "longitude": "4.4028246",
    "thumbnail_url": ""
  },
  {
    "id": 34699,
    "name": "Loukas",
    "latitude": "51.23126",
    "longitude": "4.456578",
    "thumbnail_url": ""
  },
  {
    "id": 28256,
    "name": "Zwijndrecht Sportpark - fietsrek",
    "latitude": "51.2155675",
    "longitude": "4.3266259",
    "thumbnail_url": ""
  },
  {
    "id": 28278,
    "name": "Antwerp Vlierstraat",
    "latitude": "51.2140492",
    "longitude": "4.3980771",
    "thumbnail_url": ""
  },
  {
    "id": 28576,
    "name": "Lokeren Markt 3E 3P",
    "latitude": "51.1056625",
    "longitude": "3.9886094",
    "thumbnail_url": ""
  },
  {
    "id": 28188,
    "name": "Antwerp Rubenslei",
    "latitude": "51.2129805",
    "longitude": "4.4125544",
    "thumbnail_url": ""
  },
  {
    "id": 26906,
    "name": "Antwerp Falconplein",
    "latitude": "51.226194",
    "longitude": "4.4050184",
    "thumbnail_url": ""
  },
  {
    "id": 27736,
    "name": "Berchem UA Middelheim",
    "latitude": "51.1839408",
    "longitude": "4.4212406",
    "thumbnail_url": ""
  },
  {
    "id": 35221,
    "name": "Boom",
    "latitude": "51.210575",
    "longitude": "4.438053",
    "thumbnail_url": ""
  },
  {
    "id": 23539,
    "name": "Merksem P+R Keisershoek",
    "latitude": "51.2582688",
    "longitude": "4.4617089",
    "thumbnail_url": ""
  },
  {
    "id": 32555,
    "name": "Schoten Elshout - fietsrek",
    "latitude": "51.2790875",
    "longitude": "4.5193281",
    "thumbnail_url": ""
  },
  {
    "id": 31847,
    "name": "Fransico",
    "latitude": "51.094706",
    "longitude": "4.372665",
    "thumbnail_url": ""
  },
  {
    "id": 23467,
    "name": "Lint Centrum / Oudstrijdersplein",
    "latitude": "51.1270004",
    "longitude": "4.498664",
    "thumbnail_url": ""
  },
  {
    "id": 31351,
    "name": "Beveren Katoennatie WH15/22",
    "latitude": "51.2731875",
    "longitude": "4.2859844",
    "thumbnail_url": ""
  },
  {
    "id": 26967,
    "name": "Antwerp Kinderpark",
    "latitude": "51.2086793",
    "longitude": "4.3849417",
    "thumbnail_url": ""
  },
  {
    "id": 27741,
    "name": "Borgerhout Terloplein",
    "latitude": "51.2196122",
    "longitude": "4.443908",
    "thumbnail_url": ""
  },
  {
    "id": 23290,
    "name": "Antwerp Kempisch dok",
    "latitude": "51.2311714",
    "longitude": "4.4129597",
    "thumbnail_url": ""
  },
  {
    "id": 24097,
    "name": "Zoersel P+R De Haan - fietsrek",
    "latitude": "51.2458737",
    "longitude": "4.7037676",
    "thumbnail_url": ""
  },
  {
    "id": 29334,
    "name": "Klein-Willebroek Sasplein 2E2P - fietsrek",
    "latitude": "51.0807957",
    "longitude": "4.366648",
    "thumbnail_url": ""
  },
  {
    "id": 29727,
    "name": "Beveren Bushalte N70 Parein",
    "latitude": "51.2179375",
    "longitude": "4.2719531",
    "thumbnail_url": ""
  },
  {
    "id": 29171,
    "name": "Kalmthout Zwarte Hond - fietsrek",
    "latitude": "51.3727621",
    "longitude": "4.5023902",
    "thumbnail_url": ""
  },
  {
    "id": 24104,
    "name": "Berendrecht Steenovenstraat 2E4P",
    "latitude": "51.3540569",
    "longitude": "4.3343867",
    "thumbnail_url": ""
  },
  {
    "id": 27863,
    "name": "Mortsel Kerkstraat fietsenrek ",
    "latitude": "51.1658262",
    "longitude": "4.4635658",
    "thumbnail_url": ""
  },
  {
    "id": 30599,
    "name": "Reet Rumstsestraat - fietsrek",
    "latitude": "51.1005274",
    "longitude": "4.4137935",
    "thumbnail_url": ""
  },
  {
    "id": 27027,
    "name": "Merksem Districtshuis",
    "latitude": "51.2425174",
    "longitude": "4.4420315",
    "thumbnail_url": ""
  },
  {
    "id": 23453,
    "name": "Kalmthout NMBS - fietsrek",
    "latitude": "51.3908889",
    "longitude": "4.4668466",
    "thumbnail_url": ""
  },
  {
    "id": 33153,
    "name": "Raquel",
    "latitude": "51.0317993",
    "longitude": "4.4994711",
    "thumbnail_url": ""
  },
  {
    "id": 24107,
    "name": "Berendrecht Molengeest 2E4P",
    "latitude": "51.3525729",
    "longitude": "4.3230867",
    "thumbnail_url": ""
  },
  {
    "id": 30859,
    "name": "Mechelen Hanswijkdries - fietsrek",
    "latitude": "51.0164858",
    "longitude": "4.4977467",
    "thumbnail_url": ""
  },
  {
    "id": 24101,
    "name": "Wommelgem Kerk 6E",
    "latitude": "51.2033151",
    "longitude": "4.5223774",
    "thumbnail_url": ""
  },
  {
    "id": 26976,
    "name": "Wilrijk Neerland fietsenrek ",
    "latitude": "51.1625075",
    "longitude": "4.3893821",
    "thumbnail_url": ""
  },
  {
    "id": 28187,
    "name": "Zoersel De Pier - fietsrek",
    "latitude": "51.2410117",
    "longitude": "4.6395107",
    "thumbnail_url": ""
  },
  {
    "id": 27044,
    "name": "Deurne Alfons",
    "latitude": "51.2287706",
    "longitude": "4.4698091",
    "thumbnail_url": ""
  },
  {
    "id": 33987,
    "name": "Alessia",
    "latitude": "51.24612",
    "longitude": "4.484966",
    "thumbnail_url": ""
  },
  {
    "id": 23313,
    "name": "Antwerp St-Andriesplaats",
    "latitude": "51.2149155",
    "longitude": "4.3961442",
    "thumbnail_url": ""
  },
  {
    "id": 24329,
    "name": "Essen Industrie Rijkmaker - fietsrek",
    "latitude": "51.4470525",
    "longitude": "4.4958655",
    "thumbnail_url": ""
  },
  {
    "id": 29705,
    "name": "Zandhoven Sportcomplex 't Veld - fietsrek",
    "latitude": "51.2165625",
    "longitude": "4.6541094",
    "thumbnail_url": ""
  },
  {
    "id": 23877,
    "name": "Brasschaat Mariaburg 6E4P - Tussen paaltjes",
    "latitude": "51.2911554",
    "longitude": "4.4450472",
    "thumbnail_url": ""
  },
  {
    "id": 29619,
    "name": "Mechelen Battel Dorp 2E2P",
    "latitude": "51.0400625",
    "longitude": "4.4443906",
    "thumbnail_url": ""
  },
  {
    "id": 29988,
    "name": "Live is live - Parking",
    "latitude": "51.2206333",
    "longitude": "4.3614892",
    "thumbnail_url": ""
  },
  {
    "id": 31838,
    "name": "Gustav",
    "latitude": "51.2582904",
    "longitude": "4.4534299",
    "thumbnail_url": ""
  },
  {
    "id": 29332,
    "name": "Blaasveld Kerk 2E2P - fietsrek",
    "latitude": "51.0566375",
    "longitude": "4.3717344",
    "thumbnail_url": ""
  },
  {
    "id": 30595,
    "name": "Reet Processieweg - fietsrek",
    "latitude": "51.1033976",
    "longitude": "4.4097529",
    "thumbnail_url": ""
  },
  {
    "id": 29313,
    "name": "Booischot Station 1 2E1P - fietsrek",
    "latitude": "51.0372625",
    "longitude": "4.7738281",
    "thumbnail_url": ""
  },
  {
    "id": 28155,
    "name": "Brasschaat jeugdhuis Hob nob - fietsrek",
    "latitude": "51.3012286",
    "longitude": "4.5126366",
    "thumbnail_url": ""
  },
  {
    "id": 30858,
    "name": "Mechelen Guido Gezellelaan - fietsrek",
    "latitude": "51.0317961",
    "longitude": "4.4728394",
    "thumbnail_url": ""
  },
  {
    "id": 30601,
    "name": "Sint-Niklaas Heidebaan",
    "latitude": "51.1779108",
    "longitude": "4.191212",
    "thumbnail_url": ""
  },
  {
    "id": 35202,
    "name": "Ibrahim",
    "latitude": "51.3431311",
    "longitude": "4.327304",
    "thumbnail_url": ""
  },
  {
    "id": 23489,
    "name": "Ranst Oelegem Kerk - fietsrek",
    "latitude": "51.2111608",
    "longitude": "4.5972153",
    "thumbnail_url": ""
  },
  {
    "id": 31915,
    "name": "Mona",
    "latitude": "51.16994",
    "longitude": "4.395198",
    "thumbnail_url": ""
  },
  {
    "id": 27766,
    "name": "Antwerp Lindeboom",
    "latitude": "51.2200122",
    "longitude": "4.4360076",
    "thumbnail_url": ""
  },
  {
    "id": 27864,
    "name": "Wilrijk Frans Nagelsplein fietsenrek ",
    "latitude": "51.174031",
    "longitude": "4.3916083",
    "thumbnail_url": ""
  },
  {
    "id": 32560,
    "name": "Schoten De Lek - fietsrek",
    "latitude": "51.2461375",
    "longitude": "4.4756719",
    "thumbnail_url": ""
  },
  {
    "id": 33388,
    "name": "Keoni",
    "latitude": "51.2992885",
    "longitude": "4.3568477",
    "thumbnail_url": ""
  },
  {
    "id": 23367,
    "name": "Beveren Gevangenis - vooraan parking",
    "latitude": "51.1964753",
    "longitude": "4.3094717",
    "thumbnail_url": ""
  },
  {
    "id": 27938,
    "name": "Merksem Campinia",
    "latitude": "51.2404779",
    "longitude": "4.4362017",
    "thumbnail_url": ""
  },
  {
    "id": 27047,
    "name": "Deurne Sint Rochus",
    "latitude": "51.2049717",
    "longitude": "4.4644675",
    "thumbnail_url": ""
  },
  {
    "id": 28600,
    "name": "Temse Tielrode Kerkstraat 4E",
    "latitude": "51.1131832",
    "longitude": "4.1754225",
    "thumbnail_url": ""
  },
  {
    "id": 39801,
    "name": "Nami",
    "latitude": "51.2223805",
    "longitude": "4.1232012",
    "thumbnail_url": ""
  },
  {
    "id": 35086,
    "name": "Maisy",
    "latitude": "51.164293",
    "longitude": "4.454658",
    "thumbnail_url": ""
  },
  {
    "id": 26838,
    "name": "Antwerp Boudewijns",
    "latitude": "51.2050155",
    "longitude": "4.4002486",
    "thumbnail_url": ""
  },
  {
    "id": 26849,
    "name": "Wilrijk Crowne Plaza rode fietsenrek ",
    "latitude": "51.1901779",
    "longitude": "4.4048477",
    "thumbnail_url": ""
  },
  {
    "id": 23504,
    "name": "Temse Elversele N41 4E",
    "latitude": "51.1138909",
    "longitude": "4.1427063",
    "thumbnail_url": ""
  },
  {
    "id": 23284,
    "name": "Antwerp CS - Astridplein A",
    "latitude": "51.2180143",
    "longitude": "4.4207458",
    "thumbnail_url": ""
  },
  {
    "id": 27225,
    "name": "Luchtbal Tampicoplein",
    "latitude": "51.2514743",
    "longitude": "4.4229841",
    "thumbnail_url": ""
  },
  {
    "id": 29628,
    "name": "Mechelen Technopolis - fietsrek",
    "latitude": "51.0019625",
    "longitude": "4.4709844",
    "thumbnail_url": ""
  },
  {
    "id": 29614,
    "name": "Mechelen Sint-Libertuskerk 3E3P - fietsrek",
    "latitude": "51.0330255",
    "longitude": "4.5050963",
    "thumbnail_url": ""
  },
  {
    "id": 23410,
    "name": "Brasschaat Boskapellei 4P",
    "latitude": "51.2951408",
    "longitude": "4.4422746",
    "thumbnail_url": ""
  },
  {
    "id": 26847,
    "name": "Wilrijk Nachtegalenpark fietsenrek ",
    "latitude": "51.1832076",
    "longitude": "4.4072717",
    "thumbnail_url": ""
  },
  {
    "id": 26905,
    "name": "Antwerp Tunnelplaats",
    "latitude": "51.2264657",
    "longitude": "4.4137945",
    "thumbnail_url": ""
  },
  {
    "id": 28169,
    "name": "Wommelgem P+R - fietsrek oud fruitmarkt 6E",
    "latitude": "51.2119694",
    "longitude": "4.4920916",
    "thumbnail_url": ""
  },
  {
    "id": 35207,
    "name": "Kylian",
    "latitude": "51.059628",
    "longitude": "4.038506",
    "thumbnail_url": ""
  },
  {
    "id": 27698,
    "name": "Linkeroever Verhaeren",
    "latitude": "51.2233277",
    "longitude": "4.3862412",
    "thumbnail_url": ""
  },
  {
    "id": 30868,
    "name": "Mechelen Parking Indigo Hoogstraat - fietsrek",
    "latitude": "51.0234576",
    "longitude": "4.4745146",
    "thumbnail_url": ""
  },
  {
    "id": 23378,
    "name": "Brasschaat - Oud Gemeentehuis 3E2P - fietsrek",
    "latitude": "51.2884648",
    "longitude": "4.485111",
    "thumbnail_url": ""
  },
  {
    "id": 23484,
    "name": "Niel Hellegat fietsenrek ",
    "latitude": "51.0995077",
    "longitude": "4.3398469",
    "thumbnail_url": ""
  },
  {
    "id": 38290,
    "name": "Thyl",
    "latitude": "51.295638",
    "longitude": "4.49815",
    "thumbnail_url": ""
  },
  {
    "id": 40178,
    "name": "Octave",
    "latitude": "51.0902226",
    "longitude": "4.3108648",
    "thumbnail_url": ""
  },
  {
    "id": 23302,
    "name": "Antwerp Nationale Bank",
    "latitude": "51.2117706",
    "longitude": "4.4076612",
    "thumbnail_url": ""
  },
  {
    "id": 42667,
    "name": "Albi",
    "latitude": "51.1707448",
    "longitude": "4.3124187",
    "thumbnail_url": ""
  },
  {
    "id": 23282,
    "name": "Antwerp Belgielei",
    "latitude": "51.2065263",
    "longitude": "4.4197926",
    "thumbnail_url": ""
  },
  {
    "id": 23432,
    "name": "Ekeren Rozemaai",
    "latitude": "51.2688559",
    "longitude": "4.4175914",
    "thumbnail_url": ""
  },
  {
    "id": 30888,
    "name": "Mechelen Brusselpoort 2",
    "latitude": "51.0222875",
    "longitude": "4.4726719",
    "thumbnail_url": ""
  },
  {
    "id": 28585,
    "name": "Kruibeke Dulpop",
    "latitude": "51.1481208",
    "longitude": "4.3053719",
    "thumbnail_url": ""
  },
  {
    "id": 33344,
    "name": "Santiago",
    "latitude": "51.348601",
    "longitude": "4.400963",
    "thumbnail_url": ""
  },
  {
    "id": 34681,
    "name": "Wail",
    "latitude": "51.2652824",
    "longitude": "4.6358878",
    "thumbnail_url": ""
  },
  {
    "id": 30287,
    "name": "Beveren Gravenplein - overdekt",
    "latitude": "51.2129058",
    "longitude": "4.2605943",
    "thumbnail_url": ""
  },
  {
    "id": 24316,
    "name": "Lillo Parking Jachthaven",
    "latitude": "51.3039512",
    "longitude": "4.2888445",
    "thumbnail_url": ""
  },
  {
    "id": 26852,
    "name": "Berchem Vredestraat",
    "latitude": "51.196181",
    "longitude": "4.4261575",
    "thumbnail_url": ""
  },
  {
    "id": 24326,
    "name": "Wuustwezel Sociaal Huis - fietsrek",
    "latitude": "51.3608177",
    "longitude": "4.5560229",
    "thumbnail_url": ""
  },
  {
    "id": 26898,
    "name": "Antwerp Hondenweide",
    "latitude": "51.2004112",
    "longitude": "4.3898075",
    "thumbnail_url": ""
  },
  {
    "id": 23353,
    "name": "Wilrijk UA Universiteitsplein fietsenrek ",
    "latitude": "51.1636647",
    "longitude": "4.401212",
    "thumbnail_url": ""
  },
  {
    "id": 30604,
    "name": "Sint-Niklaas Welzijnshuis",
    "latitude": "51.1581301",
    "longitude": "4.1424795",
    "thumbnail_url": ""
  },
  {
    "id": 29307,
    "name": "Duffel Halte Itterbeek - fietsrek",
    "latitude": "51.1085375",
    "longitude": "4.5513906",
    "thumbnail_url": ""
  },
  {
    "id": 29303,
    "name": "Bornem Station 8E6P",
    "latitude": "51.0993279",
    "longitude": "4.2403662",
    "thumbnail_url": ""
  },
  {
    "id": 29637,
    "name": "Mechelen Malinas - fietsrek",
    "latitude": "51.0391875",
    "longitude": "4.4599844",
    "thumbnail_url": ""
  },
  {
    "id": 26932,
    "name": "Antwerp Draakplaats",
    "latitude": "51.2056443",
    "longitude": "4.4321761",
    "thumbnail_url": ""
  },
  {
    "id": 27394,
    "name": "Borgerhout Bleekhof",
    "latitude": "51.2114703",
    "longitude": "4.4324842",
    "thumbnail_url": ""
  },
  {
    "id": 28138,
    "name": "Boom De Schorre - fietsenrek",
    "latitude": "51.0862799",
    "longitude": "4.3833578",
    "thumbnail_url": ""
  },
  {
    "id": 23324,
    "name": "Borgerhout Te Boelaerpark",
    "latitude": "51.2003739",
    "longitude": "4.4501112",
    "thumbnail_url": ""
  },
  {
    "id": 29092,
    "name": "Boechout Mussenplein",
    "latitude": "51.1691999",
    "longitude": "4.5042633",
    "thumbnail_url": ""
  },
  {
    "id": 23359,
    "name": "Beveren Markt - fietsrek",
    "latitude": "51.2131262",
    "longitude": "4.2561563",
    "thumbnail_url": ""
  },
  {
    "id": 26931,
    "name": "Berchem Marsenille",
    "latitude": "51.1989534",
    "longitude": "4.4280813",
    "thumbnail_url": ""
  },
  {
    "id": 23336,
    "name": "Hoboken Schoonselhof dropzone",
    "latitude": "51.169141",
    "longitude": "4.3635312",
    "thumbnail_url": ""
  },
  {
    "id": 23371,
    "name": "Boechout Sportpark Sneppenbos",
    "latitude": "51.1701021",
    "longitude": "4.5146117",
    "thumbnail_url": ""
  },
  {
    "id": 37602,
    "name": "Chadi",
    "latitude": "51.126891",
    "longitude": "4.577713",
    "thumbnail_url": ""
  },
  {
    "id": 29324,
    "name": "Oppuurs Dorp 2E1P",
    "latitude": "51.0662125",
    "longitude": "4.2443906",
    "thumbnail_url": ""
  },
  {
    "id": 23372,
    "name": "Boechout Vremde Kerk",
    "latitude": "51.1753529",
    "longitude": "4.5244533",
    "thumbnail_url": ""
  },
  {
    "id": 30393,
    "name": "Sint-Gillis-Waas Skatepark De Route",
    "latitude": "51.2219125",
    "longitude": "4.1125156",
    "thumbnail_url": ""
  },
  {
    "id": 23321,
    "name": "Berchem Driekoningenstraat",
    "latitude": "51.1958958",
    "longitude": "4.4190832",
    "thumbnail_url": ""
  },
  {
    "id": 28597,
    "name": "Stekene Kemzeke Dorp 2E4P",
    "latitude": "51.2071716",
    "longitude": "4.075038",
    "thumbnail_url": ""
  },
  {
    "id": 30612,
    "name": "Sint-Niklaas Stationsstraat Casino",
    "latitude": "51.1691537",
    "longitude": "4.142483",
    "thumbnail_url": ""
  },
  {
    "id": 29312,
    "name": "Heist-Op-Den-Berg Sporthal - fietsrek",
    "latitude": "51.0679125",
    "longitude": "4.7354219",
    "thumbnail_url": ""
  },
  {
    "id": 28472,
    "name": "Schoten Churchill",
    "latitude": "51.2503249",
    "longitude": "4.4951386",
    "thumbnail_url": ""
  },
  {
    "id": 33997,
    "name": "Florence",
    "latitude": "51.328201",
    "longitude": "4.579948",
    "thumbnail_url": ""
  },
  {
    "id": 30085,
    "name": "Niel Wetenschapspark 3E2P - fietsenrek ",
    "latitude": "51.1086625",
    "longitude": "4.3532031",
    "thumbnail_url": ""
  },
  {
    "id": 43087,
    "name": "Bode",
    "latitude": "51.2098222",
    "longitude": "4.5232888",
    "thumbnail_url": ""
  },
  {
    "id": 40831,
    "name": "Forlover",
    "latitude": "51.0643383",
    "longitude": "4.5186149",
    "thumbnail_url": ""
  },
  {
    "id": 36215,
    "name": "Sylvia",
    "latitude": "51.2052062",
    "longitude": "4.3804056",
    "thumbnail_url": ""
  },
  {
    "id": 30392,
    "name": "Sint-Gillis-Waas Sporthal De Gavers",
    "latitude": "51.2177875",
    "longitude": "4.1242969",
    "thumbnail_url": ""
  },
  {
    "id": 23878,
    "name": "Brasschaat Perron Noord - randparkeren",
    "latitude": "51.3362568",
    "longitude": "4.502239",
    "thumbnail_url": ""
  },
  {
    "id": 29607,
    "name": "Mechelen Station Nekkerspoel 4E7P - fietsrek",
    "latitude": "51.0305267",
    "longitude": "4.4896253",
    "thumbnail_url": ""
  },
  {
    "id": 29308,
    "name": "Duffel Mijlstraat Kerk fietsenrek ",
    "latitude": "51.0968625",
    "longitude": "4.5547031",
    "thumbnail_url": ""
  },
  {
    "id": 27976,
    "name": "Boom Pastorij - speeltuin",
    "latitude": "51.0909066",
    "longitude": "4.3927462",
    "thumbnail_url": ""
  },
  {
    "id": 24331,
    "name": "Essen NMBS Wildert - fietsrek",
    "latitude": "51.4278222",
    "longitude": "4.4631891",
    "thumbnail_url": ""
  },
  {
    "id": 31293,
    "name": "Wijnegem Fortveld - fietsrek",
    "latitude": "51.2254374",
    "longitude": "4.5113885",
    "thumbnail_url": ""
  },
  {
    "id": 23405,
    "name": "Ekeren Markt  4E4P",
    "latitude": "51.2772802",
    "longitude": "4.4183322",
    "thumbnail_url": ""
  },
  {
    "id": 23281,
    "name": "Antwerp Artsen-Zonder-Grenzen",
    "latitude": "51.2014122",
    "longitude": "4.4237563",
    "thumbnail_url": ""
  },
  {
    "id": 29617,
    "name": "Mechelen Stationsplein Hombeek 3E3P",
    "latitude": "51.0136875",
    "longitude": "4.4430156",
    "thumbnail_url": ""
  },
  {
    "id": 26901,
    "name": "Antwerp Alamarine",
    "latitude": "51.2087587",
    "longitude": "4.3873909",
    "thumbnail_url": ""
  },
  {
    "id": 26858,
    "name": "Antwerp Houtdok",
    "latitude": "51.2348973",
    "longitude": "4.4138465",
    "thumbnail_url": ""
  },
  {
    "id": 26948,
    "name": "Hoboken Vinkevelden fietsenrek ",
    "latitude": "51.173478",
    "longitude": "4.3475001",
    "thumbnail_url": ""
  },
  {
    "id": 40050,
    "name": "Larry",
    "latitude": "51.218385",
    "longitude": "4.396611",
    "thumbnail_url": ""
  },
  {
    "id": 23513,
    "name": "Zandhoven P+R Massenhoven",
    "latitude": "51.1944983",
    "longitude": "4.6417568",
    "thumbnail_url": ""
  },
  {
    "id": 33393,
    "name": "Brittney",
    "latitude": "51.255083",
    "longitude": "4.4632",
    "thumbnail_url": ""
  },
  {
    "id": 26864,
    "name": "Hoboken Sint Jozefkerk fietsenrek ",
    "latitude": "51.171902",
    "longitude": "4.3384499",
    "thumbnail_url": ""
  },
  {
    "id": 23415,
    "name": "Ekeren Edisonlaan 4P",
    "latitude": "51.2911598",
    "longitude": "4.4092641",
    "thumbnail_url": ""
  },
  {
    "id": 26895,
    "name": "Berchem Van Hombeeckplein",
    "latitude": "51.1948325",
    "longitude": "4.4166501",
    "thumbnail_url": ""
  },
  {
    "id": 23443,
    "name": "Hemiksem Callebeek - fietsenrek ",
    "latitude": "51.1433189",
    "longitude": "4.3311352",
    "thumbnail_url": ""
  },
  {
    "id": 32304,
    "name": "Tijdelijke Hub Brakrock 3",
    "latitude": "51.0892069",
    "longitude": "4.4972368",
    "thumbnail_url": ""
  },
  {
    "id": 37446,
    "name": "Galaad",
    "latitude": "51.159297",
    "longitude": "4.4963788",
    "thumbnail_url": ""
  },
  {
    "id": 30609,
    "name": "Sint-Niklaas Nieuwe Molenstraat",
    "latitude": "51.1711107",
    "longitude": "4.161404",
    "thumbnail_url": ""
  },
  {
    "id": 27735,
    "name": "Wilrijk UA Drie Eiken fietsenrek ",
    "latitude": "51.1602558",
    "longitude": "4.4067702",
    "thumbnail_url": ""
  },
  {
    "id": 27745,
    "name": "Antwerp Drossaard",
    "latitude": "51.2185336",
    "longitude": "4.4397509",
    "thumbnail_url": ""
  },
  {
    "id": 26385,
    "name": "Antwerp Meirbrug",
    "latitude": "51.2184813",
    "longitude": "4.4053892",
    "thumbnail_url": ""
  },
  {
    "id": 33441,
    "name": "June",
    "latitude": "51.2296813",
    "longitude": "4.4057933",
    "thumbnail_url": ""
  },
  {
    "id": 30028,
    "name": "Deurne Raoul Gr\u00e9goirplein - fietsrek",
    "latitude": "51.229974",
    "longitude": "4.4432054",
    "thumbnail_url": ""
  },
  {
    "id": 35214,
    "name": "Beernem",
    "latitude": "51.232345",
    "longitude": "4.403055",
    "thumbnail_url": ""
  },
  {
    "id": 23448,
    "name": "Hemiksem Nijverheidsstraat x N148 fietsenrek ",
    "latitude": "51.1346597",
    "longitude": "4.335115",
    "thumbnail_url": ""
  },
  {
    "id": 23283,
    "name": "Antwerp CS Astridplein B",
    "latitude": "51.21835",
    "longitude": "4.42164",
    "thumbnail_url": ""
  },
  {
    "id": 29621,
    "name": "Mechelen Noord I 3E4P",
    "latitude": "51.0549587",
    "longitude": "4.4602567",
    "thumbnail_url": ""
  },
  {
    "id": 24257,
    "name": "Schelle Leopoldstraat - fietsenrek",
    "latitude": "51.129044",
    "longitude": "4.3355035",
    "thumbnail_url": ""
  },
  {
    "id": 40311,
    "name": "Zakia",
    "latitude": "51.1713953",
    "longitude": "4.5004421",
    "thumbnail_url": ""
  },
  {
    "id": 27696,
    "name": "Linkeroever Plage",
    "latitude": "51.234801",
    "longitude": "4.3865631",
    "thumbnail_url": ""
  },
  {
    "id": 26869,
    "name": "Hoboken Bibliotheek fietsenrek",
    "latitude": "51.1894536",
    "longitude": "4.3863227",
    "thumbnail_url": ""
  },
  {
    "id": 37592,
    "name": "Aiman",
    "latitude": "51.206966",
    "longitude": "4.240428",
    "thumbnail_url": ""
  },
  {
    "id": 40246,
    "name": "Ozcan",
    "latitude": "51.230446",
    "longitude": "4.44675",
    "thumbnail_url": ""
  },
  {
    "id": 32292,
    "name": "Hulst Perkpolder",
    "latitude": "51.3991726",
    "longitude": "4.0159152",
    "thumbnail_url": ""
  },
  {
    "id": 29302,
    "name": "Bonheiden Rijmenam Centrum 3E1P",
    "latitude": "51.0020625",
    "longitude": "4.5857656",
    "thumbnail_url": ""
  },
  {
    "id": 31628,
    "name": "Duffel Leopoldstraat - fietsrek",
    "latitude": "51.0981375",
    "longitude": "4.5068906",
    "thumbnail_url": ""
  },
  {
    "id": 29257,
    "name": "Antwerp HKA Museum",
    "latitude": "51.210744",
    "longitude": "4.3899735",
    "thumbnail_url": ""
  },
  {
    "id": 23508,
    "name": "Wijnegem - Shopping Center - fietsrek",
    "latitude": "51.2223947",
    "longitude": "4.499977",
    "thumbnail_url": ""
  },
  {
    "id": 23364,
    "name": "Verrebroek Dorp - fietsrek",
    "latitude": "51.2553729",
    "longitude": "4.1886176",
    "thumbnail_url": ""
  },
  {
    "id": 28144,
    "name": "Mortsel Edmond Thieffrylaan - fietsrek",
    "latitude": "51.1666736",
    "longitude": "4.4480303",
    "thumbnail_url": ""
  },
  {
    "id": 33396,
    "name": "Liana",
    "latitude": "51.102061",
    "longitude": "4.428458",
    "thumbnail_url": ""
  },
  {
    "id": 23315,
    "name": "Antwerp Steenplein",
    "latitude": "51.2217686",
    "longitude": "4.3970267",
    "thumbnail_url": ""
  },
  {
    "id": 39259,
    "name": "Fiora",
    "latitude": "51.327337",
    "longitude": "4.3736749",
    "thumbnail_url": ""
  },
  {
    "id": 30791,
    "name": "Lokeren Sporthal Durmehal",
    "latitude": "51.1076516",
    "longitude": "3.9930161",
    "thumbnail_url": ""
  },
  {
    "id": 28457,
    "name": "Zwijndrecht Kerkplein",
    "latitude": "51.2017784",
    "longitude": "4.3451521",
    "thumbnail_url": ""
  },
  {
    "id": 35019,
    "name": "Jawed",
    "latitude": "51.205106",
    "longitude": "4.581058",
    "thumbnail_url": ""
  },
  {
    "id": 28255,
    "name": "Zwijndrecht NMBS noord - fietsrek",
    "latitude": "51.2142593",
    "longitude": "4.3310165",
    "thumbnail_url": ""
  },
  {
    "id": 32552,
    "name": "Wijnegem Jeugdcentrum Ahoy - fietsrek",
    "latitude": "51.2299146",
    "longitude": "4.5264575",
    "thumbnail_url": ""
  },
  {
    "id": 26920,
    "name": "Antwerp Rijswijck",
    "latitude": "51.1969287",
    "longitude": "4.4063839",
    "thumbnail_url": ""
  },
  {
    "id": 29623,
    "name": "Mechelen OLV-Kerk 3E3P - fietsrek",
    "latitude": "51.0232375",
    "longitude": "4.4794219",
    "thumbnail_url": ""
  },
  {
    "id": 24319,
    "name": "Zwijndrecht NMBS zuid - fietsrek",
    "latitude": "51.2139016",
    "longitude": "4.3312058",
    "thumbnail_url": ""
  },
  {
    "id": 30164,
    "name": "Wijnegem R.G van Havrelaan - fietsrek",
    "latitude": "51.2288372",
    "longitude": "4.5146357",
    "thumbnail_url": ""
  },
  {
    "id": 37547,
    "name": "Giosue",
    "latitude": "51.202585",
    "longitude": "4.390391",
    "thumbnail_url": ""
  },
  {
    "id": 30853,
    "name": "Mechelen Postkantoor - fietsrek",
    "latitude": "51.0280656",
    "longitude": "4.4794617",
    "thumbnail_url": ""
  },
  {
    "id": 24093,
    "name": "Schilde Brasschaatsebaan",
    "latitude": "51.2383751",
    "longitude": "4.5776719",
    "thumbnail_url": ""
  },
  {
    "id": 30862,
    "name": "Mechelen Oude Pleinstraat - fietsrek",
    "latitude": "51.0401944",
    "longitude": "4.4709092",
    "thumbnail_url": ""
  },
  {
    "id": 24069,
    "name": "Aartselaar Sportcentrum fietsenrek",
    "latitude": "51.1384693",
    "longitude": "4.4002256",
    "thumbnail_url": ""
  },
  {
    "id": 23465,
    "name": "Lier NMBS Station fietsenrek P2",
    "latitude": "51.1354976",
    "longitude": "4.5613211",
    "thumbnail_url": ""
  },
  {
    "id": 31131,
    "name": "Serge",
    "latitude": "51.18978",
    "longitude": "4.371355",
    "thumbnail_url": ""
  },
  {
    "id": 26899,
    "name": "Antwerp Colruyt Zuid",
    "latitude": "51.2058758",
    "longitude": "4.385983",
    "thumbnail_url": ""
  },
  {
    "id": 28470,
    "name": "Schoten Papenaardeken",
    "latitude": "51.2497917",
    "longitude": "4.4864301",
    "thumbnail_url": ""
  },
  {
    "id": 30890,
    "name": "Mechelen Zelestraat",
    "latitude": "51.03303",
    "longitude": "4.4772798",
    "thumbnail_url": ""
  },
  {
    "id": 29638,
    "name": "Mechelen Noord II",
    "latitude": "51.0537625",
    "longitude": "4.4479531",
    "thumbnail_url": ""
  },
  {
    "id": 26933,
    "name": "Antwerp UA Veke",
    "latitude": "51.2228246",
    "longitude": "4.4113085",
    "thumbnail_url": ""
  },
  {
    "id": 23500,
    "name": "SGW Meerdonk Dorp 4E",
    "latitude": "51.2602935",
    "longitude": "4.146962",
    "thumbnail_url": ""
  },
  {
    "id": 27536,
    "name": "Antwerp Stadspark Noord",
    "latitude": "51.2150848",
    "longitude": "4.4153804",
    "thumbnail_url": ""
  },
  {
    "id": 23466,
    "name": "Lier Veemarkt",
    "latitude": "51.1284563",
    "longitude": "4.5824608",
    "thumbnail_url": ""
  },
  {
    "id": 30618,
    "name": "Sint-Niklaas Parking Heymanplein",
    "latitude": "51.1619269",
    "longitude": "4.1395411",
    "thumbnail_url": ""
  },
  {
    "id": 24318,
    "name": "Zwijndrecht Burcht Kaai - fietsrek",
    "latitude": "51.2015399",
    "longitude": "4.3488707",
    "thumbnail_url": ""
  },
  {
    "id": 31907,
    "name": "Waterbus Zwijndrecht",
    "latitude": "51.2499449",
    "longitude": "4.3117432",
    "thumbnail_url": ""
  },
  {
    "id": 31935,
    "name": "Kris",
    "latitude": "51.2537865",
    "longitude": "4.3852853",
    "thumbnail_url": ""
  },
  {
    "id": 23440,
    "name": "Ekeren Zwaantjeshoek 5P",
    "latitude": "51.2726772",
    "longitude": "4.4538933",
    "thumbnail_url": ""
  },
  {
    "id": 23989,
    "name": "Merksem Oudebarreel",
    "latitude": "51.246592",
    "longitude": "4.450544",
    "thumbnail_url": ""
  },
  {
    "id": 31721,
    "name": "Kapellen LUX",
    "latitude": "51.3118047",
    "longitude": "4.4250623",
    "thumbnail_url": ""
  },
  {
    "id": 28140,
    "name": "Mortsel Vismarkt - fietsrek",
    "latitude": "51.1689232",
    "longitude": "4.4567586",
    "thumbnail_url": ""
  },
  {
    "id": 32557,
    "name": "Schoten Park Vordenstein",
    "latitude": "51.2561875",
    "longitude": "4.4877656",
    "thumbnail_url": ""
  },
  {
    "id": 23493,
    "name": "Rumst P+R Vosberg",
    "latitude": "51.0851724",
    "longitude": "4.4451475",
    "thumbnail_url": ""
  },
  {
    "id": 31328,
    "name": "Putte Sportpark Heerkenshoeve - fietsrek",
    "latitude": "51.0408875",
    "longitude": "4.6317031",
    "thumbnail_url": ""
  },
  {
    "id": 23417,
    "name": "Ekeren Hagelkruis 4P",
    "latitude": "51.2745411",
    "longitude": "4.4105906",
    "thumbnail_url": ""
  },
  {
    "id": 28165,
    "name": "Ranst Bibliotheek - fietsrek",
    "latitude": "51.189446",
    "longitude": "4.5591352",
    "thumbnail_url": ""
  },
  {
    "id": 27701,
    "name": "Linkeroever Halewijn ",
    "latitude": "51.2204731",
    "longitude": "4.3786995",
    "thumbnail_url": ""
  },
  {
    "id": 31270,
    "name": "Schelle Gemeentehuis - fietsenrek ",
    "latitude": "51.1268625",
    "longitude": "4.3365469",
    "thumbnail_url": ""
  },
  {
    "id": 32298,
    "name": "Tijdelijke Hub Brakrock 1",
    "latitude": "51.0914924",
    "longitude": "4.482884",
    "thumbnail_url": ""
  },
  {
    "id": 33988,
    "name": "Alberto",
    "latitude": "51.193766",
    "longitude": "4.41137",
    "thumbnail_url": ""
  },
  {
    "id": 23473,
    "name": "Mortsel Luithagen - Vredebaan -fietsenrek",
    "latitude": "51.1729892",
    "longitude": "4.444577",
    "thumbnail_url": ""
  },
  {
    "id": 30657,
    "name": "Antwerp Haven Kaai 102 4E",
    "latitude": "51.2452849",
    "longitude": "4.4090862",
    "thumbnail_url": ""
  },
  {
    "id": 40238,
    "name": "Peregrine",
    "latitude": "51.2974883",
    "longitude": "4.4139311",
    "thumbnail_url": ""
  },
  {
    "id": 28577,
    "name": "Lokeren Melkerijstraat 4P",
    "latitude": "51.1154875",
    "longitude": "4.0147031",
    "thumbnail_url": ""
  },
  {
    "id": 31072,
    "name": "Seppe",
    "latitude": "51.260385",
    "longitude": "4.591128",
    "thumbnail_url": ""
  },
  {
    "id": 28762,
    "name": "Wommelgem Koralenhoeve 4E",
    "latitude": "51.210691",
    "longitude": "4.5165202",
    "thumbnail_url": ""
  },
  {
    "id": 26265,
    "name": "Antwerp Nieuw Zuid",
    "latitude": "51.205237",
    "longitude": "4.3819054",
    "thumbnail_url": ""
  },
  {
    "id": 32066,
    "name": "Svenny",
    "latitude": "51.188527",
    "longitude": "4.4197301",
    "thumbnail_url": ""
  },
  {
    "id": 26939,
    "name": "Antwerp Hessenplein",
    "latitude": "51.2258816",
    "longitude": "4.4097421",
    "thumbnail_url": ""
  },
  {
    "id": 23337,
    "name": "Hoboken Veerdienst dropzone ",
    "latitude": "51.1755646",
    "longitude": "4.3320596",
    "thumbnail_url": ""
  },
  {
    "id": 39641,
    "name": "Joske",
    "latitude": "51.051185",
    "longitude": "4.459275",
    "thumbnail_url": ""
  },
  {
    "id": 35122,
    "name": "Ambre",
    "latitude": "51.2528",
    "longitude": "4.488566",
    "thumbnail_url": ""
  },
  {
    "id": 29650,
    "name": "Mechelen Muizen Brughuis - fietsrek",
    "latitude": "51.0116375",
    "longitude": "4.5209844",
    "thumbnail_url": ""
  },
  {
    "id": 32133,
    "name": "Henk",
    "latitude": "51.1583277",
    "longitude": "4.4096896",
    "thumbnail_url": ""
  },
  {
    "id": 23394,
    "name": "Brecht Klein Veerle",
    "latitude": "51.3359856",
    "longitude": "4.6621265",
    "thumbnail_url": ""
  },
  {
    "id": 26919,
    "name": "Antwerp Leman",
    "latitude": "51.1967806",
    "longitude": "4.4106009",
    "thumbnail_url": ""
  },
  {
    "id": 23464,
    "name": "Lier Markt (Vismarkt) fietsenrek ",
    "latitude": "51.1308515",
    "longitude": "4.5718722",
    "thumbnail_url": ""
  },
  {
    "id": 23516,
    "name": "Zandhoven Pulderbos Dorp",
    "latitude": "51.2180236",
    "longitude": "4.6912103",
    "thumbnail_url": ""
  },
  {
    "id": 29723,
    "name": "Beveren Atletiek Volharding - tegen omheining",
    "latitude": "51.2095875",
    "longitude": "4.2421719",
    "thumbnail_url": ""
  },
  {
    "id": 32289,
    "name": "Hulst Havenfort Tijdelijk ",
    "latitude": "51.2777678",
    "longitude": "4.0491548",
    "thumbnail_url": ""
  },
  {
    "id": 31241,
    "name": "Hemiksem Jan Sanderslaan / Q8 - fietsrek",
    "latitude": "51.1370375",
    "longitude": "4.3493906",
    "thumbnail_url": ""
  },
  {
    "id": 26902,
    "name": "Antwerp Waagnatie",
    "latitude": "51.232873",
    "longitude": "4.4028236",
    "thumbnail_url": ""
  },
  {
    "id": 30614,
    "name": "Sint-Niklaas Recreatiepark Ster",
    "latitude": "51.1689584",
    "longitude": "4.1878332",
    "thumbnail_url": ""
  },
  {
    "id": 29640,
    "name": "Mechelen Komet - fietsrek",
    "latitude": "51.0244875",
    "longitude": "4.4700781",
    "thumbnail_url": ""
  },
  {
    "id": 23474,
    "name": "Mortsel NMBS Liersesteenweg 3E3P - fietsrek",
    "latitude": "51.1690762",
    "longitude": "4.4691745",
    "thumbnail_url": ""
  },
  {
    "id": 30867,
    "name": "Mechelen Merodestraat - fietsrek",
    "latitude": "51.0315751",
    "longitude": "4.4828738",
    "thumbnail_url": ""
  },
  {
    "id": 26555,
    "name": "Ekeren NMBS Zuid 4E4P",
    "latitude": "51.2810199",
    "longitude": "4.4344623",
    "thumbnail_url": ""
  },
  {
    "id": 30861,
    "name": "Mechelen Bruul 2 - fietsrek",
    "latitude": "51.0257651",
    "longitude": "4.4814676",
    "thumbnail_url": ""
  },
  {
    "id": 33720,
    "name": "Cody",
    "latitude": "51.1268226",
    "longitude": "4.4229923",
    "thumbnail_url": ""
  },
  {
    "id": 23318,
    "name": "Antwerp Vlaamsekaai",
    "latitude": "51.2100272",
    "longitude": "4.3909891",
    "thumbnail_url": ""
  },
  {
    "id": 28469,
    "name": "Schoten Braamstraat",
    "latitude": "51.2419157",
    "longitude": "4.4921563",
    "thumbnail_url": ""
  },
  {
    "id": 29995,
    "name": "Wuustwezel Sporthal Gooreind - fietsrek",
    "latitude": "51.3545125",
    "longitude": "4.5324531",
    "thumbnail_url": ""
  },
  {
    "id": 32030,
    "name": "Suzanne",
    "latitude": "51.095295",
    "longitude": "3.994478",
    "thumbnail_url": ""
  },
  {
    "id": 31768,
    "name": "Lukaku",
    "latitude": "51.1216543",
    "longitude": "4.5249761",
    "thumbnail_url": ""
  },
  {
    "id": 30274,
    "name": "Niel Elisabethplein",
    "latitude": "51.1067487",
    "longitude": "4.3272929",
    "thumbnail_url": ""
  },
  {
    "id": 24110,
    "name": "Stabroek Hoevenen Markt",
    "latitude": "51.3066845",
    "longitude": "4.4044079",
    "thumbnail_url": ""
  },
  {
    "id": 26924,
    "name": "Antwerp Vinken",
    "latitude": "51.2045148",
    "longitude": "4.4045915",
    "thumbnail_url": ""
  },
  {
    "id": 29335,
    "name": "Heindonk Kerk 1E1P - fietsrek",
    "latitude": "51.0665125",
    "longitude": "4.4065781",
    "thumbnail_url": ""
  },
  {
    "id": 26960,
    "name": "Antwerp Victor Jacobs",
    "latitude": "51.1978076",
    "longitude": "4.4253727",
    "thumbnail_url": ""
  },
  {
    "id": 29629,
    "name": "Mechelen Abeelstraat - fietsrek",
    "latitude": "51.0032625",
    "longitude": "4.4858281",
    "thumbnail_url": ""
  },
  {
    "id": 30605,
    "name": "Sint-Niklaas Kuildamstraat",
    "latitude": "51.1757131",
    "longitude": "4.1357269",
    "thumbnail_url": ""
  },
  {
    "id": 40177,
    "name": "Xuan",
    "latitude": "51.2901372",
    "longitude": "4.3812267",
    "thumbnail_url": ""
  },
  {
    "id": 32261,
    "name": "Berchem Walemstraat ",
    "latitude": "51.1976412",
    "longitude": "4.4191346",
    "thumbnail_url": ""
  },
  {
    "id": 23481,
    "name": "Mortsel Vijf-aprilwarande 3P",
    "latitude": "51.1686096",
    "longitude": "4.4431881",
    "thumbnail_url": ""
  },
  {
    "id": 29168,
    "name": "Kalmthout Achterbroek - fietsrek",
    "latitude": "51.3867966",
    "longitude": "4.5032454",
    "thumbnail_url": ""
  },
  {
    "id": 29611,
    "name": "Mechelen Station Muizen 3E3P - fietsrek",
    "latitude": "51.0087125",
    "longitude": "4.5136406",
    "thumbnail_url": ""
  },
  {
    "id": 28605,
    "name": "Waasmunster Somebeke Dries 4E",
    "latitude": "51.1139713",
    "longitude": "4.1251304",
    "thumbnail_url": ""
  },
  {
    "id": 29606,
    "name": "Mechelen Station Achterkant 4E7P - fietsrek",
    "latitude": "51.0163625",
    "longitude": "4.4839844",
    "thumbnail_url": ""
  },
  {
    "id": 28474,
    "name": "Schoten Campus Kajee",
    "latitude": "51.2656385",
    "longitude": "4.5382024",
    "thumbnail_url": ""
  },
  {
    "id": 29646,
    "name": "Mechelen Kerkhof - fietsrek",
    "latitude": "51.0401625",
    "longitude": "4.4877344",
    "thumbnail_url": ""
  },
  {
    "id": 23499,
    "name": "Sint-Gillis-Waas Sint Helena",
    "latitude": "51.2232609",
    "longitude": "4.1254086",
    "thumbnail_url": ""
  },
  {
    "id": 26443,
    "name": "Antwerp Willemdok",
    "latitude": "51.2294765",
    "longitude": "4.4113152",
    "thumbnail_url": ""
  },
  {
    "id": 28592,
    "name": "Sint-Niklaas Hoge Heerweg 6P",
    "latitude": "51.1466935",
    "longitude": "4.1788894",
    "thumbnail_url": ""
  },
  {
    "id": 23374,
    "name": "Borsbeek Carrefour",
    "latitude": "51.1948069",
    "longitude": "4.4774725",
    "thumbnail_url": ""
  },
  {
    "id": 27564,
    "name": "Linkeroever Strantwerpen",
    "latitude": "51.234075",
    "longitude": "4.3946831",
    "thumbnail_url": ""
  },
  {
    "id": 23402,
    "name": "Edegem Kerkplein - Fort 5 fietsenrek ",
    "latitude": "51.1670727",
    "longitude": "4.4272305",
    "thumbnail_url": ""
  },
  {
    "id": 30398,
    "name": "Sint-Gillis-Waas Spaanskwartier",
    "latitude": "51.2631375",
    "longitude": "4.1133281",
    "thumbnail_url": ""
  },
  {
    "id": 26857,
    "name": "Antwerp Eilandje",
    "latitude": "51.233069",
    "longitude": "4.4052646",
    "thumbnail_url": ""
  },
  {
    "id": 30869,
    "name": "Mechelen Nekkerspoelstraat - fietsrek",
    "latitude": "51.0311563",
    "longitude": "4.492325",
    "thumbnail_url": ""
  },
  {
    "id": 40822,
    "name": "Peanut",
    "latitude": "51.196947",
    "longitude": "4.4897986",
    "thumbnail_url": ""
  },
  {
    "id": 28466,
    "name": "Schoten Gasketelplein",
    "latitude": "51.2566963",
    "longitude": "4.5049263",
    "thumbnail_url": ""
  },
  {
    "id": 26925,
    "name": "Antwerp Molen",
    "latitude": "51.2063784",
    "longitude": "4.4097367",
    "thumbnail_url": ""
  },
  {
    "id": 32739,
    "name": "Tony",
    "latitude": "51.2880163",
    "longitude": "4.4871307",
    "thumbnail_url": ""
  },
  {
    "id": 28471,
    "name": "Schoten Parking 'T Ven",
    "latitude": "51.2519941",
    "longitude": "4.501601",
    "thumbnail_url": ""
  },
  {
    "id": 30263,
    "name": "Niel SV Nielse",
    "latitude": "51.1006087",
    "longitude": "4.344476",
    "thumbnail_url": ""
  },
  {
    "id": 29304,
    "name": "Duffel Station 4E3P - fietsenrek ",
    "latitude": "51.0908625",
    "longitude": "4.4932031",
    "thumbnail_url": ""
  },
  {
    "id": 26827,
    "name": "Deurne Ruggeveld",
    "latitude": "51.2192673",
    "longitude": "4.4806825",
    "thumbnail_url": ""
  },
  {
    "id": 23354,
    "name": "Beveren Fort Liefkenshoek",
    "latitude": "51.2959685",
    "longitude": "4.2857248",
    "thumbnail_url": ""
  },
  {
    "id": 30397,
    "name": "Sint-Gillis-Waas Ijshoeve De Boey",
    "latitude": "51.2449125",
    "longitude": "4.1270781",
    "thumbnail_url": ""
  },
  {
    "id": 32430,
    "name": "Georgia",
    "latitude": "51.141758",
    "longitude": "4.446825",
    "thumbnail_url": ""
  },
  {
    "id": 23397,
    "name": "Edegem Gemeenteplein drinkwater fontein ",
    "latitude": "51.1554535",
    "longitude": "4.4463094",
    "thumbnail_url": ""
  },
  {
    "id": 32578,
    "name": "Ella",
    "latitude": "51.2999394",
    "longitude": "4.3541522",
    "thumbnail_url": ""
  },
  {
    "id": 39596,
    "name": "Randy",
    "latitude": "51.011065",
    "longitude": "4.487375",
    "thumbnail_url": ""
  },
  {
    "id": 33354,
    "name": "Lier",
    "latitude": "51.147998",
    "longitude": "4.535843",
    "thumbnail_url": ""
  },
  {
    "id": 33251,
    "name": "Judah",
    "latitude": "51.1483297",
    "longitude": "4.4490284",
    "thumbnail_url": ""
  },
  {
    "id": 27037,
    "name": "Merksem Maantjessteen",
    "latitude": "51.2553797",
    "longitude": "4.4446433",
    "thumbnail_url": ""
  },
  {
    "id": 29338,
    "name": "Willebroek AZ Rivierenland",
    "latitude": "51.0537875",
    "longitude": "4.3576719",
    "thumbnail_url": ""
  },
  {
    "id": 23454,
    "name": "Kapellen Hoogboom",
    "latitude": "51.3123419",
    "longitude": "4.452174",
    "thumbnail_url": ""
  },
  {
    "id": 23422,
    "name": "Ekeren Kapelsesteenweg 4P",
    "latitude": "51.2923766",
    "longitude": "4.4439209",
    "thumbnail_url": ""
  },
  {
    "id": 38328,
    "name": "Freesia",
    "latitude": "51.054576",
    "longitude": "4.453386",
    "thumbnail_url": ""
  },
  {
    "id": 24103,
    "name": "Berendrecht Dorpsstraat 2E4P",
    "latitude": "51.3435962",
    "longitude": "4.3139056",
    "thumbnail_url": ""
  },
  {
    "id": 23406,
    "name": "Ekeren NMBS Noord 4E4P",
    "latitude": "51.2811927",
    "longitude": "4.4339939",
    "thumbnail_url": ""
  },
  {
    "id": 23456,
    "name": "Kapellen NMBS Station",
    "latitude": "51.3139853",
    "longitude": "4.4326331",
    "thumbnail_url": ""
  },
  {
    "id": 29639,
    "name": "Mechelen Lamot - fietsrek",
    "latitude": "51.0264375",
    "longitude": "4.4759219",
    "thumbnail_url": ""
  },
  {
    "id": 27477,
    "name": "Wuustwezel Sterbos - fietsrek",
    "latitude": "51.3916791",
    "longitude": "4.5639077",
    "thumbnail_url": ""
  },
  {
    "id": 32561,
    "name": "Schoten Deuzeld - fietsrek",
    "latitude": "51.2448375",
    "longitude": "4.4617344",
    "thumbnail_url": ""
  },
  {
    "id": 23280,
    "name": "Antwerp Anneessenstraat",
    "latitude": "51.2177455",
    "longitude": "4.4176985",
    "thumbnail_url": ""
  },
  {
    "id": 26854,
    "name": "Berchem De Koninck",
    "latitude": "51.1994299",
    "longitude": "4.4167279",
    "thumbnail_url": ""
  },
  {
    "id": 26940,
    "name": "Antwerp Koepoort",
    "latitude": "51.2236212",
    "longitude": "4.402995",
    "thumbnail_url": ""
  },
  {
    "id": 23331,
    "name": "Deurne Muggenberglei",
    "latitude": "51.2090841",
    "longitude": "4.4571605",
    "thumbnail_url": ""
  },
  {
    "id": 29635,
    "name": "Mechelen Sportpark De Nekker",
    "latitude": "51.0263375",
    "longitude": "4.5025781",
    "thumbnail_url": ""
  },
  {
    "id": 39608,
    "name": "Jean-Sebastien",
    "latitude": "51.2973218",
    "longitude": "4.5010303",
    "thumbnail_url": ""
  },
  {
    "id": 29733,
    "name": "Kieldrecht Sportzone - fietsrek",
    "latitude": "51.2880875",
    "longitude": "4.1867031",
    "thumbnail_url": ""
  },
  {
    "id": 29636,
    "name": "Mechelen De Plaon - fietsrek",
    "latitude": "51.0416625",
    "longitude": "4.4760469",
    "thumbnail_url": ""
  },
  {
    "id": 30610,
    "name": "Nieuwkerken Dorp",
    "latitude": "51.193087",
    "longitude": "4.1780203",
    "thumbnail_url": ""
  },
  {
    "id": 23404,
    "name": "Edegem Omer van Ommerplein fietsenrek ",
    "latitude": "51.1606319",
    "longitude": "4.418481",
    "thumbnail_url": ""
  },
  {
    "id": 23416,
    "name": "Ekeren Geestenspoor 4P",
    "latitude": "51.2819416",
    "longitude": "4.4251782",
    "thumbnail_url": ""
  },
  {
    "id": 24111,
    "name": "Stabroek op-en afrit P+R",
    "latitude": "51.3267808",
    "longitude": "4.3535878",
    "thumbnail_url": ""
  },
  {
    "id": 23357,
    "name": "Beveren Kallo Waterbus steiger",
    "latitude": "51.2686599",
    "longitude": "4.2982406",
    "thumbnail_url": ""
  },
  {
    "id": 26923,
    "name": "Antwerp St Vincentius fietsenrek ",
    "latitude": "51.2060583",
    "longitude": "4.4136396",
    "thumbnail_url": ""
  },
  {
    "id": 23288,
    "name": "Antwerp Expo",
    "latitude": "51.1914375",
    "longitude": "4.3990161",
    "thumbnail_url": ""
  },
  {
    "id": 23392,
    "name": "Brecht Andrelaan",
    "latitude": "51.3164",
    "longitude": "4.5856",
    "thumbnail_url": ""
  },
  {
    "id": 23514,
    "name": "Zandhoven Pulle Dorp",
    "latitude": "51.2042647",
    "longitude": "4.7119741",
    "thumbnail_url": ""
  },
  {
    "id": 28139,
    "name": "Mortsel Edegemstraat - fietsrek",
    "latitude": "51.1702747",
    "longitude": "4.4483498",
    "thumbnail_url": ""
  },
  {
    "id": 30857,
    "name": "Mechelen Battelsesteenweg - fietsrek",
    "latitude": "51.0281007",
    "longitude": "4.4698371",
    "thumbnail_url": ""
  },
  {
    "id": 29297,
    "name": "Melkouwen Station - fietsrek",
    "latitude": "51.0947125",
    "longitude": "4.6720781",
    "thumbnail_url": ""
  },
  {
    "id": 23303,
    "name": "Antwerp Opera",
    "latitude": "51.2194726",
    "longitude": "4.415807",
    "thumbnail_url": ""
  },
  {
    "id": 30790,
    "name": "Lokeren Eksaarde Dorp",
    "latitude": "51.147092",
    "longitude": "3.9587071",
    "thumbnail_url": ""
  },
  {
    "id": 30892,
    "name": "Antwerp Haven MSC 4E",
    "latitude": "51.2618363",
    "longitude": "4.4106055",
    "thumbnail_url": ""
  },
  {
    "id": 26900,
    "name": "Antwerp Waterpoort",
    "latitude": "51.2079332",
    "longitude": "4.3887387",
    "thumbnail_url": ""
  },
  {
    "id": 23439,
    "name": "Ekeren Wijk Sint-Mariabrug 4P",
    "latitude": "51.2970705",
    "longitude": "4.440306",
    "thumbnail_url": ""
  },
  {
    "id": 26828,
    "name": "Borgerhout Berchemlei",
    "latitude": "51.202912",
    "longitude": "4.4457833",
    "thumbnail_url": ""
  },
  {
    "id": 29728,
    "name": "Melsele Kapel van Gaverland - fietsrek",
    "latitude": "51.2257625",
    "longitude": "4.2677656",
    "thumbnail_url": ""
  },
  {
    "id": 27010,
    "name": "Antwerp Play Zuid",
    "latitude": "51.2069428",
    "longitude": "4.3858305",
    "thumbnail_url": ""
  },
  {
    "id": 29325,
    "name": "Sint-Amands M Massinstraat 3E3P - fietsrek",
    "latitude": "51.0516875",
    "longitude": "4.2067031",
    "thumbnail_url": ""
  },
  {
    "id": 24335,
    "name": "Temse NMBS 6E4P",
    "latitude": "51.1262417",
    "longitude": "4.2214392",
    "thumbnail_url": ""
  },
  {
    "id": 28468,
    "name": "Schoten Botermelk",
    "latitude": "51.2776077",
    "longitude": "4.5256155",
    "thumbnail_url": ""
  },
  {
    "id": 26916,
    "name": "Antwerp Rubenshuis",
    "latitude": "51.217223",
    "longitude": "4.4089988",
    "thumbnail_url": ""
  },
  {
    "id": 29615,
    "name": "Mechelen Leest Dorp 3E3P - fietsrek",
    "latitude": "51.0326125",
    "longitude": "4.4180156",
    "thumbnail_url": ""
  },
  {
    "id": 23438,
    "name": "Ekeren Vuurkruisenstraat 4P2E",
    "latitude": "51.2757718",
    "longitude": "4.4145393",
    "thumbnail_url": ""
  },
  {
    "id": 23511,
    "name": "Wijnegem Sportcentrum - fietsrek",
    "latitude": "51.2253646",
    "longitude": "4.5334841",
    "thumbnail_url": ""
  },
  {
    "id": 29724,
    "name": "Beveren Sportpark - fietsrek",
    "latitude": "51.2113125",
    "longitude": "4.2429844",
    "thumbnail_url": ""
  },
  {
    "id": 23386,
    "name": "Brasschaat Maria Ter Heide Kazerne Copp 2E2P",
    "latitude": "51.3294517",
    "longitude": "4.5285264",
    "thumbnail_url": ""
  },
  {
    "id": 28898,
    "name": "Hoboken bushalte Groothandelsmarkt",
    "latitude": "51.1927799",
    "longitude": "4.3727356",
    "thumbnail_url": ""
  },
  {
    "id": 26917,
    "name": "Antwerp Markgravelei",
    "latitude": "51.2006849",
    "longitude": "4.3984557",
    "thumbnail_url": ""
  },
  {
    "id": 30865,
    "name": "Mechelen Wilgenstraat - fietsrek ",
    "latitude": "51.0082875",
    "longitude": "4.4850469",
    "thumbnail_url": ""
  },
  {
    "id": 31880,
    "name": "Lier Koningshooikt Koningsplein",
    "latitude": "51.0938682",
    "longitude": "4.6117808",
    "thumbnail_url": ""
  },
  {
    "id": 29626,
    "name": "Mechelen Frans Halsvest 4P - fietsrek",
    "latitude": "51.0336375",
    "longitude": "4.4833906",
    "thumbnail_url": ""
  },
  {
    "id": 23360,
    "name": "Beveren Melsele Spoorweglaan - fietsrek",
    "latitude": "51.2198478",
    "longitude": "4.2822222",
    "thumbnail_url": ""
  },
  {
    "id": 31629,
    "name": "Duffel Technisch Centrum 1E1P",
    "latitude": "51.0893125",
    "longitude": "4.4977344",
    "thumbnail_url": ""
  },
  {
    "id": 36276,
    "name": "Carmelo",
    "latitude": "51.123401",
    "longitude": "4.469788",
    "thumbnail_url": ""
  },
  {
    "id": 31847,
    "name": "Antwerpen - Cella fietsrek",
    "latitude": "51.2330138",
    "longitude": "4.4088428",
    "thumbnail_url": ""
  },
  {
    "id": 31395,
    "name": "Luchtbal OWC",
    "latitude": "51.2432875",
    "longitude": "4.4237031",
    "thumbnail_url": ""
  },
  {
    "id": 23294,
    "name": "Luchtbal NMBS",
    "latitude": "51.2444489",
    "longitude": "4.4245057",
    "thumbnail_url": ""
  },
  {
    "id": 26816,
    "name": "Deurne Sportpaleis ",
    "latitude": "51.2301001",
    "longitude": "4.4424071",
    "thumbnail_url": ""
  },
  {
    "id": 23311,
    "name": "Antwerp Schijnpoort A",
    "latitude": "51.2273537",
    "longitude": "4.4388026",
    "thumbnail_url": ""
  },
  {
    "id": 32128,
    "name": "Niklas",
    "latitude": "51.150458",
    "longitude": "4.1521972",
    "thumbnail_url": ""
  },
  {
    "id": 28629,
    "name": "Brecht De Renlaan",
    "latitude": "51.2998565",
    "longitude": "4.5721621",
    "thumbnail_url": ""
  },
  {
    "id": 26914,
    "name": "Antwerp Theaterplein",
    "latitude": "51.2147032",
    "longitude": "4.4106269",
    "thumbnail_url": ""
  },
  {
    "id": 30654,
    "name": "Antwerp Haven ZNA Kaai 142 4E",
    "latitude": "51.2571748",
    "longitude": "4.4152361",
    "thumbnail_url": ""
  },
  {
    "id": 27011,
    "name": "Antwerp Leon Steyen",
    "latitude": "51.2066486",
    "longitude": "4.3842081",
    "thumbnail_url": ""
  },
  {
    "id": 24105,
    "name": "Berendrecht dienstencentrum 2E4P",
    "latitude": "51.3461711",
    "longitude": "4.3228089",
    "thumbnail_url": ""
  },
  {
    "id": 33564,
    "name": "Lucie",
    "latitude": "51.2758695",
    "longitude": "4.4554366",
    "thumbnail_url": ""
  },
  {
    "id": 32409,
    "name": "Thomas",
    "latitude": "51.20645",
    "longitude": "4.414075",
    "thumbnail_url": ""
  },
  {
    "id": 30584,
    "name": "Antwerp Campus Hallen",
    "latitude": "51.2298388",
    "longitude": "4.4363928",
    "thumbnail_url": ""
  },
  {
    "id": 33269,
    "name": "Michele",
    "latitude": "51.176038",
    "longitude": "4.524451",
    "thumbnail_url": ""
  },
  {
    "id": 23301,
    "name": "Antwerp Museum Schone Kunsten",
    "latitude": "51.2094071",
    "longitude": "4.3943274",
    "thumbnail_url": ""
  },
  {
    "id": 23401,
    "name": "Edegem Kattenbroek fietsenrek ",
    "latitude": "51.148976",
    "longitude": "4.4347249",
    "thumbnail_url": ""
  },
  {
    "id": 23389,
    "name": "Brecht NMBS Noorderkempen - Brecht Hoek",
    "latitude": "51.3570757",
    "longitude": "4.6323232",
    "thumbnail_url": ""
  },
  {
    "id": 23475,
    "name": "Mortsel NMBS Mortsel 3E3P - fietsrek",
    "latitude": "51.1822867",
    "longitude": "4.4479984",
    "thumbnail_url": ""
  },
  {
    "id": 24215,
    "name": "Schoten Deuzelt Kerk",
    "latitude": "51.2448797",
    "longitude": "4.4668882",
    "thumbnail_url": ""
  },
  {
    "id": 35157,
    "name": "Amado",
    "latitude": "51.452766",
    "longitude": "4.492538",
    "thumbnail_url": ""
  },
  {
    "id": 28134,
    "name": "Essen Hoek - fietsrek",
    "latitude": "51.4458876",
    "longitude": "4.4100771",
    "thumbnail_url": ""
  },
  {
    "id": 23379,
    "name": "Brasschaat / Brecht P+R St Job 10E - fietsrek",
    "latitude": "51.3100647",
    "longitude": "4.5547344",
    "thumbnail_url": ""
  },
  {
    "id": 23356,
    "name": "Beveren Kallo Dorp - fietsrek",
    "latitude": "51.2526853",
    "longitude": "4.2788881",
    "thumbnail_url": ""
  },
  {
    "id": 37492,
    "name": "Aditya",
    "latitude": "51.147098",
    "longitude": "4.545046",
    "thumbnail_url": ""
  },
  {
    "id": 36339,
    "name": "Serhat",
    "latitude": "51.3769051",
    "longitude": "4.4488373",
    "thumbnail_url": ""
  },
  {
    "id": 27039,
    "name": "Deurne Saerens",
    "latitude": "51.2289711",
    "longitude": "4.4781065",
    "thumbnail_url": ""
  },
  {
    "id": 26882,
    "name": "Borgerhout Krugerpark",
    "latitude": "51.215935",
    "longitude": "4.4418582",
    "thumbnail_url": ""
  },
  {
    "id": 31561,
    "name": "Hoboken KDG fietsenrek ",
    "latitude": "51.173351",
    "longitude": "4.3710834",
    "thumbnail_url": ""
  },
  {
    "id": 24327,
    "name": "Wuustwezel Loenhout Kerk - fietsrek",
    "latitude": "51.3984061",
    "longitude": "4.6424488",
    "thumbnail_url": ""
  },
  {
    "id": 28602,
    "name": "Temse Tinelplaats 4E",
    "latitude": "51.1264207",
    "longitude": "4.2037326",
    "thumbnail_url": ""
  },
  {
    "id": 38803,
    "name": "Laurian",
    "latitude": "51.025666",
    "longitude": "4.471481",
    "thumbnail_url": ""
  },
  {
    "id": 36314,
    "name": "Mateo",
    "latitude": "51.292701",
    "longitude": "4.494661",
    "thumbnail_url": ""
  },
  {
    "id": 27025,
    "name": "Merksem Sport",
    "latitude": "51.2602502",
    "longitude": "4.4601461",
    "thumbnail_url": ""
  },
  {
    "id": 28627,
    "name": "Brecht Lochtenbergplein",
    "latitude": "51.3016122",
    "longitude": "4.5607716",
    "thumbnail_url": ""
  },
  {
    "id": 23398,
    "name": "Edegem P+R UZA fietsenrek ",
    "latitude": "51.1570657",
    "longitude": "4.4129195",
    "thumbnail_url": ""
  },
  {
    "id": 23322,
    "name": "Berchem Fruithoflaan",
    "latitude": "51.1803093",
    "longitude": "4.4330573",
    "thumbnail_url": ""
  },
  {
    "id": 23369,
    "name": "Boechout P+R Boechout",
    "latitude": "51.1690887",
    "longitude": "4.4931745",
    "thumbnail_url": ""
  },
  {
    "id": 31719,
    "name": "Kapellen Eskapade",
    "latitude": "51.3342263",
    "longitude": "4.4097222",
    "thumbnail_url": ""
  },
  {
    "id": 23355,
    "name": "Beveren Haasdonk - fietsrek",
    "latitude": "51.1813144",
    "longitude": "4.2392227",
    "thumbnail_url": ""
  },
  {
    "id": 23431,
    "name": "Ekeren Prinshoeveweg",
    "latitude": "51.279708",
    "longitude": "4.447414",
    "thumbnail_url": ""
  },
  {
    "id": 23370,
    "name": "Boechout Kerk",
    "latitude": "51.1584592",
    "longitude": "4.4914003",
    "thumbnail_url": ""
  },
  {
    "id": 23304,
    "name": "Wilrijk P+R Olympiade dropzone ",
    "latitude": "51.1839",
    "longitude": "4.392",
    "thumbnail_url": ""
  },
  {
    "id": 29170,
    "name": "Kalmthout Sportpark - fietsrek",
    "latitude": "51.3777108",
    "longitude": "4.4797599",
    "thumbnail_url": ""
  },
  {
    "id": 28166,
    "name": "Ranst Broechem Kerk - voetpad",
    "latitude": "51.1814529",
    "longitude": "4.6018065",
    "thumbnail_url": ""
  },
  {
    "id": 30860,
    "name": "Mechelen Ijzerenleen - fietsrek",
    "latitude": "51.0261375",
    "longitude": "4.4781094",
    "thumbnail_url": ""
  },
  {
    "id": 30733,
    "name": "Booischot Station 2 2E1P - fietsrek",
    "latitude": "51.0370927",
    "longitude": "4.7736733",
    "thumbnail_url": ""
  },
  {
    "id": 26868,
    "name": "Hoboken Valaar fietsenrek ",
    "latitude": "51.175452",
    "longitude": "4.3788715",
    "thumbnail_url": ""
  },
  {
    "id": 23366,
    "name": "Beveren - Doel dorp - voetpad",
    "latitude": "51.3113763",
    "longitude": "4.2645302",
    "thumbnail_url": ""
  },
  {
    "id": 23368,
    "name": "Boechout NMBS Boechout",
    "latitude": "51.1634509",
    "longitude": "4.4949188",
    "thumbnail_url": ""
  },
  {
    "id": 30637,
    "name": "Luchtbal Schouwburg",
    "latitude": "51.248467",
    "longitude": "4.4231219",
    "thumbnail_url": ""
  },
  {
    "id": 29651,
    "name": "Boortmeerbeek Station 3E3P - fietsrek",
    "latitude": "50.981874",
    "longitude": "4.5734936",
    "thumbnail_url": ""
  },
  {
    "id": 23870,
    "name": "Brasschaat Rustoordlei",
    "latitude": "51.3011966",
    "longitude": "4.4719884",
    "thumbnail_url": ""
  },
  {
    "id": 29605,
    "name": "Mechelen Station Voorkant 5E9P",
    "latitude": "51.0175625",
    "longitude": "4.4824844",
    "thumbnail_url": ""
  },
  {
    "id": 29659,
    "name": "Berlaar Markt",
    "latitude": "51.1173625",
    "longitude": "4.6577031",
    "thumbnail_url": ""
  },
  {
    "id": 29609,
    "name": "Mechelen Douaneplein 3E5P",
    "latitude": "51.0262375",
    "longitude": "4.4929531",
    "thumbnail_url": ""
  },
  {
    "id": 34012,
    "name": "Luis",
    "latitude": "51.201903",
    "longitude": "4.524011",
    "thumbnail_url": ""
  },
  {
    "id": 27834,
    "name": "Antwerp Troonplaats",
    "latitude": "51.203284",
    "longitude": "4.3917186",
    "thumbnail_url": ""
  },
  {
    "id": 28167,
    "name": "Ranst Tennisclub - parkeerplaats 1",
    "latitude": "51.1827788",
    "longitude": "4.5609994",
    "thumbnail_url": ""
  },
  {
    "id": 23380,
    "name": "Brasschaat Kerk 6E4P - fietsrek",
    "latitude": "51.2898976",
    "longitude": "4.4924768",
    "thumbnail_url": ""
  },
  {
    "id": 33140,
    "name": "Parker",
    "latitude": "51.2034692",
    "longitude": "4.3938959",
    "thumbnail_url": ""
  },
  {
    "id": 28950,
    "name": "Hemiksem Heiligstraat",
    "latitude": "51.1502378",
    "longitude": "4.349788",
    "thumbnail_url": ""
  },
  {
    "id": 32299,
    "name": "Tijdelijke Hub Brakrock 2",
    "latitude": "51.1030649",
    "longitude": "4.4908305",
    "thumbnail_url": ""
  },
  {
    "id": 33213,
    "name": "Narciso",
    "latitude": "51.0440546",
    "longitude": "4.462271",
    "thumbnail_url": ""
  },
  {
    "id": 26819,
    "name": "Deurne Bisschoppenhofpark",
    "latitude": "51.2319148",
    "longitude": "4.4606547",
    "thumbnail_url": ""
  },
  {
    "id": 30598,
    "name": "Rumst Terhagen Hof Van Crequi",
    "latitude": "51.0787762",
    "longitude": "4.4010529",
    "thumbnail_url": ""
  },
  {
    "id": 27767,
    "name": "Antwerp Kistemaecker ",
    "latitude": "51.2193581",
    "longitude": "4.4365776",
    "thumbnail_url": ""
  },
  {
    "id": 27256,
    "name": "Antwerp ZNA Cadix",
    "latitude": "51.2315374",
    "longitude": "4.4167218",
    "thumbnail_url": ""
  },
  {
    "id": 32799,
    "name": "Ross",
    "latitude": "51.2296813",
    "longitude": "4.4057933",
    "thumbnail_url": ""
  },
  {
    "id": 23373,
    "name": "Boom NMBS Station - fietsrek",
    "latitude": "51.0902982",
    "longitude": "4.3600839",
    "thumbnail_url": ""
  },
  {
    "id": 30607,
    "name": "Sint-Niklaas Lamstraat",
    "latitude": "51.1657875",
    "longitude": "4.1530156",
    "thumbnail_url": ""
  },
  {
    "id": 28149,
    "name": "Brasschaat Kerk Bethanie - fietsrek",
    "latitude": "51.3151954",
    "longitude": "4.5020024",
    "thumbnail_url": ""
  },
  {
    "id": 29660,
    "name": "Heist-Op-Den-Berg Parking Leopoldlei 4E3P",
    "latitude": "51.0771875",
    "longitude": "4.7268594",
    "thumbnail_url": ""
  },
  {
    "id": 23396,
    "name": "Brecht Sint-Job Xus Koning",
    "latitude": "51.292519",
    "longitude": "4.5863801",
    "thumbnail_url": ""
  },
  {
    "id": 26837,
    "name": "Antwerp Hof ter Bekestraat",
    "latitude": "51.2017915",
    "longitude": "4.3960841",
    "thumbnail_url": ""
  },
  {
    "id": 35406,
    "name": "Nicasy",
    "latitude": "51.2077604",
    "longitude": "4.4034085",
    "thumbnail_url": ""
  },
  {
    "id": 23383,
    "name": "Brasschaat Driehoek 2E4P - fietsrek",
    "latitude": "51.3038859",
    "longitude": "4.5037402",
    "thumbnail_url": ""
  },
  {
    "id": 28122,
    "name": "Luchtbal Brandweer BZA 6E",
    "latitude": "51.2504979",
    "longitude": "4.4197102",
    "thumbnail_url": ""
  },
  {
    "id": 27033,
    "name": "Antwerp ZNA Stuivenberg",
    "latitude": "51.2231362",
    "longitude": "4.4364431",
    "thumbnail_url": ""
  },
  {
    "id": 23450,
    "name": "Kalmthout Kerkplein Driehoek - fietsrek",
    "latitude": "51.38268",
    "longitude": "4.47491",
    "thumbnail_url": ""
  },
  {
    "id": 29726,
    "name": "Beveren Schoolomgeving Kallobaan - gevel",
    "latitude": "51.2169625",
    "longitude": "4.2593281",
    "thumbnail_url": ""
  },
  {
    "id": 27052,
    "name": "Antwerp Oostkaai",
    "latitude": "51.2300513",
    "longitude": "4.4076952",
    "thumbnail_url": ""
  },
  {
    "id": 31291,
    "name": "Mechelen LDC Den Abeel 3E1P",
    "latitude": "51.0010489",
    "longitude": "4.4839852",
    "thumbnail_url": ""
  },
  {
    "id": 28128,
    "name": "Antwerp Haven ThyssenKrupp 4E",
    "latitude": "51.252966",
    "longitude": "4.3975171",
    "thumbnail_url": ""
  },
  {
    "id": 29320,
    "name": "Beerzel Halte Driesstraat 2E2P - fietsrek",
    "latitude": "51.0608125",
    "longitude": "4.6538281",
    "thumbnail_url": ""
  },
  {
    "id": 30594,
    "name": "Reet Halte Donkerstraat",
    "latitude": "51.1073472",
    "longitude": "4.4094254",
    "thumbnail_url": ""
  },
  {
    "id": 23461,
    "name": "Kontich Kazerne Kerk fietsenrek ",
    "latitude": "51.127744",
    "longitude": "4.4724822",
    "thumbnail_url": ""
  },
  {
    "id": 27257,
    "name": "Antwerp Brederode",
    "latitude": "51.2070762",
    "longitude": "4.3974609",
    "thumbnail_url": ""
  },
  {
    "id": 23414,
    "name": "Ekeren Driehoekstraat",
    "latitude": "51.2844413",
    "longitude": "4.4228865",
    "thumbnail_url": ""
  },
  {
    "id": 24217,
    "name": "Schoten Zeurt",
    "latitude": "51.2644387",
    "longitude": "4.5080086",
    "thumbnail_url": ""
  },
  {
    "id": 31604,
    "name": "Erdem",
    "latitude": "51.127208",
    "longitude": "4.575596",
    "thumbnail_url": ""
  },
  {
    "id": 29330,
    "name": "S-K-W Station 3E3P - fietsrek",
    "latitude": "51.0700875",
    "longitude": "4.4961094",
    "thumbnail_url": ""
  },
  {
    "id": 28606,
    "name": "Zele Wijnveld",
    "latitude": "51.0833125",
    "longitude": "4.0373594",
    "thumbnail_url": ""
  },
  {
    "id": 28628,
    "name": "Brecht Sluis 5",
    "latitude": "51.2992769",
    "longitude": "4.557853",
    "thumbnail_url": ""
  },
  {
    "id": 29340,
    "name": "Blaasveld Parking Het Broek",
    "latitude": "51.0598375",
    "longitude": "4.3817344",
    "thumbnail_url": ""
  },
  {
    "id": 34035,
    "name": "Belisario",
    "latitude": "51.183025",
    "longitude": "4.378135",
    "thumbnail_url": ""
  },
  {
    "id": 26908,
    "name": "Antwerp Veemarkt",
    "latitude": "51.2237107",
    "longitude": "4.4000355",
    "thumbnail_url": ""
  },
  {
    "id": 28150,
    "name": "Brasschaat park - eerste boom aan de hoek",
    "latitude": "51.2879761",
    "longitude": "4.4911944",
    "thumbnail_url": ""
  },
  {
    "id": 29624,
    "name": "Mechelen Zandpoortvest 2E2P - fietsrek",
    "latitude": "51.0256457",
    "longitude": "4.4890648",
    "thumbnail_url": ""
  },
  {
    "id": 33808,
    "name": "Kenji",
    "latitude": "51.2295561",
    "longitude": "4.4449874",
    "thumbnail_url": ""
  },
  {
    "id": 30592,
    "name": "Rumst Terhagen Begraafplaats",
    "latitude": "51.0786727",
    "longitude": "4.3954044",
    "thumbnail_url": ""
  },
  {
    "id": 27396,
    "name": "Borgerhout Reiziger",
    "latitude": "51.2136662",
    "longitude": "4.4438256",
    "thumbnail_url": ""
  },
  {
    "id": 27395,
    "name": "Borgerhout Naeyaertplein",
    "latitude": "51.2097921",
    "longitude": "4.4404963",
    "thumbnail_url": ""
  },
  {
    "id": 23316,
    "name": "Antwerp St-Jansplein",
    "latitude": "51.2251554",
    "longitude": "4.418513",
    "thumbnail_url": ""
  },
  {
    "id": 32556,
    "name": "Schoten Ontspanningslokaal Lariksdreef",
    "latitude": "51.2610375",
    "longitude": "4.5212969",
    "thumbnail_url": ""
  },
  {
    "id": 27053,
    "name": "Antwerp MAS Noord",
    "latitude": "51.2297179",
    "longitude": "4.4033148",
    "thumbnail_url": ""
  },
  {
    "id": 29613,
    "name": "Mechelen Heffen Centrum 2E2P ",
    "latitude": "51.0463375",
    "longitude": "4.4198906",
    "thumbnail_url": ""
  },
  {
    "id": 28260,
    "name": "Hoboken De Schorren fietsenrek ",
    "latitude": "51.1852711",
    "longitude": "4.3423177",
    "thumbnail_url": ""
  },
  {
    "id": 23478,
    "name": "Mortsel Jozef Hermanslei 2E3P - fietsrek",
    "latitude": "51.1765267",
    "longitude": "4.436311",
    "thumbnail_url": ""
  },
  {
    "id": 30889,
    "name": "Mechelen Kerkhoflei - fietsrek",
    "latitude": "51.0378125",
    "longitude": "4.4816406",
    "thumbnail_url": ""
  },
  {
    "id": 29296,
    "name": "Berlaar Station 3E3P - fietsrek",
    "latitude": "51.1134375",
    "longitude": "4.6393594",
    "thumbnail_url": ""
  },
  {
    "id": 32079,
    "name": "Nives",
    "latitude": "51.199391",
    "longitude": "4.407031",
    "thumbnail_url": ""
  },
  {
    "id": 23400,
    "name": "Edegem Grijpegemplein fietsenrek ",
    "latitude": "51.1619765",
    "longitude": "4.4497579",
    "thumbnail_url": ""
  },
  {
    "id": 27710,
    "name": "Antwerp Venus",
    "latitude": "51.2229041",
    "longitude": "4.4088388",
    "thumbnail_url": ""
  },
  {
    "id": 37969,
    "name": "Harmen",
    "latitude": "51.261053",
    "longitude": "4.383686",
    "thumbnail_url": ""
  },
  {
    "id": 24340,
    "name": "Kruibeke Scheldelei - Veerdienst 4E4P",
    "latitude": "51.1756097",
    "longitude": "4.3232964",
    "thumbnail_url": ""
  },
  {
    "id": 29645,
    "name": "Mechelen Tivolipark",
    "latitude": "51.0458875",
    "longitude": "4.4723594",
    "thumbnail_url": ""
  },
  {
    "id": 27751,
    "name": "Deurne Boekenberg Sport",
    "latitude": "51.1954052",
    "longitude": "4.4725456",
    "thumbnail_url": ""
  },
  {
    "id": 29311,
    "name": "Duffel Domein Pollepel fietsenrek ",
    "latitude": "51.0828625",
    "longitude": "4.5134531",
    "thumbnail_url": ""
  },
  {
    "id": 28589,
    "name": "Sint-Gillis-Waas De Route 4E",
    "latitude": "51.2184625",
    "longitude": "4.1130156",
    "thumbnail_url": ""
  },
  {
    "id": 28590,
    "name": "Sint-Gillis-Waas Golf/Musketeers 4E",
    "latitude": "51.2262457",
    "longitude": "4.0881948",
    "thumbnail_url": ""
  },
  {
    "id": 28607,
    "name": "Zele Zevensterren",
    "latitude": "51.076189",
    "longitude": "4.0456663",
    "thumbnail_url": ""
  },
  {
    "id": 44909,
    "name": "Kauffmann",
    "latitude": "51.220787",
    "longitude": "4.4206027",
    "thumbnail_url": ""
  },
  {
    "id": 26830,
    "name": "Wilrijk Sportcentrum fietsenrek ",
    "latitude": "51.1892695",
    "longitude": "4.3970582",
    "thumbnail_url": ""
  },
  {
    "id": 29298,
    "name": "Bonheiden Mart 4E",
    "latitude": "51.0231625",
    "longitude": "4.6063281",
    "thumbnail_url": ""
  },
  {
    "id": 30448,
    "name": "Linkeroever FPC - Rode Kruis",
    "latitude": "51.2069009",
    "longitude": "4.3643723",
    "thumbnail_url": ""
  },
  {
    "id": 28759,
    "name": "Antwerp Noordschippers",
    "latitude": "51.234594",
    "longitude": "4.4288883",
    "thumbnail_url": ""
  },
  {
    "id": 28181,
    "name": "Berchem Kerk Pius-X - fietsrek",
    "latitude": "51.1775047",
    "longitude": "4.4226559",
    "thumbnail_url": ""
  },
  {
    "id": 23509,
    "name": "Wijnegem Houtlaan/Ganzenweg - fietsrek",
    "latitude": "51.2302155",
    "longitude": "4.5082501",
    "thumbnail_url": ""
  },
  {
    "id": 39579,
    "name": "Caitlyn",
    "latitude": "51.17903",
    "longitude": "4.457261",
    "thumbnail_url": ""
  },
  {
    "id": 28467,
    "name": "Schoten Villerslei",
    "latitude": "51.2522596",
    "longitude": "4.5096661",
    "thumbnail_url": ""
  },
  {
    "id": 30608,
    "name": "Sint-Niklaas Europark Zuid",
    "latitude": "51.1625125",
    "longitude": "4.1675469",
    "thumbnail_url": ""
  },
  {
    "id": 26821,
    "name": "Deurne De Berlaimont",
    "latitude": "51.2284188",
    "longitude": "4.4574693",
    "thumbnail_url": ""
  },
  {
    "id": 23335,
    "name": "Hoboken NMBS Polder fietsenrek ",
    "latitude": "51.1825971",
    "longitude": "4.3480269",
    "thumbnail_url": ""
  },
  {
    "id": 23387,
    "name": "Brasschaat Miksebaan  4E4P -zijkant",
    "latitude": "51.2921994",
    "longitude": "4.5053036",
    "thumbnail_url": ""
  },
  {
    "id": 29309,
    "name": "Duffel Walemstraat glascontainer",
    "latitude": "51.0875635",
    "longitude": "4.4806838",
    "thumbnail_url": ""
  },
  {
    "id": 26589,
    "name": "Antwerp CS De Keyserlei",
    "latitude": "51.217337",
    "longitude": "4.4203519",
    "thumbnail_url": ""
  },
  {
    "id": 30001,
    "name": "Wuustwezel Kerk Sint-Jozef 1E2P - fietsrek",
    "latitude": "51.3579637",
    "longitude": "4.5422936",
    "thumbnail_url": ""
  },
  {
    "id": 27021,
    "name": "Antwerp Zomerbar",
    "latitude": "51.2307461",
    "longitude": "4.422966",
    "thumbnail_url": ""
  },
  {
    "id": 38305,
    "name": "Cebrail",
    "latitude": "51.20016",
    "longitude": "4.442041",
    "thumbnail_url": ""
  },
  {
    "id": 30166,
    "name": "Wijnegem Dorenboslaan - fietsrek",
    "latitude": "51.2245386",
    "longitude": "4.5063544",
    "thumbnail_url": ""
  },
  {
    "id": 24325,
    "name": "Wuustwezel Dorp - fietsrek",
    "latitude": "51.390178",
    "longitude": "4.5920801",
    "thumbnail_url": ""
  },
  {
    "id": 39625,
    "name": "Timothee",
    "latitude": "51.168491",
    "longitude": "4.335918",
    "thumbnail_url": ""
  },
  {
    "id": 29661,
    "name": "Blaasveld Ten Bergh 3E3P",
    "latitude": "51.0509375",
    "longitude": "4.3727656",
    "thumbnail_url": ""
  },
  {
    "id": 23363,
    "name": "Beveren P+R Melsele - zijkant fietsrek",
    "latitude": "51.2190932",
    "longitude": "4.3045901",
    "thumbnail_url": ""
  },
  {
    "id": 23297,
    "name": "Antwerp MAS / St-Aldegondiskaai",
    "latitude": "51.22812",
    "longitude": "4.404984",
    "thumbnail_url": ""
  },
  {
    "id": 32260,
    "name": "Antwerpen Steenborgerweert",
    "latitude": "51.2372724",
    "longitude": "4.4222791",
    "thumbnail_url": ""
  },
  {
    "id": 29318,
    "name": "Peulis Dorp 2E2P",
    "latitude": "51.0369625",
    "longitude": "4.5891094",
    "thumbnail_url": ""
  },
  {
    "id": 30629,
    "name": "Antwerp Stormkop - fietsrek",
    "latitude": "51.2365196",
    "longitude": "4.403218",
    "thumbnail_url": ""
  },
  {
    "id": 23412,
    "name": "Ekeren Districthuis 4P",
    "latitude": "51.2782074",
    "longitude": "4.4238986",
    "thumbnail_url": ""
  },
  {
    "id": 23296,
    "name": "Luchtbal P+R Havana",
    "latitude": "51.2628401",
    "longitude": "4.4190171",
    "thumbnail_url": ""
  },
  {
    "id": 28543,
    "name": "Aartselaar bushalte de bonte koe",
    "latitude": "51.117175",
    "longitude": "4.3939586",
    "thumbnail_url": ""
  },
  {
    "id": 23433,
    "name": "Ekeren Schoonbroek Kerk 4P",
    "latitude": "51.2790613",
    "longitude": "4.4097336",
    "thumbnail_url": ""
  },
  {
    "id": 23452,
    "name": "Kalmthout NMBS Heide - fietsrek",
    "latitude": "51.36514",
    "longitude": "4.46041",
    "thumbnail_url": ""
  },
  {
    "id": 24100,
    "name": "Wommelgem Brieleke 4P",
    "latitude": "51.2018972",
    "longitude": "4.5143886",
    "thumbnail_url": ""
  },
  {
    "id": 28595,
    "name": "Sint-Niklaas Sinaai Dries 4E",
    "latitude": "51.1571517",
    "longitude": "4.0431511",
    "thumbnail_url": ""
  },
  {
    "id": 26876,
    "name": "Hoboken Roodenbekehoek fietsenrek ",
    "latitude": "51.1784775",
    "longitude": "4.3486735",
    "thumbnail_url": ""
  },
  {
    "id": 38388,
    "name": "Pyramide",
    "latitude": "51.0977666",
    "longitude": "4.5013181",
    "thumbnail_url": ""
  },
  {
    "id": 28127,
    "name": "Antwerp Haven De Club",
    "latitude": "51.2672914",
    "longitude": "4.3768069",
    "thumbnail_url": ""
  },
  {
    "id": 23329,
    "name": "Deurne Turnhoutsebaan",
    "latitude": "51.2204786",
    "longitude": "4.4593146",
    "thumbnail_url": ""
  },
  {
    "id": 30666,
    "name": "Temse Markt - fietsrek",
    "latitude": "51.1240848",
    "longitude": "4.2133345",
    "thumbnail_url": ""
  },
  {
    "id": 28126,
    "name": "Antwerp Haven Atlantic House 4E",
    "latitude": "51.2643624",
    "longitude": "4.4003977",
    "thumbnail_url": ""
  },
  {
    "id": 31722,
    "name": "Kapellen Antwerpsesteenweg Muziekacademie",
    "latitude": "51.3082205",
    "longitude": "4.4324658",
    "thumbnail_url": ""
  },
  {
    "id": 33812,
    "name": "Ottis",
    "latitude": "51.140405",
    "longitude": "4.3377717",
    "thumbnail_url": ""
  },
  {
    "id": 28580,
    "name": "Lokeren Heiendekerk 4E",
    "latitude": "51.0859125",
    "longitude": "3.9584219",
    "thumbnail_url": ""
  },
  {
    "id": 32037,
    "name": "Tijdelijke Hub Kalmthout Handelaar - fietsrek",
    "latitude": "51.4095875",
    "longitude": "4.4969844",
    "thumbnail_url": ""
  },
  {
    "id": 27753,
    "name": "Borgerhout Vincotteplein",
    "latitude": "51.2162399",
    "longitude": "4.4382657",
    "thumbnail_url": ""
  },
  {
    "id": 30593,
    "name": "Rumst Drie Rivieren - fietsrek",
    "latitude": "51.0743515",
    "longitude": "4.4214752",
    "thumbnail_url": ""
  },
  {
    "id": 31804,
    "name": "Dani",
    "latitude": "51.034666",
    "longitude": "4.35658",
    "thumbnail_url": ""
  },
  {
    "id": 23876,
    "name": "Brasschaat Vriesdonk Donksestnweg 4E4P- rek",
    "latitude": "51.2797448",
    "longitude": "4.4533395",
    "thumbnail_url": ""
  },
  {
    "id": 23434,
    "name": "Ekeren Sint-Mariabrug Kerk 5P",
    "latitude": "51.293512",
    "longitude": "4.4376612",
    "thumbnail_url": ""
  },
  {
    "id": 29333,
    "name": "Willebroek Halte Populierenlaan 2E2P",
    "latitude": "51.0512625",
    "longitude": "4.3472656",
    "thumbnail_url": ""
  },
  {
    "id": 29730,
    "name": "Melsele Halte N70 Burggravenstraat - voetpad",
    "latitude": "51.2205875",
    "longitude": "4.2940781",
    "thumbnail_url": ""
  },
  {
    "id": 37549,
    "name": "Jorys",
    "latitude": "51.176518",
    "longitude": "4.582275",
    "thumbnail_url": ""
  },
  {
    "id": 36164,
    "name": "Kalia",
    "latitude": "51.02837",
    "longitude": "4.477838",
    "thumbnail_url": ""
  },
  {
    "id": 23512,
    "name": "Zandhoven Dorp",
    "latitude": "51.2135236",
    "longitude": "4.6567335",
    "thumbnail_url": ""
  },
  {
    "id": 23361,
    "name": "Beveren NMBS Melsele - fietsrek",
    "latitude": "51.2108",
    "longitude": "4.2875",
    "thumbnail_url": ""
  },
  {
    "id": 23436,
    "name": "Ekeren Vic Heymanstraat 4P",
    "latitude": "51.2839862",
    "longitude": "4.4194072",
    "thumbnail_url": ""
  },
  {
    "id": 23377,
    "name": "Borsbeek Periscoop",
    "latitude": "51.196645",
    "longitude": "4.4862492",
    "thumbnail_url": ""
  },
  {
    "id": 32186,
    "name": "Jennifer",
    "latitude": "51.0755521",
    "longitude": "4.3337657",
    "thumbnail_url": ""
  },
  {
    "id": 38090,
    "name": "Oubayda",
    "latitude": "51.2625756",
    "longitude": "4.4105773",
    "thumbnail_url": ""
  },
  {
    "id": 27040,
    "name": "Hoboken Krugerstraat fietsenrek ",
    "latitude": "51.1862416",
    "longitude": "4.3653937",
    "thumbnail_url": ""
  },
  {
    "id": 23391,
    "name": "Brecht Sint-Lenaarts Kerk",
    "latitude": "51.3471084",
    "longitude": "4.6793017",
    "thumbnail_url": ""
  },
  {
    "id": 29315,
    "name": "Kapelle-op-den-Bos Station 3E3P",
    "latitude": "51.0106665",
    "longitude": "4.3593631",
    "thumbnail_url": ""
  },
  {
    "id": 23287,
    "name": "Antwerp Dageraadplaats",
    "latitude": "51.2070075",
    "longitude": "4.4305885",
    "thumbnail_url": ""
  },
  {
    "id": 26801,
    "name": "Antwerp Scheldepark",
    "latitude": "51.2110647",
    "longitude": "4.3884594",
    "thumbnail_url": ""
  },
  {
    "id": 29316,
    "name": "Beerzel Centrum 2E2P - fietsrek",
    "latitude": "51.0574375",
    "longitude": "4.6713906",
    "thumbnail_url": ""
  },
  {
    "id": 23492,
    "name": "Rumst N171xN177 Reet",
    "latitude": "51.1069095",
    "longitude": "4.3700794",
    "thumbnail_url": ""
  },
  {
    "id": 23463,
    "name": "Kontich NMBS Kontich-Lint fietsenrek ",
    "latitude": "51.1337277",
    "longitude": "4.4763791",
    "thumbnail_url": ""
  },
  {
    "id": 30606,
    "name": "Sint-Niklaas Vitaz Moerland",
    "latitude": "51.1606891",
    "longitude": "4.1503935",
    "thumbnail_url": ""
  },
  {
    "id": 24096,
    "name": "Zoersel Dorp - fietsrek",
    "latitude": "51.2694613",
    "longitude": "4.7133071",
    "thumbnail_url": ""
  },
  {
    "id": 23330,
    "name": "Deurne Luchthaven",
    "latitude": "51.1897694",
    "longitude": "4.4492644",
    "thumbnail_url": ""
  },
  {
    "id": 31122,
    "name": "Hoboken bushalte Adolf Greinerstr",
    "latitude": "51.1687594",
    "longitude": "4.3354284",
    "thumbnail_url": ""
  },
  {
    "id": 29630,
    "name": "Mechelen Heike - fietsrek",
    "latitude": "51.0094375",
    "longitude": "4.4243594",
    "thumbnail_url": ""
  },
  {
    "id": 23350,
    "name": "Wilrijk Krijgslaan fietsenrek",
    "latitude": "51.1631397",
    "longitude": "4.3984358",
    "thumbnail_url": ""
  },
  {
    "id": 28176,
    "name": "Ekeren Mol 2P",
    "latitude": "51.2767185",
    "longitude": "4.4430752",
    "thumbnail_url": ""
  },
  {
    "id": 29326,
    "name": "S-K-W Clemenceaustraat 2E2P - fietsrek",
    "latitude": "51.0602875",
    "longitude": "4.4850156",
    "thumbnail_url": ""
  },
  {
    "id": 42556,
    "name": "Uwe",
    "latitude": "51.346785",
    "longitude": "4.733273",
    "thumbnail_url": ""
  },
  {
    "id": 30855,
    "name": "Mechelen Mercierplein - fietsrek",
    "latitude": "51.0212995",
    "longitude": "4.4823947",
    "thumbnail_url": ""
  },
  {
    "id": 33401,
    "name": "Raphael",
    "latitude": "51.208656",
    "longitude": "4.401618",
    "thumbnail_url": ""
  },
  {
    "id": 29612,
    "name": "Mechelen Brusselpoort 3E4P",
    "latitude": "51.0209994",
    "longitude": "4.4752479",
    "thumbnail_url": ""
  },
  {
    "id": 24112,
    "name": "Stabroek Dorp",
    "latitude": "51.3322509",
    "longitude": "4.3650623",
    "thumbnail_url": ""
  },
  {
    "id": 28512,
    "name": "Beveren Van der Valk Hotel",
    "latitude": "51.1989009",
    "longitude": "4.2244517",
    "thumbnail_url": ""
  },
  {
    "id": 26929,
    "name": "Antwerp Lamoriniere",
    "latitude": "51.2038991",
    "longitude": "4.4207887",
    "thumbnail_url": ""
  },
  {
    "id": 27024,
    "name": "Merksem Kwadeveldenplein",
    "latitude": "51.2585518",
    "longitude": "4.4418468",
    "thumbnail_url": ""
  },
  {
    "id": 26966,
    "name": "Antwerp Limaplein",
    "latitude": "51.2344477",
    "longitude": "4.4035063",
    "thumbnail_url": ""
  },
  {
    "id": 33324,
    "name": "Marieke",
    "latitude": "51.0995419",
    "longitude": "4.234181",
    "thumbnail_url": ""
  },
  {
    "id": 24317,
    "name": "Zwijndrecht Dorp - fietsrek",
    "latitude": "51.2191161",
    "longitude": "4.3256017",
    "thumbnail_url": ""
  },
  {
    "id": 27168,
    "name": "Antwerp Dam",
    "latitude": "51.2331557",
    "longitude": "4.430836",
    "thumbnail_url": ""
  },
  {
    "id": 27537,
    "name": "Antwerp Charlottalei",
    "latitude": "51.2095657",
    "longitude": "4.418479",
    "thumbnail_url": ""
  },
  {
    "id": 28473,
    "name": "Schoten De Gym",
    "latitude": "51.2549919",
    "longitude": "4.5357993",
    "thumbnail_url": ""
  },
  {
    "id": 27105,
    "name": "Antwerp Meir",
    "latitude": "51.218214",
    "longitude": "4.4149687",
    "thumbnail_url": ""
  },
  {
    "id": 23441,
    "name": "Ekeren Zwembad 4E5P",
    "latitude": "51.279251",
    "longitude": "4.4134873",
    "thumbnail_url": ""
  },
  {
    "id": 31086,
    "name": "Sigrid",
    "latitude": "51.20219",
    "longitude": "4.349968",
    "thumbnail_url": ""
  },
  {
    "id": 32813,
    "name": "Angele",
    "latitude": "51.07216",
    "longitude": "4.286958",
    "thumbnail_url": ""
  },
  {
    "id": 28581,
    "name": "Lokeren Erksaardebrug 4E",
    "latitude": "51.1460379",
    "longitude": "3.9542366",
    "thumbnail_url": ""
  },
  {
    "id": 23292,
    "name": "Antwerp Lange Lozana",
    "latitude": "51.2016586",
    "longitude": "4.4061123",
    "thumbnail_url": ""
  },
  {
    "id": 30602,
    "name": "Nieuwkerken Sportcentrum De Meesterstraat",
    "latitude": "51.185162",
    "longitude": "4.1744641",
    "thumbnail_url": ""
  },
  {
    "id": 38349,
    "name": "Korentin",
    "latitude": "51.330351",
    "longitude": "4.410738",
    "thumbnail_url": ""
  },
  {
    "id": 36285,
    "name": "Mercutio",
    "latitude": "51.1276065",
    "longitude": "4.4446799",
    "thumbnail_url": ""
  },
  {
    "id": 24075,
    "name": "Hove station NMBS fietsenrek beneden ",
    "latitude": "51.1540266",
    "longitude": "4.4644286",
    "thumbnail_url": ""
  },
  {
    "id": 29643,
    "name": "Mechelen Sint-Jan-Berchmanskerk - fietsrek",
    "latitude": "51.0189375",
    "longitude": "4.4728281",
    "thumbnail_url": ""
  },
  {
    "id": 27255,
    "name": "Luchtbal Bowling",
    "latitude": "51.2499753",
    "longitude": "4.4207673",
    "thumbnail_url": ""
  },
  {
    "id": 29625,
    "name": "Mechelen Dageraadstraat 2E2P - fietsrek",
    "latitude": "51.0270125",
    "longitude": "4.4682031",
    "thumbnail_url": ""
  },
  {
    "id": 28186,
    "name": "Zoersel Heideweg - fietsrek",
    "latitude": "51.2428573",
    "longitude": "4.6326112",
    "thumbnail_url": ""
  },
  {
    "id": 26911,
    "name": "Antwerp Steenhouwersvest",
    "latitude": "51.2180676",
    "longitude": "4.3980081",
    "thumbnail_url": ""
  },
  {
    "id": 37559,
    "name": "Louan",
    "latitude": "51.194801",
    "longitude": "4.48026",
    "thumbnail_url": ""
  },
  {
    "id": 30694,
    "name": "Alfred",
    "latitude": "51.1762388",
    "longitude": "4.4275969",
    "thumbnail_url": ""
  },
  {
    "id": 26749,
    "name": "Antwerp AP Hogeschool",
    "latitude": "51.2298784",
    "longitude": "4.4144078",
    "thumbnail_url": ""
  },
  {
    "id": 26912,
    "name": "Antwerp Wasbar",
    "latitude": "51.212147",
    "longitude": "4.3940243",
    "thumbnail_url": ""
  },
  {
    "id": 33147,
    "name": "Amaury",
    "latitude": "51.3168358",
    "longitude": "4.5066989",
    "thumbnail_url": ""
  },
  {
    "id": 27752,
    "name": "Borgerhout Zillebeke",
    "latitude": "51.1944102",
    "longitude": "4.4435842",
    "thumbnail_url": ""
  },
  {
    "id": 36330,
    "name": "Jeffry",
    "latitude": "51.218038",
    "longitude": "4.396618",
    "thumbnail_url": ""
  },
  {
    "id": 30852,
    "name": "Mechelen Korenmarkt - fietsrek",
    "latitude": "51.0252674",
    "longitude": "4.4763847",
    "thumbnail_url": ""
  },
  {
    "id": 26913,
    "name": "Antwerp Pulcinella",
    "latitude": "51.2154751",
    "longitude": "4.4006353",
    "thumbnail_url": ""
  },
  {
    "id": 27476,
    "name": "Wuustwezel Braken - fietsrek",
    "latitude": "51.4087254",
    "longitude": "4.6120718",
    "thumbnail_url": ""
  },
  {
    "id": 28475,
    "name": "Schoten Kasteel",
    "latitude": "51.2457114",
    "longitude": "4.4899355",
    "thumbnail_url": ""
  },
  {
    "id": 30864,
    "name": "Mechelen Plaisancebrug - fietsrek",
    "latitude": "51.020699",
    "longitude": "4.4721658",
    "thumbnail_url": ""
  },
  {
    "id": 40286,
    "name": "Kassem",
    "latitude": "51.1774181",
    "longitude": "4.4453937",
    "thumbnail_url": ""
  },
  {
    "id": 26856,
    "name": "Antwerp Pothoek",
    "latitude": "51.2255148",
    "longitude": "4.4364113",
    "thumbnail_url": ""
  },
  {
    "id": 23482,
    "name": "Niel NMBS dropzone",
    "latitude": "51.11131",
    "longitude": "4.33899",
    "thumbnail_url": ""
  },
  {
    "id": 28598,
    "name": "Stekene Klein Sinaai 2E4P",
    "latitude": "51.181377",
    "longitude": "3.9897603",
    "thumbnail_url": ""
  },
  {
    "id": 23289,
    "name": "Antwerp Harmonie",
    "latitude": "51.2010734",
    "longitude": "4.4130995",
    "thumbnail_url": ""
  },
  {
    "id": 23457,
    "name": "Kapellen Dorp",
    "latitude": "51.3141424",
    "longitude": "4.4288206",
    "thumbnail_url": ""
  },
  {
    "id": 39033,
    "name": "Aabenraa",
    "latitude": "51.2251699",
    "longitude": "4.4306196",
    "thumbnail_url": ""
  },
  {
    "id": 26826,
    "name": "Borgerhout Windsor",
    "latitude": "51.2089713",
    "longitude": "4.4469875",
    "thumbnail_url": ""
  },
  {
    "id": 32518,
    "name": "Billie",
    "latitude": "51.289956",
    "longitude": "4.497725",
    "thumbnail_url": ""
  },
  {
    "id": 32050,
    "name": "Caravaggio",
    "latitude": "51.062048",
    "longitude": "4.555611",
    "thumbnail_url": ""
  },
  {
    "id": 36196,
    "name": "Phoenix",
    "latitude": "51.207801",
    "longitude": "4.389423",
    "thumbnail_url": ""
  },
  {
    "id": 29301,
    "name": "Bonheiden Sint-Ludwina Kerk 4E",
    "latitude": "51.0358291",
    "longitude": "4.5365403",
    "thumbnail_url": ""
  },
  {
    "id": 23409,
    "name": "Ekeren Academie 4P",
    "latitude": "51.2846923",
    "longitude": "4.4265944",
    "thumbnail_url": ""
  },
  {
    "id": 29633,
    "name": "Mechelen Planckendael - fietsrek",
    "latitude": "51.0029972",
    "longitude": "4.5181783",
    "thumbnail_url": ""
  },
  {
    "id": 23299,
    "name": "Antwerp Mediaplein",
    "latitude": "51.2130411",
    "longitude": "4.42113",
    "thumbnail_url": ""
  },
  {
    "id": 23309,
    "name": "Antwerp Premetro Meir",
    "latitude": "51.2180643",
    "longitude": "4.4069485",
    "thumbnail_url": ""
  },
  {
    "id": 28748,
    "name": "Zele Sporthal De Klodde",
    "latitude": "51.0679375",
    "longitude": "4.0447963",
    "thumbnail_url": ""
  },
  {
    "id": 28135,
    "name": "Essen Horendonk - fietsrek",
    "latitude": "51.4672688",
    "longitude": "4.4938401",
    "thumbnail_url": ""
  },
  {
    "id": 24067,
    "name": "Aartselaar N177 x Kontichsesteenweg",
    "latitude": "51.1422947",
    "longitude": "4.3786785",
    "thumbnail_url": ""
  },
  {
    "id": 30866,
    "name": "Mechelen UGC ",
    "latitude": "51.0263945",
    "longitude": "4.4989539",
    "thumbnail_url": ""
  },
  {
    "id": 34995,
    "name": "Carine",
    "latitude": "51.2718258",
    "longitude": "4.2865428",
    "thumbnail_url": ""
  },
  {
    "id": 23469,
    "name": "Malle Industrie N12",
    "latitude": "51.2988293",
    "longitude": "4.7111355",
    "thumbnail_url": ""
  },
  {
    "id": 26348,
    "name": "Antwerp Tropisch Instituut ",
    "latitude": "51.2121962",
    "longitude": "4.3973301",
    "thumbnail_url": ""
  },
  {
    "id": 33465,
    "name": "Maximiliano",
    "latitude": "51.2457951",
    "longitude": "4.4391062",
    "thumbnail_url": ""
  },
  {
    "id": 26870,
    "name": "Hoboken Beerschot dropzone ",
    "latitude": "51.1837456",
    "longitude": "4.3824985",
    "thumbnail_url": ""
  },
  {
    "id": 27054,
    "name": "Antwerp Orteleuskaai",
    "latitude": "51.2250522",
    "longitude": "4.3997002",
    "thumbnail_url": ""
  },
  {
    "id": 29329,
    "name": "S-K-W Markt 2E2P - fietsrek",
    "latitude": "51.0702125",
    "longitude": "4.5316719",
    "thumbnail_url": ""
  },
  {
    "id": 26975,
    "name": "Wilrijk Planetariumlaan fietsenrek ",
    "latitude": "51.1554118",
    "longitude": "4.3897532",
    "thumbnail_url": ""
  },
  {
    "id": 23395,
    "name": "Brecht Overbroek-Sternhoven ",
    "latitude": "51.3425324",
    "longitude": "4.6050527",
    "thumbnail_url": ""
  },
  {
    "id": 31836,
    "name": "Franka",
    "latitude": "51.2676772",
    "longitude": "4.375828",
    "thumbnail_url": ""
  },
  {
    "id": 27465,
    "name": "Hoboken Plein Publiek fietsenrek ",
    "latitude": "51.1955141",
    "longitude": "4.3632423",
    "thumbnail_url": ""
  },
  {
    "id": 23442,
    "name": "Hemiksem bushalte Arendweg - fietsenrek ",
    "latitude": "51.1534371",
    "longitude": "4.3419702",
    "thumbnail_url": ""
  },
  {
    "id": 23295,
    "name": "Luchtbal NMBS Noorderdokken",
    "latitude": "51.2615778",
    "longitude": "4.4270263",
    "thumbnail_url": ""
  },
  {
    "id": 39691,
    "name": "Kamron",
    "latitude": "51.204415",
    "longitude": "4.41141",
    "thumbnail_url": ""
  },
  {
    "id": 33348,
    "name": "Kruisem",
    "latitude": "51.139021",
    "longitude": "4.155873",
    "thumbnail_url": ""
  },
  {
    "id": 26926,
    "name": "Antwerp Mechelsesteen",
    "latitude": "51.2039879",
    "longitude": "4.4114429",
    "thumbnail_url": ""
  },
  {
    "id": 31846,
    "name": "Sint-Gillis-Waas Kronenhoekstraat",
    "latitude": "51.2200875",
    "longitude": "4.1240156",
    "thumbnail_url": ""
  },
  {
    "id": 29732,
    "name": "Beveren Sportzone Hockey Club",
    "latitude": "51.2579875",
    "longitude": "4.1981094",
    "thumbnail_url": ""
  },
  {
    "id": 33739,
    "name": "Gabian",
    "latitude": "51.0879587",
    "longitude": "4.2604232",
    "thumbnail_url": ""
  },
  {
    "id": 29649,
    "name": "Mechelen Campus De Ham - fietsrek",
    "latitude": "51.0226125",
    "longitude": "4.4875781",
    "thumbnail_url": ""
  },
  {
    "id": 23300,
    "name": "Luchtbal Kinepolis",
    "latitude": "51.2450429",
    "longitude": "4.4195541",
    "thumbnail_url": ""
  },
  {
    "id": 23462,
    "name": "Kontich Waarloos",
    "latitude": "51.1068972",
    "longitude": "4.4520881",
    "thumbnail_url": ""
  },
  {
    "id": 31803,
    "name": "Dana",
    "latitude": "51.280518",
    "longitude": "4.446455",
    "thumbnail_url": ""
  },
  {
    "id": 24346,
    "name": "Sint-Niklaas Station Belsele NMBS 4E",
    "latitude": "51.1507819",
    "longitude": "4.0877571",
    "thumbnail_url": ""
  },
  {
    "id": 23435,
    "name": "Ekeren Tiendenstraat 4P",
    "latitude": "51.283237",
    "longitude": "4.4107375",
    "thumbnail_url": ""
  },
  {
    "id": 40080,
    "name": "Duvre",
    "latitude": "51.16432",
    "longitude": "4.44442",
    "thumbnail_url": ""
  },
  {
    "id": 28599,
    "name": "Temse Steendorp Sterstraat 2E4P",
    "latitude": "51.1300575",
    "longitude": "4.2684847",
    "thumbnail_url": ""
  },
  {
    "id": 29729,
    "name": "Melsele Sportzone 't Wit Zand - tegen gevel",
    "latitude": "51.2256875",
    "longitude": "4.2829531",
    "thumbnail_url": ""
  },
  {
    "id": 28603,
    "name": "Temse Centraal TTS",
    "latitude": "51.1408414",
    "longitude": "4.1930233",
    "thumbnail_url": ""
  },
  {
    "id": 29618,
    "name": "Mechelen Huyghebaert Site 2E2P",
    "latitude": "51.0100518",
    "longitude": "4.4662126",
    "thumbnail_url": ""
  },
  {
    "id": 26381,
    "name": "Deurne Park Groot Schijn",
    "latitude": "51.2169411",
    "longitude": "4.4822897",
    "thumbnail_url": ""
  },
  {
    "id": 27048,
    "name": "Deurne Arena",
    "latitude": "51.2065339",
    "longitude": "4.4586129",
    "thumbnail_url": ""
  },
  {
    "id": 26881,
    "name": "Antwerp Butchers",
    "latitude": "51.2061742",
    "longitude": "4.3926534",
    "thumbnail_url": ""
  },
  {
    "id": 29998,
    "name": "Wuustwezel Lidl - fietsrek",
    "latitude": "51.3935375",
    "longitude": "4.5958906",
    "thumbnail_url": ""
  },
  {
    "id": 32291,
    "name": "Hulst Emmadorp",
    "latitude": "51.327991",
    "longitude": "4.1494205",
    "thumbnail_url": ""
  },
  {
    "id": 30706,
    "name": "Durmen Kerk - fietsrek",
    "latitude": "51.0857676",
    "longitude": "4.0561882",
    "thumbnail_url": ""
  },
  {
    "id": 24347,
    "name": "Sint-Niklaas Nieuwkerken NMBS 4E2P",
    "latitude": "51.1852432",
    "longitude": "4.1843825",
    "thumbnail_url": ""
  },
  {
    "id": 27825,
    "name": "Beveren Vijfstraten - fietsrek",
    "latitude": "51.2059715",
    "longitude": "4.2411583",
    "thumbnail_url": ""
  },
  {
    "id": 23485,
    "name": "Niel Wetenschapspark Bpost",
    "latitude": "51.1077535",
    "longitude": "4.3582207",
    "thumbnail_url": ""
  },
  {
    "id": 32559,
    "name": "Schoten Eethuisstraat - fietsrek",
    "latitude": "51.2496296",
    "longitude": "4.4652814",
    "thumbnail_url": ""
  },
  {
    "id": 29620,
    "name": "Mechelen Cultuurcentrum 4E4P - fietsrek",
    "latitude": "51.0289919",
    "longitude": "4.477488",
    "thumbnail_url": ""
  },
  {
    "id": 26587,
    "name": "Antwerp Zuid NMBS naast Blue bike stalling ",
    "latitude": "51.1977178",
    "longitude": "4.3900855",
    "thumbnail_url": ""
  },
  {
    "id": 24102,
    "name": "Zandvliet Dorp / Botermarkt 2E4P",
    "latitude": "51.3598625",
    "longitude": "4.3086909",
    "thumbnail_url": ""
  },
  {
    "id": 29331,
    "name": "Tisselt Halte Kotterlaan 2E2P",
    "latitude": "51.035348",
    "longitude": "4.3555425",
    "thumbnail_url": ""
  },
  {
    "id": 40066,
    "name": "Dula",
    "latitude": "51.105593",
    "longitude": "4.296283",
    "thumbnail_url": ""
  },
  {
    "id": 23460,
    "name": "Kontich Gemeenteplein fietsenstalling ",
    "latitude": "51.1352734",
    "longitude": "4.4459267",
    "thumbnail_url": ""
  },
  {
    "id": 23495,
    "name": "Rumst Stelplaats",
    "latitude": "51.079313",
    "longitude": "4.4224802",
    "thumbnail_url": ""
  },
  {
    "id": 28282,
    "name": "Antwerp De Pijl",
    "latitude": "51.2221701",
    "longitude": "4.4182621",
    "thumbnail_url": ""
  },
  {
    "id": 29608,
    "name": "Mechelen Veemarkt 5E5P - fietsrek",
    "latitude": "51.0292625",
    "longitude": "4.4840156",
    "thumbnail_url": ""
  },
  {
    "id": 26944,
    "name": "Antwerp Blauwtoren",
    "latitude": "51.2128154",
    "longitude": "4.4094349",
    "thumbnail_url": ""
  },
  {
    "id": 28604,
    "name": "Waasmunster Ruiter 4E",
    "latitude": "51.1159488",
    "longitude": "4.0424916",
    "thumbnail_url": ""
  },
  {
    "id": 29300,
    "name": "Bonheiden Parking De Wissel 3E1P",
    "latitude": "51.0214196",
    "longitude": "4.552458",
    "thumbnail_url": ""
  },
  {
    "id": 29341,
    "name": "Tisselt Voetbal Blaasveldstraat",
    "latitude": "51.0358625",
    "longitude": "4.3617031",
    "thumbnail_url": ""
  },
  {
    "id": 27028,
    "name": "Merksem Lambrechts",
    "latitude": "51.2480901",
    "longitude": "4.4321113",
    "thumbnail_url": ""
  },
  {
    "id": 29706,
    "name": "Zandhoven Bushalte Heikant",
    "latitude": "51.2243125",
    "longitude": "4.6742969",
    "thumbnail_url": ""
  },
  {
    "id": 29731,
    "name": "Beveren Kallo Sportzone",
    "latitude": "51.2540125",
    "longitude": "4.2869219",
    "thumbnail_url": ""
  },
  {
    "id": 34944,
    "name": "Stijn",
    "latitude": "51.2972816",
    "longitude": "4.536265",
    "thumbnail_url": ""
  },
  {
    "id": 24351,
    "name": "Stekene Dorp 3E2P",
    "latitude": "51.2064267",
    "longitude": "4.0415209",
    "thumbnail_url": ""
  },
  {
    "id": 24328,
    "name": "Essen Heuvelplein - fietsrek",
    "latitude": "51.4651672",
    "longitude": "4.4718705",
    "thumbnail_url": ""
  },
  {
    "id": 27049,
    "name": "Antwerp Lange Koepoort",
    "latitude": "51.2226417",
    "longitude": "4.4024052",
    "thumbnail_url": ""
  },
  {
    "id": 27023,
    "name": "Merksem Jan Palfijn",
    "latitude": "51.257449",
    "longitude": "4.4490539",
    "thumbnail_url": ""
  },
  {
    "id": 27697,
    "name": "Linkeroever Maritieme Overheid ",
    "latitude": "51.2258133",
    "longitude": "4.3907949",
    "thumbnail_url": ""
  },