[
  {
    "id": 31587,
    "name": "Lotsenhaus (Opt. Station)",
    "latitude": "54.4021434",
    "longitude": "10.2178414",
    "thumbnail_url": ""
  },
  {
    "id": 24407,
    "name": "Rathaus Altenholz",
    "latitude": "54.386203",
    "longitude": "10.136875",
    "thumbnail_url": ""
  },
  {
    "id": 24394,
    "name": "KiTa Fusssteigkoppel",
    "latitude": "54.342126",
    "longitude": "10.090524",
    "thumbnail_url": ""
  },
  {
    "id": 32553,
    "name": "Schulzentrum Kronshagen",
    "latitude": "54.3404697",
    "longitude": "10.0810497",
    "thumbnail_url": ""
  },
  {
    "id": 31501,
    "name": "Katzheide",
    "latitude": "54.3100193",
    "longitude": "10.1561757",
    "thumbnail_url": ""
  },
  {
    "id": 32302,
    "name": "Pop-up: Brekendorf: Kammberg",
    "latitude": "54.421205",
    "longitude": "9.6419802",
    "thumbnail_url": ""
  },
  {
    "id": 32303,
    "name": "Pop-up: Brekendorf: Wanderparkplatz",
    "latitude": "54.423647",
    "longitude": "9.6508862",
    "thumbnail_url": ""
  },
  {
    "id": 26209,
    "name": "Kanalfähre Holtenau",
    "latitude": "54.3687939",
    "longitude": "10.1339529",
    "thumbnail_url": ""
  },
  {
    "id": 31381,
    "name": "DEKRA Zulassungsstelle",
    "latitude": "54.5310498",
    "longitude": "9.5727218",
    "thumbnail_url": ""
  },
  {
    "id": 30022,
    "name": "Rathaus Schwentinental",
    "latitude": "54.2842995",
    "longitude": "10.2405657",
    "thumbnail_url": ""
  },
  {
    "id": 29982,
    "name": "Eiderbad (bis 15.10)",
    "latitude": "54.2858815",
    "longitude": "10.072252",
    "thumbnail_url": ""
  },
  {
    "id": 24390,
    "name": "CITTI-PARK",
    "latitude": "54.311667",
    "longitude": "10.099722",
    "thumbnail_url": ""
  },
  {
    "id": 24447,
    "name": "Bahnhalt Ellerbek",
    "latitude": "54.313927",
    "longitude": "10.169784",
    "thumbnail_url": ""
  },
  {
    "id": 24414,
    "name": "Kuhlacker",
    "latitude": "54.285725",
    "longitude": "10.143565",
    "thumbnail_url": ""
  },
  {
    "id": 24442,
    "name": "Rathaus Heikendorf",
    "latitude": "54.370727",
    "longitude": "10.205576",
    "thumbnail_url": ""
  },
  {
    "id": 31353,
    "name": "Falkensteiner Strand (Apr-Okt)",
    "latitude": "54.401024",
    "longitude": "10.1904627",
    "thumbnail_url": ""
  },
  {
    "id": 31090,
    "name": "Pop-Up Heimspiele Holstein Stadion",
    "latitude": "54.3482587",
    "longitude": "10.1251452",
    "thumbnail_url": ""
  },
  {
    "id": 29964,
    "name": "Langer Rehm P+R",
    "latitude": "54.3391019",
    "longitude": "10.1901603",
    "thumbnail_url": ""
  },
  {
    "id": 24468,
    "name": "Catharinenberg",
    "latitude": "54.2644031",
    "longitude": "10.0656004",
    "thumbnail_url": ""
  },
  {
    "id": 29946,
    "name": "Wörthstrasse",
    "latitude": "54.3237645",
    "longitude": "10.1186942",
    "thumbnail_url": ""
  },
  {
    "id": 29965,
    "name": "B502 Schönkirchener Strasse ",
    "latitude": "54.3296577",
    "longitude": "10.1961943",
    "thumbnail_url": ""
  },
  {
    "id": 24406,
    "name": "Bahnhof Oppendorf",
    "latitude": "54.326055",
    "longitude": "10.207911",
    "thumbnail_url": ""
  },
  {
    "id": 24400,
    "name": "Anleger Friedrichsort",
    "latitude": "54.390373",
    "longitude": "10.177173",
    "thumbnail_url": ""
  },
  {
    "id": 27183,
    "name": "Schilksee Olympiazentrum",
    "latitude": "54.4254534",
    "longitude": "10.1682239",
    "thumbnail_url": ""
  },
  {
    "id": 24388,
    "name": "Schönkirchen Gemeindehaus",
    "latitude": "54.339056",
    "longitude": "10.223028",
    "thumbnail_url": ""
  },
  {
    "id": 24473,
    "name": "Aalborgring",
    "latitude": "54.316404",
    "longitude": "10.048583",
    "thumbnail_url": ""
  },
  {
    "id": 32441,
    "name": "Pop Up Ocean Race (bis 10.08.)",
    "latitude": "54.3311459",
    "longitude": "10.149154",
    "thumbnail_url": ""
  },
  {
    "id": 31584,
    "name": "Gemeindeverwaltung Laboe (Opt. Station)",
    "latitude": "54.4054218",
    "longitude": "10.220143",
    "thumbnail_url": ""
  },
  {
    "id": 24386,
    "name": "Fähranleger Möltenort",
    "latitude": "54.3772907",
    "longitude": "10.1958992",
    "thumbnail_url": ""
  },
  {
    "id": 26708,
    "name": "Schule Mielkendorf",
    "latitude": "54.2844554",
    "longitude": "10.0375259",
    "thumbnail_url": ""
  },
  {
    "id": 24448,
    "name": "Bahnhof Russee",
    "latitude": "54.309867",
    "longitude": "10.06956",
    "thumbnail_url": ""
  },
  {
    "id": 30027,
    "name": "REWE Klausdorf",
    "latitude": "54.3121896",
    "longitude": "10.2004707",
    "thumbnail_url": ""
  },
  {
    "id": 24409,
    "name": "Braunstrasse",
    "latitude": "54.280427",
    "longitude": "10.1456",
    "thumbnail_url": ""
  },
  {
    "id": 30147,
    "name": "Bushaltestelle Eiderbrücke",
    "latitude": "54.2897063",
    "longitude": "10.0900422",
    "thumbnail_url": ""
  },
  {
    "id": 29663,
    "name": "GTZ Raisdorf",
    "latitude": "54.2914887",
    "longitude": "10.2264654",
    "thumbnail_url": ""
  },
  {
    "id": 24453,
    "name": "Kronshagen Bahnhof",
    "latitude": "54.331388",
    "longitude": "10.083113",
    "thumbnail_url": ""
  },
  {
    "id": 30025,
    "name": "Stadtwerke / Bürgerhaus Klausdorf",
    "latitude": "54.3033719",
    "longitude": "10.2156178",
    "thumbnail_url": ""
  },
  {
    "id": 24441,
    "name": "Meimersdorf Kontor",
    "latitude": "54.283892",
    "longitude": "10.131535",
    "thumbnail_url": ""
  },
  {
    "id": 29112,
    "name": "Felde Dorfplatz",
    "latitude": "54.3038568",
    "longitude": "9.93739",
    "thumbnail_url": ""
  },
  {
    "id": 24387,
    "name": "Mönkeberg Anleger",
    "latitude": "54.3514446",
    "longitude": "10.1784451",
    "thumbnail_url": ""
  },
  {
    "id": 24401,
    "name": "Dataport/FHVD",
    "latitude": "54.401894",
    "longitude": "10.129012",
    "thumbnail_url": ""
  },
  {
    "id": 30023,
    "name": "Freibad Raisdorf (April - Oktober)",
    "latitude": "54.2859985",
    "longitude": "10.2460814",
    "thumbnail_url": ""
  },
  {
    "id": 30024,
    "name": "Bahnhof Raisdorf",
    "latitude": "54.2811376",
    "longitude": "10.2430089",
    "thumbnail_url": ""
  },
  {
    "id": 30151,
    "name": "Eiche Dänischenhagen",
    "latitude": "54.4246632",
    "longitude": "10.1278724",
    "thumbnail_url": ""
  },
  {
    "id": 29049,
    "name": "Falkemedia",
    "latitude": "54.3393023",
    "longitude": "10.2152081",
    "thumbnail_url": ""
  },
  {
    "id": 24372,
    "name": "Bahnhof Suchsdorf",
    "latitude": "54.3498224",
    "longitude": "10.0909467",
    "thumbnail_url": ""
  },
  {
    "id": 24440,
    "name": "Förde Sparkasse Teplitzer Allee",
    "latitude": "54.2920407",
    "longitude": "10.1872627",
    "thumbnail_url": ""
  },
  {
    "id": 29109,
    "name": "Felde Bahnhof ",
    "latitude": "54.309801",
    "longitude": "9.9466436",
    "thumbnail_url": ""
  },
  {
    "id": 24416,
    "name": "Rungholtplatz",
    "latitude": "54.361297",
    "longitude": "10.076831",
    "thumbnail_url": ""
  },
  {
    "id": 30026,
    "name": "Ostseepark",
    "latitude": "54.2887936",
    "longitude": "10.2177163",
    "thumbnail_url": ""
  },
  {
    "id": 29200,
    "name": "REWE digital am Wissenschaftszentrum",
    "latitude": "54.341647",
    "longitude": "10.1222534",
    "thumbnail_url": ""
  },
  {
    "id": 30434,
    "name": "Felde Gemeindezentrum",
    "latitude": "54.2995516",
    "longitude": "9.9338166",
    "thumbnail_url": ""
  },
  {
    "id": 24403,
    "name": "Hafen Laboe",
    "latitude": "54.4033599",
    "longitude": "10.2196891",
    "thumbnail_url": ""
  },
  {
    "id": 30515,
    "name": "Alte Lübecker Chaussee",
    "latitude": "54.3045643",
    "longitude": "10.1254699",
    "thumbnail_url": ""
  },
  {
    "id": 24454,
    "name": "Freilichtmuseum Molfsee",
    "latitude": "54.274827",
    "longitude": "10.074943",
    "thumbnail_url": ""
  },
  {
    "id": 24476,
    "name": "Kurt-Schumacher-Platz",
    "latitude": "54.322339",
    "longitude": "10.0536245",
    "thumbnail_url": ""
  },
  {
    "id": 24474,
    "name": "Russeer Weg / Hofholzallee",
    "latitude": "54.317015",
    "longitude": "10.066768",
    "thumbnail_url": ""
  },
  {
    "id": 24377,
    "name": "Kronshagen Rathaus",
    "latitude": "54.3327038",
    "longitude": "10.0854972",
    "thumbnail_url": ""
  },
  {
    "id": 26805,
    "name": "Amt Eidertal",
    "latitude": "54.281617",
    "longitude": "10.0794572",
    "thumbnail_url": ""
  },
  {
    "id": 31586,
    "name": "Hafenplatz (Opt. Station)",
    "latitude": "54.4038794",
    "longitude": "10.2182377",
    "thumbnail_url": ""
  },
  {
    "id": 24404,
    "name": "Bullbrücke",
    "latitude": "54.3974944",
    "longitude": "10.2332235",
    "thumbnail_url": ""
  },
  {
    "id": 24449,
    "name": "Bebelplatz",
    "latitude": "54.294629",
    "longitude": "10.185079",
    "thumbnail_url": ""
  },
  {
    "id": 24450,
    "name": "Schulen am Langsee",
    "latitude": "54.307029",
    "longitude": "10.157109",
    "thumbnail_url": ""
  },
  {
    "id": 24410,
    "name": "Bunsenstrasse",
    "latitude": "54.27697",
    "longitude": "10.158649",
    "thumbnail_url": ""
  },
  {
    "id": 28264,
    "name": "Freudenholm",
    "latitude": "54.2168572",
    "longitude": "10.3126721",
    "thumbnail_url": ""
  },
  {
    "id": 31758,
    "name": "Helgolandstraße",
    "latitude": "54.303617",
    "longitude": "10.1121392",
    "thumbnail_url": ""
  },
  {
    "id": 29963,
    "name": "Langer Rehm (Rewe)",
    "latitude": "54.3366433",
    "longitude": "10.1897436",
    "thumbnail_url": ""
  },
  {
    "id": 24405,
    "name": "Marine-Ehrenmal",
    "latitude": "54.411667",
    "longitude": "10.228306",
    "thumbnail_url": ""
  },
  {
    "id": 24411,
    "name": "Grot Steenbusch",
    "latitude": "54.2832",
    "longitude": "10.130672",
    "thumbnail_url": ""
  },
  {
    "id": 24402,
    "name": "Stadtteilzentrum Pries",
    "latitude": "54.395459",
    "longitude": "10.173146",
    "thumbnail_url": ""
  }
]