[
  {
    "id": 35177,
    "name": "Bilk-Bahnhof/Düsseldorf Arcaden",
    "latitude": "51.208889",
    "longitude": "6.777306",
    "thumbnail_url": ""
  },
  {
    "id": 35337,
    "name": "Kö IX",
    "latitude": "51.219866",
    "longitude": "6.776728",
    "thumbnail_url": ""
  },
  {
    "id": 35304,
    "name": "Immermannstraße - Klosterstraße",
    "latitude": "51.225526",
    "longitude": "6.784841",
    "thumbnail_url": ""
  },
  {
    "id": 35394,
    "name": "Rheinufer III",
    "latitude": "51.240408",
    "longitude": "6.77114",
    "thumbnail_url": ""
  },
  {
    "id": 35375,
    "name": "Oststraße",
    "latitude": "51.221259",
    "longitude": "6.785663",
    "thumbnail_url": ""
  },
  {
    "id": 35269,
    "name": "GAP II",
    "latitude": "51.218164",
    "longitude": "6.779192",
    "thumbnail_url": ""
  },
  {
    "id": 35323,
    "name": "Karlstraße II",
    "latitude": "51.221293",
    "longitude": "6.79101",
    "thumbnail_url": ""
  },
  {
    "id": 35441,
    "name": "Uni Kliniken II",
    "latitude": "51.198347",
    "longitude": "6.784833",
    "thumbnail_url": ""
  },
  {
    "id": 35277,
    "name": "Grafenberger Allee",
    "latitude": "51.232758",
    "longitude": "6.812088",
    "thumbnail_url": ""
  },
  {
    "id": 35468,
    "name": "Werstener Dorfstraße II",
    "latitude": "51.193213",
    "longitude": "6.814013",
    "thumbnail_url": ""
  },
  {
    "id": 35339,
    "name": "Kö VII",
    "latitude": "51.221581",
    "longitude": "6.7782",
    "thumbnail_url": ""
  },
  {
    "id": 35381,
    "name": "Prinz-Georg-Straße - Stockkampstraße",
    "latitude": "51.236393",
    "longitude": "6.787137",
    "thumbnail_url": ""
  },
  {
    "id": 35461,
    "name": "Volksgarten S II",
    "latitude": "51.209559",
    "longitude": "6.793547",
    "thumbnail_url": ""
  },
  {
    "id": 35172,
    "name": "Ratinger Tor",
    "latitude": "51.229889",
    "longitude": "6.777694",
    "thumbnail_url": ""
  },
  {
    "id": 35180,
    "name": "P+R Südfriedhof",
    "latitude": "51.200694",
    "longitude": "6.755444",
    "thumbnail_url": ""
  },
  {
    "id": 35189,
    "name": "Ackerstraße",
    "latitude": "51.228354",
    "longitude": "6.802731",
    "thumbnail_url": ""
  },
  {
    "id": 35226,
    "name": "Charlottenstraße - Friedrich-Ebert-Straße",
    "latitude": "51.221504",
    "longitude": "6.788337",
    "thumbnail_url": ""
  },
  {
    "id": 35291,
    "name": "Hermannplatz",
    "latitude": "51.228697",
    "longitude": "6.808063",
    "thumbnail_url": ""
  },
  {
    "id": 35202,
    "name": "Auf der Hardt - LVR-Klinikum I",
    "latitude": "51.24004",
    "longitude": "6.844756",
    "thumbnail_url": ""
  },
  {
    "id": 35399,
    "name": "Ruby Hotel",
    "latitude": "51.222489",
    "longitude": "6.775634",
    "thumbnail_url": ""
  },
  {
    "id": 35227,
    "name": "Chlodwigstraße I",
    "latitude": "51.196126",
    "longitude": "6.783368",
    "thumbnail_url": ""
  },
  {
    "id": 35231,
    "name": "Corneliusstraße I",
    "latitude": "51.212361",
    "longitude": "6.783291",
    "thumbnail_url": ""
  },
  {
    "id": 35236,
    "name": "Dreiecksplatz",
    "latitude": "51.241705",
    "longitude": "6.85177",
    "thumbnail_url": ""
  },
  {
    "id": 35171,
    "name": "Tonhallenufer",
    "latitude": "51.231222",
    "longitude": "6.771333",
    "thumbnail_url": ""
  },
  {
    "id": 35278,
    "name": "Grafenberger Allee - Mendelssohnstraße",
    "latitude": "51.229978",
    "longitude": "6.799885",
    "thumbnail_url": ""
  },
  {
    "id": 35279,
    "name": "Grupellostraße",
    "latitude": "51.220474",
    "longitude": "6.787408",
    "thumbnail_url": ""
  },
  {
    "id": 35365,
    "name": "Mühlenstraße II",
    "latitude": "51.227299",
    "longitude": "6.773054",
    "thumbnail_url": ""
  },
  {
    "id": 35289,
    "name": "Hellerhof S-Bahnhof",
    "latitude": "51.13271",
    "longitude": "6.907907",
    "thumbnail_url": ""
  },
  {
    "id": 35193,
    "name": "Am Wehrhahn I",
    "latitude": "51.228101",
    "longitude": "6.789137",
    "thumbnail_url": ""
  },
  {
    "id": 35336,
    "name": "Kö III - Ausweichstation",
    "latitude": "51.225328",
    "longitude": "6.778419",
    "thumbnail_url": ""
  },
  {
    "id": 35340,
    "name": "Kö VIII",
    "latitude": "51.221366",
    "longitude": "6.779299",
    "thumbnail_url": ""
  },
  {
    "id": 35341,
    "name": "Kö X",
    "latitude": "51.219965",
    "longitude": "6.779269",
    "thumbnail_url": ""
  },
  {
    "id": 35401,
    "name": "Schadowstraße II",
    "latitude": "51.227288",
    "longitude": "6.786364",
    "thumbnail_url": ""
  },
  {
    "id": 35282,
    "name": "Gustav-Poensgen-Straße - Helmholtzstr.",
    "latitude": "51.216496",
    "longitude": "6.789832",
    "thumbnail_url": ""
  },
  {
    "id": 35380,
    "name": "Prinz-Georg-Straße - Ludwig-Wolker-Str.",
    "latitude": "51.238035",
    "longitude": "6.787132",
    "thumbnail_url": ""
  },
  {
    "id": 35383,
    "name": "Rath Mitte I",
    "latitude": "51.261116",
    "longitude": "6.809293",
    "thumbnail_url": ""
  },
  {
    "id": 35389,
    "name": "Rethelstraße - Herderstraße",
    "latitude": "51.234518",
    "longitude": "6.797633",
    "thumbnail_url": ""
  },
  {
    "id": 35290,
    "name": "Helmholtzstraße",
    "latitude": "51.214786",
    "longitude": "6.7876",
    "thumbnail_url": ""
  },
  {
    "id": 35395,
    "name": "Rheinufer IV",
    "latitude": "51.237511",
    "longitude": "6.772183",
    "thumbnail_url": ""
  },
  {
    "id": 35433,
    "name": "UKD I",
    "latitude": "51.195682",
    "longitude": "6.790699",
    "thumbnail_url": ""
  },
  {
    "id": 35447,
    "name": "Uni Mensa II",
    "latitude": "51.191838",
    "longitude": "6.793982",
    "thumbnail_url": ""
  },
  {
    "id": 35310,
    "name": "Immermannstraße V",
    "latitude": "51.22364",
    "longitude": "6.78792",
    "thumbnail_url": ""
  },
  {
    "id": 35456,
    "name": "Urdenbacher Allee",
    "latitude": "51.162177",
    "longitude": "6.874593",
    "thumbnail_url": ""
  },
  {
    "id": 35390,
    "name": "Reuterkaserne I",
    "latitude": "51.229045",
    "longitude": "6.771103",
    "thumbnail_url": ""
  },
  {
    "id": 35283,
    "name": "Hamm S I",
    "latitude": "51.210336",
    "longitude": "6.739125",
    "thumbnail_url": ""
  },
  {
    "id": 35284,
    "name": "Hammer Dorfstraße I",
    "latitude": "51.20994",
    "longitude": "6.741712",
    "thumbnail_url": ""
  },
  {
    "id": 35423,
    "name": "Stockumer Kirchstraße I",
    "latitude": "51.260187",
    "longitude": "6.753929",
    "thumbnail_url": ""
  },
  {
    "id": 35335,
    "name": "Kö III",
    "latitude": "51.224383",
    "longitude": "6.777352",
    "thumbnail_url": ""
  },
  {
    "id": 35358,
    "name": "Martin-Luther-Platz",
    "latitude": "51.224688",
    "longitude": "6.781754",
    "thumbnail_url": ""
  },
  {
    "id": 35207,
    "name": "Bahnstraße",
    "latitude": "51.219195",
    "longitude": "6.785521",
    "thumbnail_url": ""
  },
  {
    "id": 35360,
    "name": "Messe Süd I",
    "latitude": "51.25418",
    "longitude": "6.744716",
    "thumbnail_url": ""
  },
  {
    "id": 35338,
    "name": "Kö VI",
    "latitude": "51.223416",
    "longitude": "6.779375",
    "thumbnail_url": ""
  },
  {
    "id": 35214,
    "name": "Berliner Allee I",
    "latitude": "51.221434",
    "longitude": "6.782645",
    "thumbnail_url": ""
  },
  {
    "id": 35187,
    "name": "Aachener Platz",
    "latitude": "51.196332",
    "longitude": "6.76964",
    "thumbnail_url": ""
  },
  {
    "id": 35175,
    "name": "An der Vehlingshecke",
    "latitude": "51.195056",
    "longitude": "6.764611",
    "thumbnail_url": ""
  },
  {
    "id": 35255,
    "name": "Europaplatz",
    "latitude": "51.264574",
    "longitude": "6.735869",
    "thumbnail_url": ""
  },
  {
    "id": 35318,
    "name": "Kalkumer Straße - Kleinschmitthauser Weg",
    "latitude": "51.269132",
    "longitude": "6.773981",
    "thumbnail_url": ""
  },
  {
    "id": 35483,
    "name": "Zurheide I",
    "latitude": "51.218936",
    "longitude": "6.783193",
    "thumbnail_url": ""
  },
  {
    "id": 35186,
    "name": "Hansaallee",
    "latitude": "51.240472",
    "longitude": "6.728333",
    "thumbnail_url": ""
  },
  {
    "id": 35392,
    "name": "Rheinufer I",
    "latitude": "51.233925",
    "longitude": "6.772863",
    "thumbnail_url": ""
  },
  {
    "id": 35473,
    "name": "Wielandstraße",
    "latitude": "51.229226",
    "longitude": "6.793034",
    "thumbnail_url": ""
  },
  {
    "id": 35209,
    "name": "Benderstraße - Regenbergastraße",
    "latitude": "51.237164",
    "longitude": "6.856781",
    "thumbnail_url": ""
  },
  {
    "id": 35484,
    "name": "Zurheide II",
    "latitude": "51.219787",
    "longitude": "6.782466",
    "thumbnail_url": ""
  },
  {
    "id": 35241,
    "name": "Düsseldorf Hbf IV",
    "latitude": "51.219899",
    "longitude": "6.791082",
    "thumbnail_url": ""
  },
  {
    "id": 35402,
    "name": "Schanzenstraße I",
    "latitude": "51.232731",
    "longitude": "6.740525",
    "thumbnail_url": ""
  },
  {
    "id": 35412,
    "name": "Schwanenmarkt II",
    "latitude": "51.219355",
    "longitude": "6.772716",
    "thumbnail_url": ""
  },
  {
    "id": 35178,
    "name": "Kirchplatz",
    "latitude": "51.213639",
    "longitude": "6.776528",
    "thumbnail_url": ""
  },
  {
    "id": 35208,
    "name": "Bankstraße",
    "latitude": "51.243441",
    "longitude": "6.775643",
    "thumbnail_url": ""
  },
  {
    "id": 35183,
    "name": "Knechtstedenstraße",
    "latitude": "51.232889",
    "longitude": "6.703889",
    "thumbnail_url": ""
  },
  {
    "id": 35229,
    "name": "Christophstraße II",
    "latitude": "51.192745",
    "longitude": "6.797076",
    "thumbnail_url": ""
  },
  {
    "id": 35393,
    "name": "Rheinufer II",
    "latitude": "51.236496",
    "longitude": "6.771627",
    "thumbnail_url": ""
  },
  {
    "id": 35250,
    "name": "Engerstraße II",
    "latitude": "51.233714",
    "longitude": "6.816934",
    "thumbnail_url": ""
  },
  {
    "id": 35212,
    "name": "Benrather Straße - Breite Straße",
    "latitude": "51.222991",
    "longitude": "6.776783",
    "thumbnail_url": ""
  },
  {
    "id": 35182,
    "name": "Zum Paradiesstrand",
    "latitude": "51.218167",
    "longitude": "6.758722",
    "thumbnail_url": ""
  },
  {
    "id": 35416,
    "name": "St Michael",
    "latitude": "51.208476",
    "longitude": "6.830143",
    "thumbnail_url": ""
  },
  {
    "id": 35432,
    "name": "Tußmannstraße - Jordanstraße",
    "latitude": "51.241783",
    "longitude": "6.79263",
    "thumbnail_url": ""
  },
  {
    "id": 35257,
    "name": "Flügelstraße",
    "latitude": "51.214403",
    "longitude": "6.8008",
    "thumbnail_url": ""
  },
  {
    "id": 35295,
    "name": "Horionplatz",
    "latitude": "51.220445",
    "longitude": "6.768661",
    "thumbnail_url": ""
  },
  {
    "id": 35199,
    "name": "Apollo-Theater - Ausweichstation",
    "latitude": "51.218997",
    "longitude": "6.76692",
    "thumbnail_url": ""
  },
  {
    "id": 35407,
    "name": "Schloßstraße",
    "latitude": "51.238755",
    "longitude": "6.789296",
    "thumbnail_url": ""
  },
  {
    "id": 35391,
    "name": "Reuterkaserne II",
    "latitude": "51.230186",
    "longitude": "6.772022",
    "thumbnail_url": ""
  },
  {
    "id": 35296,
    "name": "Humboldtstraße",
    "latitude": "51.23343",
    "longitude": "6.802731",
    "thumbnail_url": ""
  },
  {
    "id": 35355,
    "name": "Marc-Chagall-Straße II",
    "latitude": "51.241196",
    "longitude": "6.794965",
    "thumbnail_url": ""
  },
  {
    "id": 35403,
    "name": "Schanzenstraße II",
    "latitude": "51.232381",
    "longitude": "6.741791",
    "thumbnail_url": ""
  },
  {
    "id": 35319,
    "name": "Karl-Anton-Straße I",
    "latitude": "51.225593",
    "longitude": "6.791889",
    "thumbnail_url": ""
  },
  {
    "id": 35334,
    "name": "Kö II",
    "latitude": "51.225362",
    "longitude": "6.779424",
    "thumbnail_url": ""
  },
  {
    "id": 35533,
    "name": "ERGO-Platz",
    "latitude": "51.2371518",
    "longitude": "6.7759943",
    "thumbnail_url": ""
  },
  {
    "id": 35232,
    "name": "Corneliusstraße II",
    "latitude": "51.215875",
    "longitude": "6.782388",
    "thumbnail_url": ""
  },
  {
    "id": 35440,
    "name": "Uni Kliniken I",
    "latitude": "51.198075",
    "longitude": "6.782907",
    "thumbnail_url": ""
  },
  {
    "id": 35276,
    "name": "Grabbeplatz",
    "latitude": "51.227527",
    "longitude": "6.77672",
    "thumbnail_url": ""
  },
  {
    "id": 35213,
    "name": "Berliner Allee - Steinstraße",
    "latitude": "51.223077",
    "longitude": "6.78213",
    "thumbnail_url": ""
  },
  {
    "id": 35170,
    "name": "Tonhalle",
    "latitude": "51.232139",
    "longitude": "6.774056",
    "thumbnail_url": ""
  },
  {
    "id": 35174,
    "name": "Kiefernstraße",
    "latitude": "51.219417",
    "longitude": "6.811278",
    "thumbnail_url": ""
  },
  {
    "id": 35176,
    "name": "Apollo-Varieté Theater",
    "latitude": "51.219167",
    "longitude": "6.765583",
    "thumbnail_url": ""
  },
  {
    "id": 35191,
    "name": "Alexanderstraße",
    "latitude": "51.219943",
    "longitude": "6.784069",
    "thumbnail_url": ""
  },
  {
    "id": 35192,
    "name": "Alter Markt",
    "latitude": "51.235589",
    "longitude": "6.86166",
    "thumbnail_url": ""
  },
  {
    "id": 35195,
    "name": "Am Wehrhahn III",
    "latitude": "51.229769",
    "longitude": "6.796146",
    "thumbnail_url": ""
  },
  {
    "id": 35196,
    "name": "An der Piwipp - Ulmenstraße",
    "latitude": "51.262596",
    "longitude": "6.776339",
    "thumbnail_url": ""
  },
  {
    "id": 35197,
    "name": "Anna-Spielplatz Düsseldorf",
    "latitude": "51.239949",
    "longitude": "6.788846",
    "thumbnail_url": ""
  },
  {
    "id": 35198,
    "name": "Apollo-Theater",
    "latitude": "51.218933",
    "longitude": "6.766072",
    "thumbnail_url": ""
  },
  {
    "id": 35200,
    "name": "Apostelplatz",
    "latitude": "51.23809",
    "longitude": "6.852067",
    "thumbnail_url": ""
  },
  {
    "id": 35352,
    "name": "Lohauser Deich I",
    "latitude": "51.258034",
    "longitude": "6.73272",
    "thumbnail_url": ""
  },
  {
    "id": 35203,
    "name": "Auf der Hardt - LVR-Klinikum II",
    "latitude": "51.241186",
    "longitude": "6.844756",
    "thumbnail_url": ""
  },
  {
    "id": 35204,
    "name": "Auf'm Hennekamp",
    "latitude": "51.202377",
    "longitude": "6.783986",
    "thumbnail_url": ""
  },
  {
    "id": 35206,
    "name": "Bachplätzchen II",
    "latitude": "51.208844",
    "longitude": "6.769243",
    "thumbnail_url": ""
  },
  {
    "id": 35210,
    "name": "Benrath Bahnhof",
    "latitude": "51.162125",
    "longitude": "6.877405",
    "thumbnail_url": ""
  },
  {
    "id": 35215,
    "name": "Berliner Allee II",
    "latitude": "51.221278",
    "longitude": "6.78201",
    "thumbnail_url": ""
  },
  {
    "id": 35218,
    "name": "Birkenstraße II",
    "latitude": "51.228621",
    "longitude": "6.798812",
    "thumbnail_url": ""
  },
  {
    "id": 35219,
    "name": "Bismarckstraße I",
    "latitude": "51.222243",
    "longitude": "6.785656",
    "thumbnail_url": ""
  },
  {
    "id": 35220,
    "name": "Bismarckstraße II",
    "latitude": "51.220809",
    "longitude": "6.789345",
    "thumbnail_url": ""
  },
  {
    "id": 35221,
    "name": "Börnestraße",
    "latitude": "51.227283",
    "longitude": "6.79124",
    "thumbnail_url": ""
  },
  {
    "id": 35222,
    "name": "Brehmplatz I",
    "latitude": "51.238678",
    "longitude": "6.803163",
    "thumbnail_url": ""
  },
  {
    "id": 35228,
    "name": "Christophstraße I",
    "latitude": "51.196459",
    "longitude": "6.796319",
    "thumbnail_url": ""
  },
  {
    "id": 35230,
    "name": "Christophstraße III",
    "latitude": "51.189328",
    "longitude": "6.79794",
    "thumbnail_url": ""
  },
  {
    "id": 35233,
    "name": "Cosmo Sports",
    "latitude": "51.234759",
    "longitude": "6.843623",
    "thumbnail_url": ""
  },
  {
    "id": 35235,
    "name": "Cranachstraße II",
    "latitude": "51.231878",
    "longitude": "6.814532",
    "thumbnail_url": ""
  },
  {
    "id": 35237,
    "name": "Drususstraße",
    "latitude": "51.231211",
    "longitude": "6.738175",
    "thumbnail_url": ""
  },
  {
    "id": 35239,
    "name": "Düsseldorf Hbf II",
    "latitude": "51.221656",
    "longitude": "6.793439",
    "thumbnail_url": ""
  },
  {
    "id": 35240,
    "name": "Düsseldorf Hbf III",
    "latitude": "51.222283",
    "longitude": "6.795113",
    "thumbnail_url": ""
  },
  {
    "id": 35242,
    "name": "Düsseldorfer Straße",
    "latitude": "51.230675",
    "longitude": "6.740434",
    "thumbnail_url": ""
  },
  {
    "id": 35243,
    "name": "Eckenerstraße",
    "latitude": "51.272018",
    "longitude": "6.773437",
    "thumbnail_url": ""
  },
  {
    "id": 35244,
    "name": "Elisabethstraße",
    "latitude": "51.216231",
    "longitude": "6.775275",
    "thumbnail_url": ""
  },
  {
    "id": 35245,
    "name": "Eller Mitte",
    "latitude": "51.202134",
    "longitude": "6.836791",
    "thumbnail_url": ""
  },
  {
    "id": 35246,
    "name": "Eller Mitte S",
    "latitude": "51.202206",
    "longitude": "6.840961",
    "thumbnail_url": ""
  },
  {
    "id": 35248,
    "name": "Emmastraße - Volksgarten",
    "latitude": "51.208932",
    "longitude": "6.799859",
    "thumbnail_url": ""
  },
  {
    "id": 35249,
    "name": "Engerstraße I",
    "latitude": "51.233207",
    "longitude": "6.814957",
    "thumbnail_url": ""
  },
  {
    "id": 35251,
    "name": "Engerstraße III",
    "latitude": "51.232359",
    "longitude": "6.816638",
    "thumbnail_url": ""
  },
  {
    "id": 35252,
    "name": "Ernst-Derra-Straße",
    "latitude": "51.193675",
    "longitude": "6.785349",
    "thumbnail_url": ""
  },
  {
    "id": 35253,
    "name": "Ernst-Schneider-Platz",
    "latitude": "51.225017",
    "longitude": "6.783498",
    "thumbnail_url": ""
  },
  {
    "id": 35256,
    "name": "Feldstraße - Gartenstraße",
    "latitude": "51.231637",
    "longitude": "6.783297",
    "thumbnail_url": ""
  },
  {
    "id": 35258,
    "name": "Freiligrathplatz I",
    "latitude": "51.264245",
    "longitude": "6.752705",
    "thumbnail_url": ""
  },
  {
    "id": 35261,
    "name": "Friedingstraße U",
    "latitude": "51.239099",
    "longitude": "6.847942",
    "thumbnail_url": ""
  },
  {
    "id": 35262,
    "name": "Friedrich-Ebert-Straße",
    "latitude": "51.223016",
    "longitude": "6.78591",
    "thumbnail_url": ""
  },
  {
    "id": 35263,
    "name": "Friedrichstadt S",
    "latitude": "51.211192",
    "longitude": "6.787185",
    "thumbnail_url": ""
  },
  {
    "id": 35265,
    "name": "Fürstenplatz II",
    "latitude": "51.213688",
    "longitude": "6.785953",
    "thumbnail_url": ""
  },
  {
    "id": 35266,
    "name": "Fürstenplatz III",
    "latitude": "51.21395",
    "longitude": "6.78531",
    "thumbnail_url": ""
  },
  {
    "id": 35267,
    "name": "Gangelplatz",
    "latitude": "51.210693",
    "longitude": "6.801406",
    "thumbnail_url": ""
  },
  {
    "id": 35268,
    "name": "GAP I",
    "latitude": "51.218593",
    "longitude": "6.775517",
    "thumbnail_url": ""
  },
  {
    "id": 35270,
    "name": "Garath S-Bahnhof Ost",
    "latitude": "51.143722",
    "longitude": "6.898017",
    "thumbnail_url": ""
  },
  {
    "id": 35271,
    "name": "Garath S-Bahnhof West",
    "latitude": "51.143296",
    "longitude": "6.897309",
    "thumbnail_url": ""
  },
  {
    "id": 35273,
    "name": "Gerresheim Rathaus",
    "latitude": "51.237276",
    "longitude": "6.858566",
    "thumbnail_url": ""
  },
  {
    "id": 35274,
    "name": "Gerresheimer Straße",
    "latitude": "51.227252",
    "longitude": "6.795501",
    "thumbnail_url": ""
  },
  {
    "id": 35280,
    "name": "Gumbertstraße",
    "latitude": "51.200601",
    "longitude": "6.840583",
    "thumbnail_url": ""
  },
  {
    "id": 35281,
    "name": "Gustaf-Gründgens-Platz",
    "latitude": "51.22786",
    "longitude": "6.784218",
    "thumbnail_url": ""
  },
  {
    "id": 35288,
    "name": "Heinrich-Könn-Straße U",
    "latitude": "51.242773",
    "longitude": "6.850944",
    "thumbnail_url": ""
  },
  {
    "id": 35292,
    "name": "Herzogstraße I",
    "latitude": "51.215612",
    "longitude": "6.785089",
    "thumbnail_url": ""
  },
  {
    "id": 35293,
    "name": "Herzogstraße II",
    "latitude": "51.215816",
    "longitude": "6.778786",
    "thumbnail_url": ""
  },
  {
    "id": 35297,
    "name": "Hüttenstraße I",
    "latitude": "51.211906",
    "longitude": "6.791794",
    "thumbnail_url": ""
  },
  {
    "id": 35299,
    "name": "Hüttenstraße III",
    "latitude": "51.213374",
    "longitude": "6.789661",
    "thumbnail_url": ""
  },
  {
    "id": 35300,
    "name": "Hüttenstraße IV",
    "latitude": "51.214925",
    "longitude": "6.78666",
    "thumbnail_url": ""
  },
  {
    "id": 35302,
    "name": "Im Liefeld",
    "latitude": "51.20953",
    "longitude": "6.813042",
    "thumbnail_url": ""
  },
  {
    "id": 35303,
    "name": "Im Liefeld - Unterführung",
    "latitude": "51.208365",
    "longitude": "6.81479",
    "thumbnail_url": ""
  },
  {
    "id": 35305,
    "name": "Immermannstraße I",
    "latitude": "51.224832",
    "longitude": "6.786034",
    "thumbnail_url": ""
  },
  {
    "id": 35307,
    "name": "Immermannstraße III",
    "latitude": "51.224275",
    "longitude": "6.78704",
    "thumbnail_url": ""
  },
  {
    "id": 35308,
    "name": "Immermannstraße IV",
    "latitude": "51.223896",
    "longitude": "6.788065",
    "thumbnail_url": ""
  },
  {
    "id": 35309,
    "name": "Immermannstraße IX",
    "latitude": "51.222227",
    "longitude": "6.790682",
    "thumbnail_url": ""
  },
  {
    "id": 35311,
    "name": "Immermannstraße VI",
    "latitude": "51.223018",
    "longitude": "6.789022",
    "thumbnail_url": ""
  },
  {
    "id": 35312,
    "name": "Immermannstraße VII",
    "latitude": "51.223231",
    "longitude": "6.789401",
    "thumbnail_url": ""
  },
  {
    "id": 35313,
    "name": "Immermannstraße VIII",
    "latitude": "51.22239",
    "longitude": "6.79115",
    "thumbnail_url": ""
  },
  {
    "id": 35314,
    "name": "Jugendherberge Düsseldorf",
    "latitude": "51.226178",
    "longitude": "6.757007",
    "thumbnail_url": ""
  },
  {
    "id": 35315,
    "name": "Kalkumer Schloßallee",
    "latitude": "51.305194",
    "longitude": "6.743071",
    "thumbnail_url": ""
  },
  {
    "id": 35317,
    "name": "Kalkumer Straße - Bielefelder Straße",
    "latitude": "51.264235",
    "longitude": "6.775497",
    "thumbnail_url": ""
  },
  {
    "id": 35320,
    "name": "Karl-Anton-Straße II",
    "latitude": "51.225382",
    "longitude": "6.794618",
    "thumbnail_url": ""
  },
  {
    "id": 35321,
    "name": "Karl-Geußen-Straße",
    "latitude": "51.208641",
    "longitude": "6.81075",
    "thumbnail_url": ""
  },
  {
    "id": 35322,
    "name": "Karlstraße I",
    "latitude": "51.223331",
    "longitude": "6.793469",
    "thumbnail_url": ""
  },
  {
    "id": 35324,
    "name": "Karlstraße III",
    "latitude": "51.220043",
    "longitude": "6.788615",
    "thumbnail_url": ""
  },
  {
    "id": 35325,
    "name": "Kasernenstraße - Grabenstraße",
    "latitude": "51.224314",
    "longitude": "6.775531",
    "thumbnail_url": ""
  },
  {
    "id": 35326,
    "name": "Kirchfeldstraße",
    "latitude": "51.213178",
    "longitude": "6.78865",
    "thumbnail_url": ""
  },
  {
    "id": 35327,
    "name": "Kirchplatz I",
    "latitude": "51.214013",
    "longitude": "6.775615",
    "thumbnail_url": ""
  },
  {
    "id": 35328,
    "name": "Kirchplatz II",
    "latitude": "51.213935",
    "longitude": "6.777475",
    "thumbnail_url": ""
  },
  {
    "id": 35329,
    "name": "Kirchstraße",
    "latitude": "51.211951",
    "longitude": "6.802124",
    "thumbnail_url": ""
  },
  {
    "id": 35330,
    "name": "Klemensplatz I",
    "latitude": "51.299917",
    "longitude": "6.738763",
    "thumbnail_url": ""
  },
  {
    "id": 35331,
    "name": "Klemensplatz II",
    "latitude": "51.301479",
    "longitude": "6.739526",
    "thumbnail_url": ""
  },
  {
    "id": 35201,
    "name": "Arminstraße",
    "latitude": "51.214016",
    "longitude": "6.790849",
    "thumbnail_url": ""
  },
  {
    "id": 35332,
    "name": "Klosterstraße",
    "latitude": "51.224863",
    "longitude": "6.787952",
    "thumbnail_url": ""
  },
  {
    "id": 35342,
    "name": "Kölner Straße",
    "latitude": "51.226129",
    "longitude": "6.793887",
    "thumbnail_url": ""
  },
  {
    "id": 35343,
    "name": "Kölner Straße - Heerstraße",
    "latitude": "51.212565",
    "longitude": "6.807886",
    "thumbnail_url": ""
  },
  {
    "id": 35344,
    "name": "Kölner Straße - Markenstraße",
    "latitude": "51.211077",
    "longitude": "6.808476",
    "thumbnail_url": ""
  },
  {
    "id": 35345,
    "name": "Kreuzstraße",
    "latitude": "51.223778",
    "longitude": "6.785509",
    "thumbnail_url": ""
  },
  {
    "id": 35346,
    "name": "Kunstakademie",
    "latitude": "51.230486",
    "longitude": "6.775288",
    "thumbnail_url": ""
  },
  {
    "id": 35347,
    "name": "Leopoldstraße I",
    "latitude": "51.226387",
    "longitude": "6.788642",
    "thumbnail_url": ""
  },
  {
    "id": 35348,
    "name": "Leopoldstraße II",
    "latitude": "51.226385",
    "longitude": "6.790726",
    "thumbnail_url": ""
  },
  {
    "id": 35349,
    "name": "Lessingplatz I",
    "latitude": "51.212715",
    "longitude": "6.793298",
    "thumbnail_url": ""
  },
  {
    "id": 35350,
    "name": "Liebigstraße",
    "latitude": "51.23724",
    "longitude": "6.791455",
    "thumbnail_url": ""
  },
  {
    "id": 35351,
    "name": "Liesegangstraße",
    "latitude": "51.225482",
    "longitude": "6.786516",
    "thumbnail_url": ""
  },
  {
    "id": 35353,
    "name": "Luisen-Gymnasium",
    "latitude": "51.221606",
    "longitude": "6.775783",
    "thumbnail_url": ""
  },
  {
    "id": 35354,
    "name": "Marc-Chagall-Straße I",
    "latitude": "51.238285",
    "longitude": "6.795221",
    "thumbnail_url": ""
  },
  {
    "id": 35357,
    "name": "Markenstraße - Im Liefeld",
    "latitude": "51.211658",
    "longitude": "6.809933",
    "thumbnail_url": ""
  },
  {
    "id": 35359,
    "name": "Messe Ost",
    "latitude": "51.259242",
    "longitude": "6.7473",
    "thumbnail_url": ""
  },
  {
    "id": 35421,
    "name": "Steinstraße",
    "latitude": "51.22308",
    "longitude": "6.78089",
    "thumbnail_url": ""
  },
  {
    "id": 35361,
    "name": "Messeplatz",
    "latitude": "51.257962",
    "longitude": "6.743117",
    "thumbnail_url": ""
  },
  {
    "id": 35363,
    "name": "Mintropplatz",
    "latitude": "51.217578",
    "longitude": "6.790256",
    "thumbnail_url": ""
  },
  {
    "id": 35367,
    "name": "Oberbilk S I",
    "latitude": "51.208349",
    "longitude": "6.807983",
    "thumbnail_url": ""
  },
  {
    "id": 35368,
    "name": "Oberbilk S II",
    "latitude": "51.20898",
    "longitude": "6.807683",
    "thumbnail_url": ""
  },
  {
    "id": 35369,
    "name": "Oberbilk S III",
    "latitude": "51.207537",
    "longitude": "6.807591",
    "thumbnail_url": ""
  },
  {
    "id": 35370,
    "name": "Oberbilker Allee",
    "latitude": "51.209207",
    "longitude": "6.80581",
    "thumbnail_url": ""
  },
  {
    "id": 35371,
    "name": "Oberbilker Allee - Schmiedestraße",
    "latitude": "51.210677",
    "longitude": "6.804281",
    "thumbnail_url": ""
  },
  {
    "id": 35372,
    "name": "Oberbilker Allee I",
    "latitude": "51.211233",
    "longitude": "6.783154",
    "thumbnail_url": ""
  },
  {
    "id": 35377,
    "name": "Philippusplatz",
    "latitude": "51.240032",
    "longitude": "6.729115",
    "thumbnail_url": ""
  },
  {
    "id": 35378,
    "name": "Platz der deutschen Einheit",
    "latitude": "51.223086",
    "longitude": "6.784097",
    "thumbnail_url": ""
  },
  {
    "id": 35373,
    "name": "Oberbilker Allee II",
    "latitude": "51.211169",
    "longitude": "6.78566",
    "thumbnail_url": ""
  },
  {
    "id": 35167,
    "name": "Hochschule Düsseldorf",
    "latitude": "51.246667",
    "longitude": "6.792667",
    "thumbnail_url": ""
  },
  {
    "id": 35382,
    "name": "PSD Bank Dome",
    "latitude": "51.273086",
    "longitude": "6.810986",
    "thumbnail_url": ""
  },
  {
    "id": 35384,
    "name": "Rath Mitte II",
    "latitude": "51.260638",
    "longitude": "6.809058",
    "thumbnail_url": ""
  },
  {
    "id": 35385,
    "name": "Rath S I",
    "latitude": "51.263722",
    "longitude": "6.820483",
    "thumbnail_url": ""
  },
  {
    "id": 35386,
    "name": "Rather Broich",
    "latitude": "51.260641",
    "longitude": "6.813847",
    "thumbnail_url": ""
  },
  {
    "id": 35387,
    "name": "Rather Broich - Münsterstraße",
    "latitude": "51.262014",
    "longitude": "6.810447",
    "thumbnail_url": ""
  },
  {
    "id": 35388,
    "name": "Ratinger Straße",
    "latitude": "51.229571",
    "longitude": "6.776022",
    "thumbnail_url": ""
  },
  {
    "id": 35306,
    "name": "Immermannstraße II",
    "latitude": "51.224186",
    "longitude": "6.786591",
    "thumbnail_url": ""
  },
  {
    "id": 35396,
    "name": "Rochusstraße",
    "latitude": "51.234154",
    "longitude": "6.786313",
    "thumbnail_url": ""
  },
  {
    "id": 35397,
    "name": "Römerstraße",
    "latitude": "51.244857",
    "longitude": "6.782711",
    "thumbnail_url": ""
  },
  {
    "id": 35398,
    "name": "Rosenstraße",
    "latitude": "51.232722",
    "longitude": "6.782383",
    "thumbnail_url": ""
  },
  {
    "id": 35400,
    "name": "Schadowstraße I",
    "latitude": "51.226348",
    "longitude": "6.783325",
    "thumbnail_url": ""
  },
  {
    "id": 35404,
    "name": "Schillerstraße",
    "latitude": "51.23315",
    "longitude": "6.797909",
    "thumbnail_url": ""
  },
  {
    "id": 35406,
    "name": "Schlesische Straße",
    "latitude": "51.207138",
    "longitude": "6.831518",
    "thumbnail_url": ""
  },
  {
    "id": 35408,
    "name": "Schumannstraße",
    "latitude": "51.231659",
    "longitude": "6.798967",
    "thumbnail_url": ""
  },
  {
    "id": 35409,
    "name": "Schützenstraße I",
    "latitude": "51.228615",
    "longitude": "6.795085",
    "thumbnail_url": ""
  },
  {
    "id": 35410,
    "name": "Schützenstraße II",
    "latitude": "51.22646",
    "longitude": "6.793934",
    "thumbnail_url": ""
  },
  {
    "id": 35411,
    "name": "Schwanenmarkt I",
    "latitude": "51.219922",
    "longitude": "6.774157",
    "thumbnail_url": ""
  },
  {
    "id": 35413,
    "name": "Siemensstraße",
    "latitude": "51.214141",
    "longitude": "6.796919",
    "thumbnail_url": ""
  },
  {
    "id": 35414,
    "name": "Sonnenstraße I",
    "latitude": "51.212433",
    "longitude": "6.798622",
    "thumbnail_url": ""
  },
  {
    "id": 35417,
    "name": "Staatsanwaltschaft Düsseldorf",
    "latitude": "51.230975",
    "longitude": "6.775987",
    "thumbnail_url": ""
  },
  {
    "id": 35418,
    "name": "Stadttor",
    "latitude": "51.215426",
    "longitude": "6.76209",
    "thumbnail_url": ""
  },
  {
    "id": 35420,
    "name": "Staufenplatz III",
    "latitude": "51.240389",
    "longitude": "6.824951",
    "thumbnail_url": ""
  },
  {
    "id": 35422,
    "name": "Stephanienstraße - Klosterstraße",
    "latitude": "51.22425",
    "longitude": "6.791529",
    "thumbnail_url": ""
  },
  {
    "id": 35424,
    "name": "Stockumer Kirchstraße II",
    "latitude": "51.260434",
    "longitude": "6.754723",
    "thumbnail_url": ""
  },
  {
    "id": 35425,
    "name": "Stresemannplatz I",
    "latitude": "51.219751",
    "longitude": "6.788584",
    "thumbnail_url": ""
  },
  {
    "id": 35426,
    "name": "Stresemannplatz II",
    "latitude": "51.219408",
    "longitude": "6.790355",
    "thumbnail_url": ""
  },
  {
    "id": 35427,
    "name": "Stresemannplatz III",
    "latitude": "51.219031",
    "longitude": "6.788344",
    "thumbnail_url": ""
  },
  {
    "id": 35428,
    "name": "Stresemannstraße I",
    "latitude": "51.219492",
    "longitude": "6.787299",
    "thumbnail_url": ""
  },
  {
    "id": 35429,
    "name": "Stresemannstraße III",
    "latitude": "51.220451",
    "longitude": "6.785344",
    "thumbnail_url": ""
  },
  {
    "id": 35430,
    "name": "Südpark",
    "latitude": "51.19545",
    "longitude": "6.800655",
    "thumbnail_url": ""
  },
  {
    "id": 35431,
    "name": "Südpark_Ausweichstation",
    "latitude": "51.194563",
    "longitude": "6.802962",
    "thumbnail_url": ""
  },
  {
    "id": 35434,
    "name": "UKD II",
    "latitude": "51.194282",
    "longitude": "6.791324",
    "thumbnail_url": ""
  },
  {
    "id": 35435,
    "name": "UKD III",
    "latitude": "51.196326",
    "longitude": "6.787645",
    "thumbnail_url": ""
  },
  {
    "id": 35436,
    "name": "UKD IV",
    "latitude": "51.196201",
    "longitude": "6.789938",
    "thumbnail_url": ""
  },
  {
    "id": 35437,
    "name": "UKD V",
    "latitude": "51.194418",
    "longitude": "6.793185",
    "thumbnail_url": ""
  },
  {
    "id": 35438,
    "name": "UKD VI",
    "latitude": "51.195394",
    "longitude": "6.794721",
    "thumbnail_url": ""
  },
  {
    "id": 35439,
    "name": "UKD VII",
    "latitude": "51.196353",
    "longitude": "6.792623",
    "thumbnail_url": ""
  },
  {
    "id": 35442,
    "name": "Uni Kliniken III",
    "latitude": "51.199087",
    "longitude": "6.78902",
    "thumbnail_url": ""
  },
  {
    "id": 35443,
    "name": "Uni Kliniken IV",
    "latitude": "51.199404",
    "longitude": "6.79082",
    "thumbnail_url": ""
  },
  {
    "id": 35448,
    "name": "Uni Mensa III",
    "latitude": "51.191538",
    "longitude": "6.791909",
    "thumbnail_url": ""
  },
  {
    "id": 35449,
    "name": "Uni Ost I",
    "latitude": "51.190187",
    "longitude": "6.80008",
    "thumbnail_url": ""
  },
  {
    "id": 35450,
    "name": "Uni Ost II",
    "latitude": "51.189205",
    "longitude": "6.800131",
    "thumbnail_url": ""
  },
  {
    "id": 35451,
    "name": "Uni Süd I",
    "latitude": "51.186122",
    "longitude": "6.795787",
    "thumbnail_url": ""
  },
  {
    "id": 35452,
    "name": "Uni Süd-Ost I",
    "latitude": "51.182699",
    "longitude": "6.802306",
    "thumbnail_url": ""
  },
  {
    "id": 35453,
    "name": "Uni West I",
    "latitude": "51.190783",
    "longitude": "6.790327",
    "thumbnail_url": ""
  },
  {
    "id": 35444,
    "name": "Uni Kliniken V",
    "latitude": "51.200223",
    "longitude": "6.789623",
    "thumbnail_url": ""
  },
  {
    "id": 35445,
    "name": "Uni Kliniken VI",
    "latitude": "51.198943",
    "longitude": "6.788792",
    "thumbnail_url": ""
  },
  {
    "id": 35446,
    "name": "Uni Mensa I",
    "latitude": "51.191925",
    "longitude": "6.793652",
    "thumbnail_url": ""
  },
  {
    "id": 35454,
    "name": "Uni West II",
    "latitude": "51.191319",
    "longitude": "6.78821",
    "thumbnail_url": ""
  },
  {
    "id": 35455,
    "name": "Universität Mitte",
    "latitude": "51.1878",
    "longitude": "6.793199",
    "thumbnail_url": ""
  },
  {
    "id": 35457,
    "name": "Ursula-Trabalski-Straße",
    "latitude": "51.239752",
    "longitude": "6.85036",
    "thumbnail_url": ""
  },
  {
    "id": 35458,
    "name": "Van-Douven-Straße",
    "latitude": "51.213279",
    "longitude": "6.795899",
    "thumbnail_url": ""
  },
  {
    "id": 35459,
    "name": "Vinzenzplatz",
    "latitude": "51.226211",
    "longitude": "6.798649",
    "thumbnail_url": ""
  },
  {
    "id": 35462,
    "name": "Von-Gahlen-Straße U",
    "latitude": "51.237503",
    "longitude": "6.853781",
    "thumbnail_url": ""
  },
  {
    "id": 35463,
    "name": "Vulkanstraße",
    "latitude": "51.216568",
    "longitude": "6.791626",
    "thumbnail_url": ""
  },
  {
    "id": 35464,
    "name": "Wasserstraße I",
    "latitude": "51.218523",
    "longitude": "6.771568",
    "thumbnail_url": ""
  },
  {
    "id": 35465,
    "name": "Wasserstraße II",
    "latitude": "51.216442",
    "longitude": "6.772848",
    "thumbnail_url": ""
  },
  {
    "id": 35466,
    "name": "Wehrhahn S",
    "latitude": "51.229756",
    "longitude": "6.798343",
    "thumbnail_url": ""
  },
  {
    "id": 35467,
    "name": "Werstener Dorfstraße I",
    "latitude": "51.192147",
    "longitude": "6.814565",
    "thumbnail_url": ""
  },
  {
    "id": 35469,
    "name": "Werstener Dorfstraße III",
    "latitude": "51.193273",
    "longitude": "6.815456",
    "thumbnail_url": ""
  },
  {
    "id": 35470,
    "name": "Westfalenstraße I",
    "latitude": "51.262556",
    "longitude": "6.812803",
    "thumbnail_url": ""
  },
  {
    "id": 35471,
    "name": "Westfalenstraße II",
    "latitude": "51.263032",
    "longitude": "6.816799",
    "thumbnail_url": ""
  },
  {
    "id": 35472,
    "name": "Westfalenstraße III",
    "latitude": "51.263493",
    "longitude": "6.818328",
    "thumbnail_url": ""
  },
  {
    "id": 35474,
    "name": "Willi-Becker-Allee - Ellerstraße",
    "latitude": "51.21732",
    "longitude": "6.792543",
    "thumbnail_url": ""
  },
  {
    "id": 35475,
    "name": "Wim-Wenders-Gymnasium",
    "latitude": "51.210776",
    "longitude": "6.806874",
    "thumbnail_url": ""
  },
  {
    "id": 35476,
    "name": "Worringer Platz",
    "latitude": "51.223474",
    "longitude": "6.795683",
    "thumbnail_url": ""
  },
  {
    "id": 35477,
    "name": "Worringer Straße I",
    "latitude": "51.229384",
    "longitude": "6.796381",
    "thumbnail_url": ""
  },
  {
    "id": 35479,
    "name": "Worringer Straße III",
    "latitude": "51.225484",
    "longitude": "6.796143",
    "thumbnail_url": ""
  },
  {
    "id": 35480,
    "name": "Yorckstraße - Münsterstraße",
    "latitude": "51.246326",
    "longitude": "6.79267",
    "thumbnail_url": ""
  },
  {
    "id": 35481,
    "name": "Yorckstraße - Toulouser Allee",
    "latitude": "51.24534",
    "longitude": "6.794347",
    "thumbnail_url": ""
  },
  {
    "id": 35260,
    "name": "Friedensplätzchen",
    "latitude": "51.212455",
    "longitude": "6.768255",
    "thumbnail_url": ""
  },
  {
    "id": 35376,
    "name": "Pfalzstraße",
    "latitude": "51.239884",
    "longitude": "6.778157",
    "thumbnail_url": ""
  },
  {
    "id": 35223,
    "name": "Brehmplatz II",
    "latitude": "51.238538",
    "longitude": "6.802171",
    "thumbnail_url": ""
  },
  {
    "id": 35184,
    "name": "Luegplatz",
    "latitude": "51.231444",
    "longitude": "6.761694",
    "thumbnail_url": ""
  },
  {
    "id": 35190,
    "name": "Ackerstraße - Birkenstraße",
    "latitude": "51.227053",
    "longitude": "6.800526",
    "thumbnail_url": ""
  },
  {
    "id": 35259,
    "name": "Freiligrathplatz II",
    "latitude": "51.265511",
    "longitude": "6.751515",
    "thumbnail_url": ""
  },
  {
    "id": 35225,
    "name": "Carlsplatz",
    "latitude": "51.223159",
    "longitude": "6.774482",
    "thumbnail_url": ""
  },
  {
    "id": 35301,
    "name": "Hüttenstraße VI",
    "latitude": "51.217572",
    "longitude": "6.782145",
    "thumbnail_url": ""
  },
  {
    "id": 35415,
    "name": "Sonnenstraße II",
    "latitude": "51.212662",
    "longitude": "6.795892",
    "thumbnail_url": ""
  },
  {
    "id": 35188,
    "name": "Achenbachstraße",
    "latitude": "51.237499",
    "longitude": "6.799002",
    "thumbnail_url": ""
  },
  {
    "id": 35224,
    "name": "Carl-Mosterts-Platz",
    "latitude": "51.23816",
    "longitude": "6.788662",
    "thumbnail_url": ""
  },
  {
    "id": 35181,
    "name": "Völklinger Straße",
    "latitude": "51.210444",
    "longitude": "6.75825",
    "thumbnail_url": ""
  },
  {
    "id": 35173,
    "name": "Düsselstrand",
    "latitude": "51.223556",
    "longitude": "6.810722",
    "thumbnail_url": ""
  },
  {
    "id": 35285,
    "name": "Harkortstraße",
    "latitude": "51.218561",
    "longitude": "6.790318",
    "thumbnail_url": ""
  },
  {
    "id": 35194,
    "name": "Am Wehrhahn II",
    "latitude": "51.228319",
    "longitude": "6.790835",
    "thumbnail_url": ""
  },
  {
    "id": 35356,
    "name": "Maria-und-Josef-Otten-Platz",
    "latitude": "51.238311",
    "longitude": "6.783733",
    "thumbnail_url": ""
  },
  {
    "id": 35166,
    "name": "Theodor-Heuss-Brücke",
    "latitude": "51.249806",
    "longitude": "6.763806",
    "thumbnail_url": ""
  },
  {
    "id": 35294,
    "name": "Hofgarten I",
    "latitude": "51.232989",
    "longitude": "6.778895",
    "thumbnail_url": ""
  },
  {
    "id": 35234,
    "name": "Cranachstraße I",
    "latitude": "51.231323",
    "longitude": "6.816191",
    "thumbnail_url": ""
  },
  {
    "id": 35179,
    "name": "Medienhafen-UCI Kino",
    "latitude": "51.213111",
    "longitude": "6.751333",
    "thumbnail_url": ""
  },
  {
    "id": 35169,
    "name": "Zoo S",
    "latitude": "51.236083",
    "longitude": "6.79375",
    "thumbnail_url": ""
  },
  {
    "id": 35405,
    "name": "Schinkelstraße",
    "latitude": "51.23429",
    "longitude": "6.793409",
    "thumbnail_url": ""
  },
  {
    "id": 35333,
    "name": "Kö I",
    "latitude": "51.226467",
    "longitude": "6.77846",
    "thumbnail_url": ""
  },
  {
    "id": 35316,
    "name": "Kalkumer Straße - Auf den Geisten",
    "latitude": "51.27098",
    "longitude": "6.774067",
    "thumbnail_url": ""
  },
  {
    "id": 35298,
    "name": "Hüttenstraße II",
    "latitude": "51.212738",
    "longitude": "6.791202",
    "thumbnail_url": ""
  },
  {
    "id": 35379,
    "name": "Poststraße",
    "latitude": "51.222052",
    "longitude": "6.771481",
    "thumbnail_url": ""
  },
  {
    "id": 35366,
    "name": "Münsterplatz",
    "latitude": "51.244118",
    "longitude": "6.788469",
    "thumbnail_url": ""
  },
  {
    "id": 35419,
    "name": "Staufenplatz II",
    "latitude": "51.24171",
    "longitude": "6.826457",
    "thumbnail_url": ""
  },
  {
    "id": 35374,
    "name": "Oper",
    "latitude": "51.227189",
    "longitude": "6.777642",
    "thumbnail_url": ""
  },
  {
    "id": 35211,
    "name": "Benrather Marktplatz",
    "latitude": "51.163516",
    "longitude": "6.87431",
    "thumbnail_url": ""
  },
  {
    "id": 35272,
    "name": "Gartenstraße - Kaiserstraße",
    "latitude": "51.231033",
    "longitude": "6.781067",
    "thumbnail_url": ""
  },
  {
    "id": 35275,
    "name": "Gneisenaustraße",
    "latitude": "51.23978",
    "longitude": "6.786023",
    "thumbnail_url": ""
  },
  {
    "id": 35460,
    "name": "Volksgarten S I",
    "latitude": "51.209119",
    "longitude": "6.793015",
    "thumbnail_url": ""
  },
  {
    "id": 35216,
    "name": "Bilker Straße",
    "latitude": "51.222909",
    "longitude": "6.77293",
    "thumbnail_url": ""
  },
  {
    "id": 35247,
    "name": "Ellerstraße",
    "latitude": "51.213144",
    "longitude": "6.806416",
    "thumbnail_url": ""
  },
  {
    "id": 35362,
    "name": "Mindener Straße - Markenstraße",
    "latitude": "51.212697",
    "longitude": "6.810633",
    "thumbnail_url": ""
  },
  {
    "id": 35254,
    "name": "Eulerstraße - Scharnhorststraße",
    "latitude": "51.241114",
    "longitude": "6.786759",
    "thumbnail_url": ""
  },
  {
    "id": 35287,
    "name": "Heinrich-Heine-Allee - Ausweichstation",
    "latitude": "51.229423",
    "longitude": "6.777229",
    "thumbnail_url": ""
  },
  {
    "id": 35478,
    "name": "Worringer Straße II",
    "latitude": "51.226939",
    "longitude": "6.796494",
    "thumbnail_url": ""
  },
  {
    "id": 35217,
    "name": "Birkenstraße I",
    "latitude": "51.227724",
    "longitude": "6.801179",
    "thumbnail_url": ""
  },
  {
    "id": 35264,
    "name": "Fürstenplatz I",
    "latitude": "51.212555",
    "longitude": "6.786225",
    "thumbnail_url": ""
  },
  {
    "id": 35286,
    "name": "Haus-der-Kirche",
    "latitude": "51.221609",
    "longitude": "6.77339",
    "thumbnail_url": ""
  },
  {
    "id": 35514,
    "name": "Rheinbahn",
    "latitude": "51.2125394",
    "longitude": "6.8205276",
    "thumbnail_url": ""
  },
  {
    "id": 35364,
    "name": "Mühlenstraße I",
    "latitude": "51.227202",
    "longitude": "6.772645",
    "thumbnail_url": ""
  },
  {
    "id": 35238,
    "name": "Düsseldorf Hbf I",
    "latitude": "51.220359",
    "longitude": "6.792282",
    "thumbnail_url": ""
  },
  {
    "id": 35205,
    "name": "Bachplätzchen I",
    "latitude": "51.208499",
    "longitude": "6.767914",
    "thumbnail_url": ""
  }
]