{
  "type": "FeatureCollection",
  "features": [
    {
      "type": "Feature",
      "geometry": {
        "type": "Point",
        "coordinates": [
          6.6395616,
          46.7909522
        ]
      },
      "properties": {
        "id": 16388,
        "name": "Boulodrome",
        "address": "",
        "city": "",
        "capacity": 0,
        "available_bikes": 0,
        "hub_type": "standard",
        "status": "active"
      }
    },
    {
      "type": "Feature",
      "geometry": {
        "type": "Point",
        "coordinates": [
          6.6485143,
          46.7772114
        ]
      },
      "properties": {
        "id": 16302,
        "name": "Buron",
        "address": "",
        "city": "",
        "capacity": 0,
        "available_bikes": 0,
        "hub_type": "standard",
        "status": "active"
      }
    },
    {
      "type": "Feature",
      "geometry": {
        "type": "Point",
        "coordinates": [
          6.6526667,
          46.7695009
        ]
      },
      "properties": {
        "id": 17232,
        "name": "Condémines",
        "address": "",
        "city": "",
        "capacity": 0,
        "available_bikes": 0,
        "hub_type": "standard",
        "status": "active"
      }
    },
    {
      "type": "Feature",
      "geometry": {
        "type": "Point",
        "coordinates": [
          6.6369698,
          46.7804518
        ]
      },
      "properties": {
        "id": 14992,
        "name": "Bel-Air",
        "address": "",
        "city": "",
        "capacity": 0,
        "available_bikes": 0,
        "hub_type": "standard",
        "status": "active"
      }
    },
    {
      "type": "Feature",
      "geometry": {
        "type": "Point",
        "coordinates": [
          6.6413791,
          46.7809886
        ]
      },
      "properties": {
        "id": 16921,
        "name": "Gare",
        "address": "",
        "city": "",
        "capacity": 0,
        "available_bikes": 0,
        "hub_type": "standard",
        "status": "active"
      }
    },
    {
      "type": "Feature",
      "geometry": {
        "type": "Point",
        "coordinates": [
          6.6318728,
          46.7831
        ]
      },
      "properties": {
        "id": 17297,
        "name": "Fontenay",
        "address": "",
        "city": "",
        "capacity": 0,
        "available_bikes": 0,
        "hub_type": "standard",
        "status": "active"
      }
    },
    {
      "type": "Feature",
      "geometry": {
        "type": "Point",
        "coordinates": [
          6.6364354,
          46.7638726
        ]
      },
      "properties": {
        "id": 18762,
        "name": "Y-Parc, Innovation",
        "address": "",
        "city": "",
        "capacity": 0,
        "available_bikes": 0,
        "hub_type": "standard",
        "status": "active"
      }
    },
    {
      "type": "Feature",
      "geometry": {
        "type": "Point",
        "coordinates": [
          6.638189,
          46.7857601
        ]
      },
      "properties": {
        "id": 16307,
        "name": "Marive",
        "address": "",
        "city": "",
        "capacity": 0,
        "available_bikes": 0,
        "hub_type": "standard",
        "status": "active"
      }
    },
    {
      "type": "Feature",
      "geometry": {
        "type": "Point",
        "coordinates": [
          6.6412567,
          46.7887594
        ]
      },
      "properties": {
        "id": 19546,
        "name": "Batellerie",
        "address": "",
        "city": "",
        "capacity": 0,
        "available_bikes": 0,
        "hub_type": "standard",
        "status": "active"
      }
    },
    {
      "type": "Feature",
      "geometry": {
        "type": "Point",
        "coordinates": [
          6.6413101,
          46.7650004
        ]
      },
      "properties": {
        "id": 17214,
        "name": "Y-Parc, Parking",
        "address": "",
        "city": "",
        "capacity": 0,
        "available_bikes": 0,
        "hub_type": "standard",
        "status": "active"
      }
    },
    {
      "type": "Feature",
      "geometry": {
        "type": "Point",
        "coordinates": [
          6.6318273,
          46.7774187
        ]
      },
      "properties": {
        "id": 17243,
        "name": "Général-Guisan",
        "address": "",
        "city": "",
        "capacity": 0,
        "available_bikes": 0,
        "hub_type": "standard",
        "status": "active"
      }
    },
    {
      "type": "Feature",
      "geometry": {
        "type": "Point",
        "coordinates": [
          6.6398028,
          46.7813205
        ]
      },
      "properties": {
        "id": 16945,
        "name": "Gare ouest",
        "address": "",
        "city": "",
        "capacity": 0,
        "available_bikes": 0,
        "hub_type": "standard",
        "status": "active"
      }
    },
    {
      "type": "Feature",
      "geometry": {
        "type": "Point",
        "coordinates": [
          6.6255055,
          46.7813291
        ]
      },
      "properties": {
        "id": 16314,
        "name": "Rue de Montagny",
        "address": "",
        "city": "",
        "capacity": 0,
        "available_bikes": 0,
        "hub_type": "standard",
        "status": "active"
      }
    },
    {
      "type": "Feature",
      "geometry": {
        "type": "Point",
        "coordinates": [
          6.6439231,
          46.7851494
        ]
      },
      "properties": {
        "id": 17001,
        "name": "Rives du Lac",
        "address": "",
        "city": "",
        "capacity": 0,
        "available_bikes": 0,
        "hub_type": "standard",
        "status": "active"
      }
    },
    {
      "type": "Feature",
      "geometry": {
        "type": "Point",
        "coordinates": [
          6.6525422,
          46.7839414
        ]
      },
      "properties": {
        "id": 16280,
        "name": "Plage",
        "address": "",
        "city": "",
        "capacity": 0,
        "available_bikes": 0,
        "hub_type": "standard",
        "status": "active"
      }
    },
    {
      "type": "Feature",
      "geometry": {
        "type": "Point",
        "coordinates": [
          6.6494833,
          46.7819652
        ]
      },
      "properties": {
        "id": 20011,
        "name": "Sport 5",
        "address": "",
        "city": "",
        "capacity": 0,
        "available_bikes": 0,
        "hub_type": "standard",
        "status": "active"
      }
    },
    {
      "type": "Feature",
      "geometry": {
        "type": "Point",
        "coordinates": [
          6.6411045,
          46.785265
        ]
      },
      "properties": {
        "id": 14993,
        "name": "Collège des Rives",
        "address": "",
        "city": "",
        "capacity": 0,
        "available_bikes": 0,
        "hub_type": "standard",
        "status": "active"
      }
    },
    {
      "type": "Feature",
      "geometry": {
        "type": "Point",
        "coordinates": [
          6.6417099,
          46.7876823
        ]
      },
      "properties": {
        "id": 18013,
        "name": "Dérivée",
        "address": "",
        "city": "",
        "capacity": 0,
        "available_bikes": 0,
        "hub_type": "standard",
        "status": "active"
      }
    },
    {
      "type": "Feature",
      "geometry": {
        "type": "Point",
        "coordinates": [
          6.6477014,
          46.7813519
        ]
      },
      "properties": {
        "id": 16284,
        "name": "HEIG-VD St-Roch",
        "address": "",
        "city": "",
        "capacity": 0,
        "available_bikes": 0,
        "hub_type": "standard",
        "status": "active"
      }
    },
    {
      "type": "Feature",
      "geometry": {
        "type": "Point",
        "coordinates": [
          6.6344066,
          46.778133
        ]
      },
      "properties": {
        "id": 17240,
        "name": "Mont d'Or",
        "address": "",
        "city": "",
        "capacity": 0,
        "available_bikes": 0,
        "hub_type": "standard",
        "status": "active"
      }
    },
    {
      "type": "Feature",
      "geometry": {
        "type": "Point",
        "coordinates": [
          6.6290342,
          46.7816423
        ]
      },
      "properties": {
        "id": 17234,
        "name": "St-Georges",
        "address": "",
        "city": "",
        "capacity": 0,
        "available_bikes": 0,
        "hub_type": "standard",
        "status": "active"
      }
    },
    {
      "type": "Feature",
      "geometry": {
        "type": "Point",
        "coordinates": [
          6.6466891,
          46.7850132
        ]
      },
      "properties": {
        "id": 16308,
        "name": "Piscine couverte",
        "address": "",
        "city": "",
        "capacity": 0,
        "available_bikes": 0,
        "hub_type": "standard",
        "status": "active"
      }
    },
    {
      "type": "Feature",
      "geometry": {
        "type": "Point",
        "coordinates": [
          6.6520961,
          46.7757291
        ]
      },
      "properties": {
        "id": 17246,
        "name": "Sous-Bois",
        "address": "",
        "city": "",
        "capacity": 0,
        "available_bikes": 0,
        "hub_type": "standard",
        "status": "active"
      }
    },
    {
      "type": "Feature",
      "geometry": {
        "type": "Point",
        "coordinates": [
          6.6480922,
          46.7757214
        ]
      },
      "properties": {
        "id": 17231,
        "name": "4 Marronniers",
        "address": "",
        "city": "",
        "capacity": 0,
        "available_bikes": 0,
        "hub_type": "standard",
        "status": "active"
      }
    },
    {
      "type": "Feature",
      "geometry": {
        "type": "Point",
        "coordinates": [
          6.6661551,
          46.7852411
        ]
      },
      "properties": {
        "id": 20133,
        "name": "Pro Natura",
        "address": "",
        "city": "",
        "capacity": 0,
        "available_bikes": 0,
        "hub_type": "standard",
        "status": "active"
      }
    },
    {
      "type": "Feature",
      "geometry": {
        "type": "Point",
        "coordinates": [
          6.6410482,
          46.778004
        ]
      },
      "properties": {
        "id": 19319,
        "name": "Chateau",
        "address": "",
        "city": "",
        "capacity": 0,
        "available_bikes": 0,
        "hub_type": "standard",
        "status": "active"
      }
    },
    {
      "type": "Feature",
      "geometry": {
        "type": "Point",
        "coordinates": [
          6.6366068,
          46.7767049
        ]
      },
      "properties": {
        "id": 17239,
        "name": "Midi",
        "address": "",
        "city": "",
        "capacity": 0,
        "available_bikes": 0,
        "hub_type": "standard",
        "status": "active"
      }
    },
    {
      "type": "Feature",
      "geometry": {
        "type": "Point",
        "coordinates": [
          6.6392243,
          46.7875291
        ]
      },
      "properties": {
        "id": 17298,
        "name": "Roselière",
        "address": "",
        "city": "",
        "capacity": 0,
        "available_bikes": 0,
        "hub_type": "standard",
        "status": "active"
      }
    },
    {
      "type": "Feature",
      "geometry": {
        "type": "Point",
        "coordinates": [
          6.6530063,
          46.7803201
        ]
      },
      "properties": {
        "id": 20010,
        "name": "Sports",
        "address": "",
        "city": "",
        "capacity": 0,
        "available_bikes": 0,
        "hub_type": "standard",
        "status": "active"
      }
    },
    {
      "type": "Feature",
      "geometry": {
        "type": "Point",
        "coordinates": [
          6.64787,
          46.7700928
        ]
      },
      "properties": {
        "id": 19723,
        "name": "Plaisance",
        "address": "",
        "city": "",
        "capacity": 0,
        "available_bikes": 0,
        "hub_type": "standard",
        "status": "active"
      }
    },
    {
      "type": "Feature",
      "geometry": {
        "type": "Point",
        "coordinates": [
          6.6296161,
          46.7847644
        ]
      },
      "properties": {
        "id": 19985,
        "name": "Fleurettes",
        "address": "",
        "city": "",
        "capacity": 0,
        "available_bikes": 0,
        "hub_type": "standard",
        "status": "active"
      }
    },
    {
      "type": "Feature",
      "geometry": {
        "type": "Point",
        "coordinates": [
          6.6583166,
          46.7788408
        ]
      },
      "properties": {
        "id": 16285,
        "name": "HEIG-VD Cheseaux",
        "address": "",
        "city": "",
        "capacity": 0,
        "available_bikes": 0,
        "hub_type": "standard",
        "status": "active"
      }
    },
    {
      "type": "Feature",
      "geometry": {
        "type": "Point",
        "coordinates": [
          6.6310059,
          46.7722606
        ]
      },
      "properties": {
        "id": 19550,
        "name": "Moulins",
        "address": "",
        "city": "",
        "capacity": 0,
        "available_bikes": 0,
        "hub_type": "standard",
        "status": "active"
      }
    },
    {
      "type": "Feature",
      "geometry": {
        "type": "Point",
        "coordinates": [
          6.6434345,
          46.7775368
        ]
      },
      "properties": {
        "id": 16304,
        "name": "Plaine",
        "address": "",
        "city": "",
        "capacity": 0,
        "available_bikes": 0,
        "hub_type": "standard",
        "status": "active"
      }
    },
    {
      "type": "Feature",
      "geometry": {
        "type": "Point",
        "coordinates": [
          6.6488543,
          46.7848784
        ]
      },
      "properties": {
        "id": 17264,
        "name": "Camping",
        "address": "",
        "city": "",
        "capacity": 0,
        "available_bikes": 0,
        "hub_type": "standard",
        "status": "active"
      }
    },
    {
      "type": "Feature",
      "geometry": {
        "type": "Point",
        "coordinates": [
          6.6360569,
          46.7849178
        ]
      },
      "properties": {
        "id": 16283,
        "name": "Conservatoire",
        "address": "",
        "city": "",
        "capacity": 0,
        "available_bikes": 0,
        "hub_type": "standard",
        "status": "active"
      }
    },
    {
      "type": "Feature",
      "geometry": {
        "type": "Point",
        "coordinates": [
          6.6369442,
          46.7893027
        ]
      },
      "properties": {
        "id": 17301,
        "name": "Coin de Terre",
        "address": "",
        "city": "",
        "capacity": 0,
        "available_bikes": 0,
        "hub_type": "standard",
        "status": "active"
      }
    },
    {
      "type": "Feature",
      "geometry": {
        "type": "Point",
        "coordinates": [
          6.6420879,
          46.7752651
        ]
      },
      "properties": {
        "id": 16764,
        "name": "Philosophe",
        "address": "",
        "city": "",
        "capacity": 0,
        "available_bikes": 0,
        "hub_type": "standard",
        "status": "active"
      }
    },
    {
      "type": "Feature",
      "geometry": {
        "type": "Point",
        "coordinates": [
          6.6319157,
          46.7913781
        ]
      },
      "properties": {
        "id": 17642,
        "name": "Prés du Lac",
        "address": "",
        "city": "",
        "capacity": 0,
        "available_bikes": 0,
        "hub_type": "standard",
        "status": "active"
      }
    },
    {
      "type": "Feature",
      "geometry": {
        "type": "Point",
        "coordinates": [
          6.6478478,
          46.7788871
        ]
      },
      "properties": {
        "id": 17111,
        "name": "Haldimand",
        "address": "",
        "city": "",
        "capacity": 0,
        "available_bikes": 0,
        "hub_type": "standard",
        "status": "active"
      }
    },
    {
      "type": "Feature",
      "geometry": {
        "type": "Point",
        "coordinates": [
          6.6437606,
          46.7867249
        ]
      },
      "properties": {
        "id": 17242,
        "name": "Collesano",
        "address": "",
        "city": "",
        "capacity": 0,
        "available_bikes": 0,
        "hub_type": "standard",
        "status": "active"
      }
    },
    {
      "type": "Feature",
      "geometry": {
        "type": "Point",
        "coordinates": [
          6.6333266,
          46.7844836
        ]
      },
      "properties": {
        "id": 17291,
        "name": "Mujon",
        "address": "",
        "city": "",
        "capacity": 0,
        "available_bikes": 0,
        "hub_type": "standard",
        "status": "active"
      }
    },
    {
      "type": "Feature",
      "geometry": {
        "type": "Point",
        "coordinates": [
          6.64101,
          46.7684825
        ]
      },
      "properties": {
        "id": 21308,
        "name": "Pierre de Savoie",
        "address": "",
        "city": "",
        "capacity": 0,
        "available_bikes": 0,
        "hub_type": "standard",
        "status": "active"
      }
    },
    {
      "type": "Feature",
      "geometry": {
        "type": "Point",
        "coordinates": [
          6.6457893,
          46.7827357
        ]
      },
      "properties": {
        "id": 17113,
        "name": "Stade ",
        "address": "",
        "city": "",
        "capacity": 0,
        "available_bikes": 0,
        "hub_type": "standard",
        "status": "active"
      }
    },
    {
      "type": "Feature",
      "geometry": {
        "type": "Point",
        "coordinates": [
          6.6373107,
          46.7793069
        ]
      },
      "properties": {
        "id": 16279,
        "name": "Casernes",
        "address": "",
        "city": "",
        "capacity": 0,
        "available_bikes": 0,
        "hub_type": "standard",
        "status": "active"
      }
    },
    {
      "type": "Feature",
      "geometry": {
        "type": "Point",
        "coordinates": [
          6.6522819,
          46.7780072
        ]
      },
      "properties": {
        "id": 17112,
        "name": "Scierie",
        "address": "",
        "city": "",
        "capacity": 0,
        "available_bikes": 0,
        "hub_type": "standard",
        "status": "active"
      }
    },
    {
      "type": "Feature",
      "geometry": {
        "type": "Point",
        "coordinates": [
          6.7573493,
          46.8777655
        ]
      },
      "properties": {
        "id": 19409,
        "name": "Vaumarcus - VD",
        "address": "",
        "city": "",
        "capacity": 0,
        "available_bikes": 0,
        "hub_type": "standard",
        "status": "active"
      }
    },
    {
      "type": "Feature",
      "geometry": {
        "type": "Point",
        "coordinates": [
          6.6426457,
          46.7725906
        ]
      },
      "properties": {
        "id": 17296,
        "name": "Centre funéraire",
        "address": "",
        "city": "",
        "capacity": 0,
        "available_bikes": 0,
        "hub_type": "standard",
        "status": "active"
      }
    },
    {
      "type": "Feature",
      "geometry": {
        "type": "Point",
        "coordinates": [
          6.6346759,
          46.7715449
        ]
      },
      "properties": {
        "id": 19986,
        "name": "Trois-Lacs",
        "address": "",
        "city": "",
        "capacity": 0,
        "available_bikes": 0,
        "hub_type": "standard",
        "status": "active"
      }
    },
    {
      "type": "Feature",
      "geometry": {
        "type": "Point",
        "coordinates": [
          6.6509388,
          46.7798224
        ]
      },
      "properties": {
        "id": 19418,
        "name": "Jardins du Coeur",
        "address": "",
        "city": "",
        "capacity": 0,
        "available_bikes": 0,
        "hub_type": "standard",
        "status": "active"
      }
    },
    {
      "type": "Feature",
      "geometry": {
        "type": "Point",
        "coordinates": [
          6.6453401,
          46.7792686
        ]
      },
      "properties": {
        "id": 18779,
        "name": "Maison-Rouge",
        "address": "",
        "city": "",
        "capacity": 0,
        "available_bikes": 0,
        "hub_type": "standard",
        "status": "active"
      }
    },
    {
      "type": "Feature",
      "geometry": {
        "type": "Point",
        "coordinates": [
          6.6359921,
          46.7720754
        ]
      },
      "properties": {
        "id": 17128,
        "name": "Iles",
        "address": "",
        "city": "",
        "capacity": 0,
        "available_bikes": 0,
        "hub_type": "standard",
        "status": "active"
      }
    },
    {
      "type": "Feature",
      "geometry": {
        "type": "Point",
        "coordinates": [
          6.6456452,
          46.774497
        ]
      },
      "properties": {
        "id": 17295,
        "name": "Aulus Faustus",
        "address": "",
        "city": "",
        "capacity": 0,
        "available_bikes": 0,
        "hub_type": "standard",
        "status": "active"
      }
    },
    {
      "type": "Feature",
      "geometry": {
        "type": "Point",
        "coordinates": [
          6.6496881,
          46.7724618
        ]
      },
      "properties": {
        "id": 16330,
        "name": "Avenue des Bains",
        "address": "",
        "city": "",
        "capacity": 0,
        "available_bikes": 0,
        "hub_type": "standard",
        "status": "active"
      }
    },
    {
      "type": "Feature",
      "geometry": {
        "type": "Point",
        "coordinates": [
          6.6367135,
          46.7818434
        ]
      },
      "properties": {
        "id": 16877,
        "name": "Vautier",
        "address": "",
        "city": "",
        "capacity": 0,
        "available_bikes": 0,
        "hub_type": "standard",
        "status": "active"
      }
    },
    {
      "type": "Feature",
      "geometry": {
        "type": "Point",
        "coordinates": [
          6.6461271,
          46.764909
        ]
      },
      "properties": {
        "id": 14435,
        "name": "Y-Parc, Galilée",
        "address": "",
        "city": "",
        "capacity": 0,
        "available_bikes": 0,
        "hub_type": "standard",
        "status": "active"
      }
    },
    {
      "type": "Feature",
      "geometry": {
        "type": "Point",
        "coordinates": [
          6.6577762,
          46.7774189
        ]
      },
      "properties": {
        "id": 19553,
        "name": "Villette",
        "address": "",
        "city": "",
        "capacity": 0,
        "available_bikes": 0,
        "hub_type": "standard",
        "status": "active"
      }
    },
    {
      "type": "Feature",
      "geometry": {
        "type": "Point",
        "coordinates": [
          6.6342311,
          46.7737937
        ]
      },
      "properties": {
        "id": 16288,
        "name": "CPNV",
        "address": "",
        "city": "",
        "capacity": 0,
        "available_bikes": 0,
        "hub_type": "standard",
        "status": "active"
      }
    },
    {
      "type": "Feature",
      "geometry": {
        "type": "Point",
        "coordinates": [
          6.6306181,
          46.7877183
        ]
      },
      "properties": {
        "id": 17290,
        "name": "Avenue de Grandson",
        "address": "",
        "city": "",
        "capacity": 0,
        "available_bikes": 0,
        "hub_type": "standard",
        "status": "active"
      }
    },
    {
      "type": "Feature",
      "geometry": {
        "type": "Point",
        "coordinates": [
          6.6399975,
          46.7799374
        ]
      },
      "properties": {
        "id": 16281,
        "name": "Remparts",
        "address": "",
        "city": "",
        "capacity": 0,
        "available_bikes": 0,
        "hub_type": "standard",
        "status": "active"
      }
    },
    {
      "type": "Feature",
      "geometry": {
        "type": "Point",
        "coordinates": [
          6.6295013,
          46.7747129
        ]
      },
      "properties": {
        "id": 19984,
        "name": "Vuagère",
        "address": "",
        "city": "",
        "capacity": 0,
        "available_bikes": 0,
        "hub_type": "standard",
        "status": "active"
      }
    },
    {
      "type": "Feature",
      "geometry": {
        "type": "Point",
        "coordinates": [
          6.6174077,
          46.7783539
        ]
      },
      "properties": {
        "id": 18764,
        "name": "Chatelard",
        "address": "",
        "city": "",
        "capacity": 0,
        "available_bikes": 0,
        "hub_type": "standard",
        "status": "active"
      }
    },
    {
      "type": "Feature",
      "geometry": {
        "type": "Point",
        "coordinates": [
          6.6451659,
          46.7665527
        ]
      },
      "properties": {
        "id": 17248,
        "name": "Y-Parc, Découvertes",
        "address": "",
        "city": "",
        "capacity": 0,
        "available_bikes": 0,
        "hub_type": "standard",
        "status": "active"
      }
    },
    {
      "type": "Feature",
      "geometry": {
        "type": "Point",
        "coordinates": [
          6.6451896,
          46.7694474
        ]
      },
      "properties": {
        "id": 15147,
        "name": "Jean-André Venel",
        "address": "",
        "city": "",
        "capacity": 0,
        "available_bikes": 0,
        "hub_type": "standard",
        "status": "active"
      }
    },
    {
      "type": "Feature",
      "geometry": {
        "type": "Point",
        "coordinates": [
          6.6384993,
          46.773037
        ]
      },
      "properties": {
        "id": 17252,
        "name": "Indépendance",
        "address": "",
        "city": "",
        "capacity": 0,
        "available_bikes": 0,
        "hub_type": "standard",
        "status": "active"
      }
    },
    {
      "type": "Feature",
      "geometry": {
        "type": "Point",
        "coordinates": [
          6.6461294,
          46.7719437
        ]
      },
      "properties": {
        "id": 17293,
        "name": "eHnV",
        "address": "",
        "city": "",
        "capacity": 0,
        "available_bikes": 0,
        "hub_type": "standard",
        "status": "active"
      }
    },
    {
      "type": "Feature",
      "geometry": {
        "type": "Point",
        "coordinates": [
          6.6270091,
          46.7787539
        ]
      },
      "properties": {
        "id": 19983,
        "name": "Kiener",
        "address": "",
        "city": "",
        "capacity": 0,
        "available_bikes": 0,
        "hub_type": "standard",
        "status": "active"
      }
    },
    {
      "type": "Feature",
      "geometry": {
        "type": "Point",
        "coordinates": [
          6.6429209,
          46.780168
        ]
      },
      "properties": {
        "id": 17892,
        "name": "Office du Tourisme",
        "address": "",
        "city": "",
        "capacity": 0,
        "available_bikes": 0,
        "hub_type": "standard",
        "status": "active"
      }
    },
    {
      "type": "Feature",
      "geometry": {
        "type": "Point",
        "coordinates": [
          6.63965,
          46.7639407
        ]
      },
      "properties": {
        "id": 19987,
        "name": "Y-Parc, Maric",
        "address": "",
        "city": "",
        "capacity": 0,
        "available_bikes": 0,
        "hub_type": "standard",
        "status": "active"
      }
    },
    {
      "type": "Feature",
      "geometry": {
        "type": "Point",
        "coordinates": [
          6.6159699,
          46.7651446
        ]
      },
      "properties": {
        "id": 18761,
        "name": "Aérodrome",
        "address": "",
        "city": "",
        "capacity": 0,
        "available_bikes": 0,
        "hub_type": "standard",
        "status": "active"
      }
    },
    {
      "type": "Feature",
      "geometry": {
        "type": "Point",
        "coordinates": [
          6.6399673,
          46.7867063
        ]
      },
      "properties": {
        "id": 16541,
        "name": "Aviron",
        "address": "",
        "city": "",
        "capacity": 0,
        "available_bikes": 0,
        "hub_type": "standard",
        "status": "active"
      }
    },
    {
      "type": "Feature",
      "geometry": {
        "type": "Point",
        "coordinates": [
          6.6433592,
          46.7604885
        ]
      },
      "properties": {
        "id": 17249,
        "name": "ZI Yverdon-Sud",
        "address": "",
        "city": "",
        "capacity": 0,
        "available_bikes": 0,
        "hub_type": "standard",
        "status": "active"
      }
    },
    {
      "type": "Feature",
      "geometry": {
        "type": "Point",
        "coordinates": [
          6.6643696,
          46.7827456
        ]
      },
      "properties": {
        "id": 17903,
        "name": "Champ-Pittet",
        "address": "",
        "city": "",
        "capacity": 0,
        "available_bikes": 0,
        "hub_type": "standard",
        "status": "active"
      }
    },
    {
      "type": "Feature",
      "geometry": {
        "type": "Point",
        "coordinates": [
          6.6332731,
          46.7752041
        ]
      },
      "properties": {
        "id": 19549,
        "name": "Oiseaux",
        "address": "",
        "city": "",
        "capacity": 0,
        "available_bikes": 0,
        "hub_type": "standard",
        "status": "active"
      }
    },
    {
      "type": "Feature",
      "geometry": {
        "type": "Point",
        "coordinates": [
          6.6386812,
          46.7785389
        ]
      },
      "properties": {
        "id": 17181,
        "name": "Four",
        "address": "",
        "city": "",
        "capacity": 0,
        "available_bikes": 0,
        "hub_type": "standard",
        "status": "active"
      }
    },
    {
      "type": "Feature",
      "geometry": {
        "type": "Point",
        "coordinates": [
          6.6263288,
          46.7735756
        ]
      },
      "properties": {
        "id": 21307,
        "name": "Stade de rugby",
        "address": "",
        "city": "",
        "capacity": 0,
        "available_bikes": 0,
        "hub_type": "standard",
        "status": "active"
      }
    },
    {
      "type": "Feature",
      "geometry": {
        "type": "Point",
        "coordinates": [
          6.638893,
          46.7817152
        ]
      },
      "properties": {
        "id": 18760,
        "name": "Thièle",
        "address": "",
        "city": "",
        "capacity": 0,
        "available_bikes": 0,
        "hub_type": "standard",
        "status": "active"
      }
    },
    {
      "type": "Feature",
      "geometry": {
        "type": "Point",
        "coordinates": [
          6.6270974,
          46.7873595
        ]
      },
      "properties": {
        "id": 17233,
        "name": "Verdan",
        "address": "",
        "city": "",
        "capacity": 0,
        "available_bikes": 0,
        "hub_type": "standard",
        "status": "active"
      }
    },
    {
      "type": "Feature",
      "geometry": {
        "type": "Point",
        "coordinates": [
          6.6214405,
          46.7732291
        ]
      },
      "properties": {
        "id": 19483,
        "name": "Jardins",
        "address": "",
        "city": "",
        "capacity": 0,
        "available_bikes": 0,
        "hub_type": "standard",
        "status": "active"
      }
    },
    {
      "type": "Feature",
      "geometry": {
        "type": "Point",
        "coordinates": [
          6.6510047,
          46.7666082
        ]
      },
      "properties": {
        "id": 17529,
        "name": "Champs-Lovats",
        "address": "",
        "city": "",
        "capacity": 0,
        "available_bikes": 0,
        "hub_type": "standard",
        "status": "active"
      }
    },
    {
      "type": "Feature",
      "geometry": {
        "type": "Point",
        "coordinates": [
          6.6476773,
          46.7716581
        ]
      },
      "properties": {
        "id": 16305,
        "name": "Centre Thermal",
        "address": "",
        "city": "",
        "capacity": 0,
        "available_bikes": 0,
        "hub_type": "standard",
        "status": "active"
      }
    },
    {
      "type": "Feature",
      "geometry": {
        "type": "Point",
        "coordinates": [
          6.6430736,
          46.7655784
        ]
      },
      "properties": {
        "id": 24061,
        "name": "Y-Parc, Pythagore",
        "address": "",
        "city": "",
        "capacity": 0,
        "available_bikes": 0,
        "hub_type": "standard",
        "status": "active"
      }
    }
  ],
  "metadata": {
    "city": "yverdon-les-bains",
    "total_hubs": 82,
    "generated_at": "2025-08-25T14:24:04.867Z",
    "endpoints": [
      "https://stables.donkey.bike/api/public/cities/240/hubs/"
    ]
  }
}