[
  {
    "id": 33328,
    "name": "Centervej 46-52",
    "latitude": "56.1943288",
    "longitude": "10.205589",
    "thumbnail_url": ""
  },
  {
    "id": 5566,
    "name": "Ravnsøvej 42",
    "latitude": "56.2018657",
    "longitude": "10.2458536",
    "thumbnail_url": ""
  },
  {
    "id": 4518,
    "name": "Harbor Bath, traffic island",
    "latitude": "56.1644999",
    "longitude": "10.2239062",
    "thumbnail_url": ""
  },
  {
    "id": 5212,
    "name": "Bernhard Jensen Blvd_2",
    "latitude": "56.1668982",
    "longitude": "10.2286363",
    "thumbnail_url": ""
  },
  {
    "id": 23973,
    "name": "Haderslevgade 4",
    "latitude": "56.1454421",
    "longitude": "10.1866533",
    "thumbnail_url": ""
  },
  {
    "id": 31210,
    "name": "Klokhøjen",
    "latitude": "56.2122769",
    "longitude": "10.1640346",
    "thumbnail_url": ""
  },
  {
    "id": 3845,
    "name": "Havnegade/Skolegade",
    "latitude": "56.1561109",
    "longitude": "10.2131599",
    "thumbnail_url": ""
  },
  {
    "id": 13331,
    "name": "Lystrupvej",
    "latitude": "56.1996758",
    "longitude": "10.2377155",
    "thumbnail_url": ""
  },
  {
    "id": 15467,
    "name": "Rema 1000 Søren Frichs Vej",
    "latitude": "56.1526841",
    "longitude": "10.185958",
    "thumbnail_url": ""
  },
  {
    "id": 33315,
    "name": "Hasle Ringvej",
    "latitude": "56.1738312",
    "longitude": "10.1664818",
    "thumbnail_url": ""
  },
  {
    "id": 23875,
    "name": "Lidl",
    "latitude": "56.1688745",
    "longitude": "10.1612914",
    "thumbnail_url": ""
  },
  {
    "id": 4918,
    "name": "Campground",
    "latitude": "56.1101681",
    "longitude": "10.2318335",
    "thumbnail_url": ""
  },
  {
    "id": 4346,
    "name": "Corner Bus Station",
    "latitude": "56.1515931",
    "longitude": "10.2080718",
    "thumbnail_url": ""
  },
  {
    "id": 4886,
    "name": "Nørre Alle",
    "latitude": "56.159852",
    "longitude": "10.2043851",
    "thumbnail_url": ""
  },
  {
    "id": 32883,
    "name": "AUH Indgang F",
    "latitude": "56.1902193",
    "longitude": "10.1733848",
    "thumbnail_url": ""
  },
  {
    "id": 5011,
    "name": "Kystpromenaden, Parking",
    "latitude": "56.1646704",
    "longitude": "10.2213155",
    "thumbnail_url": ""
  },
  {
    "id": 4996,
    "name": "Fitness World, Nørrebrogade",
    "latitude": "56.1635485",
    "longitude": "10.2104509",
    "thumbnail_url": ""
  },
  {
    "id": 19545,
    "name": "Jens Chr. Skous Vej 20",
    "latitude": "56.1733846",
    "longitude": "10.2046255",
    "thumbnail_url": ""
  },
  {
    "id": 4343,
    "name": "Moesgaard Museum",
    "latitude": "56.0884113",
    "longitude": "10.222093",
    "thumbnail_url": ""
  },
  {
    "id": 4516,
    "name": "Mariane Thomsens Gade, Apartments",
    "latitude": "56.1657958",
    "longitude": "10.2292036",
    "thumbnail_url": ""
  },
  {
    "id": 4139,
    "name": "Viby Centret",
    "latitude": "56.1292665",
    "longitude": "10.1624367",
    "thumbnail_url": ""
  },
  {
    "id": 32757,
    "name": "Pollenvænget",
    "latitude": "56.185753",
    "longitude": "10.1280665",
    "thumbnail_url": ""
  },
  {
    "id": 4986,
    "name": "AU, VAB",
    "latitude": "56.1666152",
    "longitude": "10.2070257",
    "thumbnail_url": ""
  },
  {
    "id": 3920,
    "name": "Rosensgade",
    "latitude": "56.1576336",
    "longitude": "10.2105002",
    "thumbnail_url": ""
  },
  {
    "id": 4888,
    "name": "Harbor Apartments",
    "latitude": "56.1647437",
    "longitude": "10.2269921",
    "thumbnail_url": ""
  },
  {
    "id": 5002,
    "name": "Sønderborggade 9",
    "latitude": "56.1409911",
    "longitude": "10.1815826",
    "thumbnail_url": ""
  },
  {
    "id": 33332,
    "name": "Arresøvej",
    "latitude": "56.2022864",
    "longitude": "10.2352888",
    "thumbnail_url": ""
  },
  {
    "id": 3827,
    "name": "Dokk1_1",
    "latitude": "56.1530159",
    "longitude": "10.2126878",
    "thumbnail_url": ""
  },
  {
    "id": 3858,
    "name": " Mølleparken",
    "latitude": "56.1555679",
    "longitude": "10.1998595",
    "thumbnail_url": ""
  },
  {
    "id": 32485,
    "name": "Sigridsvej",
    "latitude": "56.1550052",
    "longitude": "10.130459",
    "thumbnail_url": ""
  },
  {
    "id": 32871,
    "name": "Aarhus 1900",
    "latitude": "56.1345867",
    "longitude": "10.196715",
    "thumbnail_url": ""
  },
  {
    "id": 4358,
    "name": "Netto, Vestre Ringgade",
    "latitude": "56.1547326",
    "longitude": "10.1824531",
    "thumbnail_url": ""
  },
  {
    "id": 32345,
    "name": "Ikea lot",
    "latitude": "56.2035507",
    "longitude": "10.180172",
    "thumbnail_url": ""
  },
  {
    "id": 4517,
    "name": "Havenes Fiskerhus",
    "latitude": "56.1654098",
    "longitude": "10.2189102",
    "thumbnail_url": ""
  },
  {
    "id": 3904,
    "name": "Aarhus University Student House",
    "latitude": "56.1712064",
    "longitude": "10.2004409",
    "thumbnail_url": ""
  },
  {
    "id": 4347,
    "name": "Escapist",
    "latitude": "56.1584156",
    "longitude": "10.2025913",
    "thumbnail_url": ""
  },
  {
    "id": 3912,
    "name": "Ester Aggebos Gade",
    "latitude": "56.1661524",
    "longitude": "10.2264469",
    "thumbnail_url": ""
  },
  {
    "id": 4968,
    "name": "Thomas Nielsens Gade",
    "latitude": "56.1593603",
    "longitude": "10.1836233",
    "thumbnail_url": ""
  },
  {
    "id": 4891,
    "name": "Deer Park Main Entrance",
    "latitude": "56.12309",
    "longitude": "10.2186745",
    "thumbnail_url": ""
  },
  {
    "id": 4255,
    "name": "Brabrand Football Oval",
    "latitude": "56.1502206",
    "longitude": "10.1179737",
    "thumbnail_url": ""
  },
  {
    "id": 3907,
    "name": "Hjortholmsvej/Østbanen",
    "latitude": "56.1633098",
    "longitude": "10.2168265",
    "thumbnail_url": ""
  },
  {
    "id": 4254,
    "name": "Gårdbutikker",
    "latitude": "56.1552372",
    "longitude": "10.164743",
    "thumbnail_url": ""
  },
  {
    "id": 4988,
    "name": "Søauditoriene",
    "latitude": "56.1669933",
    "longitude": "10.2049819",
    "thumbnail_url": ""
  },
  {
    "id": 3892,
    "name": "Aarhus BSS_Studenterlauget",
    "latitude": "56.1626044",
    "longitude": "10.1839051",
    "thumbnail_url": ""
  },
  {
    "id": 3889,
    "name": "Botanisk Have",
    "latitude": "56.1605544",
    "longitude": "10.1927745",
    "thumbnail_url": ""
  },
  {
    "id": 5591,
    "name": "Viborgvej 24",
    "latitude": "56.1604771",
    "longitude": "10.1848629",
    "thumbnail_url": ""
  },
  {
    "id": 14462,
    "name": "Strandvejen 37",
    "latitude": "56.1264172",
    "longitude": "10.2137192",
    "thumbnail_url": ""
  },
  {
    "id": 3930,
    "name": "Randersvej/Stockholmsgade Letbanen stop (Syd)",
    "latitude": "56.1780951",
    "longitude": "10.1999664",
    "thumbnail_url": ""
  },
  {
    "id": 4137,
    "name": "Ceres Park",
    "latitude": "56.1571294",
    "longitude": "10.1944596",
    "thumbnail_url": ""
  },
  {
    "id": 31558,
    "name": "Hedeager 2",
    "latitude": "56.1924196",
    "longitude": "10.1805121",
    "thumbnail_url": ""
  },
  {
    "id": 22628,
    "name": "DR Vejret",
    "latitude": "56.1539823",
    "longitude": "10.2135837",
    "thumbnail_url": ""
  },
  {
    "id": 15890,
    "name": "Søren Frichs Vej 59",
    "latitude": "56.1501288",
    "longitude": "10.1655742",
    "thumbnail_url": ""
  },
  {
    "id": 3880,
    "name": "Aros",
    "latitude": "56.1545771",
    "longitude": "10.1991004",
    "thumbnail_url": ""
  },
  {
    "id": 32756,
    "name": "Honningvænget",
    "latitude": "56.1850951",
    "longitude": "10.1240489",
    "thumbnail_url": ""
  },
  {
    "id": 3927,
    "name": "Aarhus University-Nørrebrogade Parking",
    "latitude": "56.1712613",
    "longitude": "10.2053186",
    "thumbnail_url": ""
  },
  {
    "id": 6554,
    "name": "Sports complex Risskov",
    "latitude": "56.1947277",
    "longitude": "10.2470269",
    "thumbnail_url": ""
  },
  {
    "id": 32347,
    "name": "elbek",
    "latitude": "56.1977597",
    "longitude": "10.1743883",
    "thumbnail_url": ""
  },
  {
    "id": 5007,
    "name": "Viby Stadion",
    "latitude": "56.1265574",
    "longitude": "10.1574129",
    "thumbnail_url": ""
  },
  {
    "id": 3849,
    "name": "Navitas/Bestseller",
    "latitude": "56.1591002",
    "longitude": "10.2150153",
    "thumbnail_url": ""
  },
  {
    "id": 6219,
    "name": "Stadion Allé/Marselis blvd",
    "latitude": "56.1406417",
    "longitude": "10.1949678",
    "thumbnail_url": ""
  },
  {
    "id": 33373,
    "name": "Damagervej 1",
    "latitude": "56.1320691",
    "longitude": "10.1567383",
    "thumbnail_url": ""
  },
  {
    "id": 3928,
    "name": "Aarhus University_Letbanen stop_Randersvej",
    "latitude": "56.1717824",
    "longitude": "10.2039",
    "thumbnail_url": ""
  },
  {
    "id": 3872,
    "name": "Jægergårdsgade/SuperBrugsen",
    "latitude": "56.1480212",
    "longitude": "10.1977625",
    "thumbnail_url": ""
  },
  {
    "id": 19274,
    "name": "Viby ringvej/søren frichs vej",
    "latitude": "56.1466833",
    "longitude": "10.1520587",
    "thumbnail_url": ""
  },
  {
    "id": 3882,
    "name": "Godsbanen-Radar",
    "latitude": "56.1529437",
    "longitude": "10.1938658",
    "thumbnail_url": ""
  },
  {
    "id": 3881,
    "name": "Scandinavian Center/Godsbanen Side",
    "latitude": "56.1527423",
    "longitude": "10.1950731",
    "thumbnail_url": ""
  },
  {
    "id": 3825,
    "name": "City Hall Tower",
    "latitude": "56.1516103",
    "longitude": "10.2030446",
    "thumbnail_url": ""
  },
  {
    "id": 4360,
    "name": "Carl Blochs Gade, Apartments",
    "latitude": "56.1526303",
    "longitude": "10.1897697",
    "thumbnail_url": ""
  },
  {
    "id": 24549,
    "name": "Arresøvej",
    "latitude": "56.2042092",
    "longitude": "10.2326918",
    "thumbnail_url": ""
  },
  {
    "id": 3838,
    "name": "Canal Street/London Bar",
    "latitude": "56.1555255",
    "longitude": "10.2092275",
    "thumbnail_url": ""
  },
  {
    "id": 12705,
    "name": "Grønnegade/Vestergade",
    "latitude": "56.1577568",
    "longitude": "10.2029698",
    "thumbnail_url": ""
  },
  {
    "id": 6694,
    "name": "Magasin",
    "latitude": "56.1571583",
    "longitude": "10.2070314",
    "thumbnail_url": ""
  },
  {
    "id": 32539,
    "name": "Bartholin's Allé",
    "latitude": "56.1708167",
    "longitude": "10.2028917",
    "thumbnail_url": ""
  },
  {
    "id": 32416,
    "name": "Marselisborg Lystbådehavn Caravan",
    "latitude": "56.139503",
    "longitude": "10.2194883",
    "thumbnail_url": ""
  },
  {
    "id": 21803,
    "name": "Søren Frichs Vej 27",
    "latitude": "56.1508491",
    "longitude": "10.170837",
    "thumbnail_url": ""
  },
  {
    "id": 22021,
    "name": "Arkitektskolen Aarhus",
    "latitude": "56.1531588",
    "longitude": "10.1914726",
    "thumbnail_url": ""
  },
  {
    "id": 16469,
    "name": "Aarhus Lystbådehavn",
    "latitude": "56.1656602",
    "longitude": "10.2231958",
    "thumbnail_url": ""
  },
  {
    "id": 33330,
    "name": "Nyringen 25",
    "latitude": "56.191787",
    "longitude": "10.2035107",
    "thumbnail_url": ""
  },
  {
    "id": 19862,
    "name": "Åby Ringvej/Viborgvej",
    "latitude": "56.1708107",
    "longitude": "10.156518",
    "thumbnail_url": ""
  },
  {
    "id": 3883,
    "name": "Godsbanen_1",
    "latitude": "56.1543701",
    "longitude": "10.1943442",
    "thumbnail_url": ""
  },
  {
    "id": 4520,
    "name": "Paradisgade 6",
    "latitude": "56.1601301",
    "longitude": "10.2098759",
    "thumbnail_url": ""
  },
  {
    "id": 12948,
    "name": "Viby Ringvej/Skanderborgvej",
    "latitude": "56.1287263",
    "longitude": "10.1615594",
    "thumbnail_url": ""
  },
  {
    "id": 6918,
    "name": "Åboulevarden 41",
    "latitude": "56.1566316",
    "longitude": "10.2067441",
    "thumbnail_url": ""
  },
  {
    "id": 4359,
    "name": "Gröne’s Cafe, Søren Frichs Vej",
    "latitude": "56.1528099",
    "longitude": "10.1780632",
    "thumbnail_url": ""
  },
  {
    "id": 3851,
    "name": "Åboulevarden 45",
    "latitude": "56.1564434",
    "longitude": "10.2058212",
    "thumbnail_url": ""
  },
  {
    "id": 3908,
    "name": "Skovfaldet/Dronning Margrethes Vej",
    "latitude": "56.1770351",
    "longitude": "10.2185877",
    "thumbnail_url": ""
  },
  {
    "id": 22689,
    "name": "Jens Baggesens vej",
    "latitude": "56.168551",
    "longitude": "10.1896369",
    "thumbnail_url": ""
  },
  {
    "id": 4345,
    "name": "Moesgaard Beach",
    "latitude": "56.0887795",
    "longitude": "10.24757",
    "thumbnail_url": ""
  },
  {
    "id": 5468,
    "name": "Dagmar Petersens Gade",
    "latitude": "56.1654115",
    "longitude": "10.2237522",
    "thumbnail_url": ""
  },
  {
    "id": 32901,
    "name": "Åbyvej 79",
    "latitude": "56.1488211",
    "longitude": "10.1651356",
    "thumbnail_url": ""
  },
  {
    "id": 3925,
    "name": "Letbanen Nørreport/Nørregade",
    "latitude": "56.1617383",
    "longitude": "10.2119281",
    "thumbnail_url": ""
  },
  {
    "id": 4999,
    "name": "Hendrik Pontoppidans Gade 2",
    "latitude": "56.1451774",
    "longitude": "10.2057838",
    "thumbnail_url": ""
  },
  {
    "id": 4998,
    "name": "Daugbjergvej 17",
    "latitude": "56.1550546",
    "longitude": "10.1839198",
    "thumbnail_url": ""
  },
  {
    "id": 5145,
    "name": "Læssøegade 45",
    "latitude": "56.1477949",
    "longitude": "10.1917934",
    "thumbnail_url": ""
  },
  {
    "id": 33298,
    "name": "Dalgas Ave",
    "latitude": "56.1422935",
    "longitude": "10.2024405",
    "thumbnail_url": ""
  },
  {
    "id": 23883,
    "name": "Klokkeskovvej",
    "latitude": "56.1290674",
    "longitude": "10.1158464",
    "thumbnail_url": ""
  },
  {
    "id": 4341,
    "name": "Fakta Q, Risskov",
    "latitude": "56.192605",
    "longitude": "10.2422693",
    "thumbnail_url": ""
  },
  {
    "id": 4997,
    "name": "Høegh-Guldbergs Gade 6A",
    "latitude": "56.1637291",
    "longitude": "10.2072068",
    "thumbnail_url": ""
  },
  {
    "id": 8585,
    "name": "Kirkedammen 25",
    "latitude": "56.140124",
    "longitude": "10.1781453",
    "thumbnail_url": ""
  },
  {
    "id": 13374,
    "name": "Aarhus Central Station ",
    "latitude": "56.1505612",
    "longitude": "10.2049348",
    "thumbnail_url": ""
  },
  {
    "id": 3962,
    "name": "Bora Bora/HQ",
    "latitude": "56.1520025",
    "longitude": "10.1999158",
    "thumbnail_url": ""
  },
  {
    "id": 32880,
    "name": "Stengade",
    "latitude": "56.1076184",
    "longitude": "10.2073342",
    "thumbnail_url": ""
  },
  {
    "id": 5466,
    "name": "Klostertovet",
    "latitude": "56.1584801",
    "longitude": "10.2062316",
    "thumbnail_url": ""
  },
  {
    "id": 3843,
    "name": "Old Irish",
    "latitude": "56.1562918",
    "longitude": "10.2098117",
    "thumbnail_url": ""
  },
  {
    "id": 3886,
    "name": "Gamle By main entrance",
    "latitude": "56.1589332",
    "longitude": "10.190052",
    "thumbnail_url": ""
  },
  {
    "id": 13231,
    "name": "Student Bar_Frederik Nielsens Vej",
    "latitude": "56.1720026",
    "longitude": "10.1996111",
    "thumbnail_url": ""
  },
  {
    "id": 28929,
    "name": "Risskov Bibliotek",
    "latitude": "56.1938325",
    "longitude": "10.2235461",
    "thumbnail_url": ""
  },
  {
    "id": 32297,
    "name": "Børnehuset Ved Skoven",
    "latitude": "56.2005196",
    "longitude": "10.2061195",
    "thumbnail_url": ""
  },
  {
    "id": 33312,
    "name": "Egå Havvej/Grenåvej (Aarhus Kom)",
    "latitude": "56.212835",
    "longitude": "10.2790527",
    "thumbnail_url": ""
  },
  {
    "id": 15645,
    "name": "Trøjborgvej 22",
    "latitude": "56.1693931",
    "longitude": "10.2153463",
    "thumbnail_url": ""
  },
  {
    "id": 3929,
    "name": "Brenstrupvej_Kiosk 25_Letbanen stop",
    "latitude": "56.1743591",
    "longitude": "10.2024344",
    "thumbnail_url": ""
  },
  {
    "id": 3844,
    "name": "Aarhus Theatre/Cafe Hack",
    "latitude": "56.1562462",
    "longitude": "10.2111507",
    "thumbnail_url": ""
  },
  {
    "id": 3830,
    "name": "Frederiksgade_Rema 1000",
    "latitude": "56.1534695",
    "longitude": "10.2028884",
    "thumbnail_url": ""
  },
  {
    "id": 3895,
    "name": "Aarhus University Library",
    "latitude": "56.1699309",
    "longitude": "10.199254",
    "thumbnail_url": ""
  },
  {
    "id": 3932,
    "name": "Nydamsvej/Randersvej, Aarhus Tech",
    "latitude": "56.1869652",
    "longitude": "10.1947687",
    "thumbnail_url": ""
  },
  {
    "id": 29742,
    "name": "Eskelunden",
    "latitude": "56.139956",
    "longitude": "10.1682889",
    "thumbnail_url": ""
  },
  {
    "id": 26269,
    "name": "Dortesvej",
    "latitude": "56.1587149",
    "longitude": "10.134939",
    "thumbnail_url": ""
  },
  {
    "id": 17683,
    "name": "Havnehottelet",
    "latitude": "56.1393819",
    "longitude": "10.2145308",
    "thumbnail_url": ""
  },
  {
    "id": 3885,
    "name": "Folkestedet",
    "latitude": "56.1552468",
    "longitude": "10.1941229",
    "thumbnail_url": ""
  },
  {
    "id": 31753,
    "name": "Frederikshaldsgade",
    "latitude": "56.1773871",
    "longitude": "10.1962657",
    "thumbnail_url": ""
  },
  {
    "id": 30167,
    "name": "Helsingforsgade",
    "latitude": "56.1719974",
    "longitude": "10.1951087",
    "thumbnail_url": ""
  },
  {
    "id": 4336,
    "name": "Tordenskjoldsgade",
    "latitude": "56.170854",
    "longitude": "10.2162384",
    "thumbnail_url": ""
  },
  {
    "id": 12709,
    "name": "Guldsmedgade Føtex",
    "latitude": "56.1585899",
    "longitude": "10.2073824",
    "thumbnail_url": ""
  },
  {
    "id": 6256,
    "name": "Søren Frichs Vej 53",
    "latitude": "56.1500007",
    "longitude": "10.1685219",
    "thumbnail_url": ""
  },
  {
    "id": 3913,
    "name": "Bernhard Jensens Blvd_1",
    "latitude": "56.1651369",
    "longitude": "10.2243511",
    "thumbnail_url": ""
  },
  {
    "id": 3923,
    "name": "Mindebrogade",
    "latitude": "56.1543236",
    "longitude": "10.2118497",
    "thumbnail_url": ""
  },
  {
    "id": 15784,
    "name": "Langelinieparken",
    "latitude": "56.166508",
    "longitude": "10.2183495",
    "thumbnail_url": ""
  },
  {
    "id": 3874,
    "name": "Sct. Pauls Kirke",
    "latitude": "56.1458477",
    "longitude": "10.2041886",
    "thumbnail_url": ""
  },
  {
    "id": 7999,
    "name": "Søren Frichs Vej 55",
    "latitude": "56.1498133",
    "longitude": "10.1665406",
    "thumbnail_url": ""
  },
  {
    "id": 4005,
    "name": "Skolebakken/Cafe Cross",
    "latitude": "56.1573216",
    "longitude": "10.213342",
    "thumbnail_url": ""
  },
  {
    "id": 23558,
    "name": "Grundtvigsvej",
    "latitude": "56.1302264",
    "longitude": "10.1741546",
    "thumbnail_url": ""
  },
  {
    "id": 16236,
    "name": "Jægergårdsgade 154",
    "latitude": "56.1482509",
    "longitude": "10.209979",
    "thumbnail_url": ""
  },
  {
    "id": 15775,
    "name": "Borresøvej",
    "latitude": "56.2038002",
    "longitude": "10.2341407",
    "thumbnail_url": ""
  },
  {
    "id": 15849,
    "name": "Ceres Allé 3",
    "latitude": "56.1551621",
    "longitude": "10.1911836",
    "thumbnail_url": ""
  },
  {
    "id": 21882,
    "name": "Favilla Studio",
    "latitude": "56.1528507",
    "longitude": "10.1931698",
    "thumbnail_url": ""
  },
  {
    "id": 3863,
    "name": "Spanien/Train ",
    "latitude": "56.1518169",
    "longitude": "10.2112428",
    "thumbnail_url": ""
  },
  {
    "id": 3893,
    "name": "Gustav Wieds Vej/Langelandsgade",
    "latitude": "56.1691516",
    "longitude": "10.1976561",
    "thumbnail_url": ""
  },
  {
    "id": 33133,
    "name": "Rundhøj Alle",
    "latitude": "56.1205775",
    "longitude": "10.181708",
    "thumbnail_url": ""
  },
  {
    "id": 20142,
    "name": "Sydhavnsgade 7",
    "latitude": "56.144827",
    "longitude": "10.2096395",
    "thumbnail_url": ""
  },
  {
    "id": 14460,
    "name": "De Mezas Vej",
    "latitude": "56.1450995",
    "longitude": "10.1911739",
    "thumbnail_url": ""
  },
  {
    "id": 15548,
    "name": "Jyllands Allé 11",
    "latitude": "56.1417465",
    "longitude": "10.190396",
    "thumbnail_url": ""
  },
  {
    "id": 27884,
    "name": "This Jensens Gade 26",
    "latitude": "56.1643274",
    "longitude": "10.2292897",
    "thumbnail_url": ""
  },
  {
    "id": 18383,
    "name": "Badcafé ",
    "latitude": "56.1370407",
    "longitude": "10.2131882",
    "thumbnail_url": ""
  },
  {
    "id": 4339,
    "name": "Veri Center, Risskov",
    "latitude": "56.1894327",
    "longitude": "10.215598",
    "thumbnail_url": ""
  },
  {
    "id": 13038,
    "name": "Lokesvej 13",
    "latitude": "56.1490561",
    "longitude": "10.1684832",
    "thumbnail_url": ""
  },
  {
    "id": 16057,
    "name": "Fitness World_Jens Baggesens Vej",
    "latitude": "56.1698658",
    "longitude": "10.1930571",
    "thumbnail_url": ""
  },
  {
    "id": 3841,
    "name": "Salling",
    "latitude": "56.1540727",
    "longitude": "10.2066444",
    "thumbnail_url": ""
  },
  {
    "id": 31729,
    "name": "sigridvej",
    "latitude": "56.1560155",
    "longitude": "10.1300847",
    "thumbnail_url": ""
  },
  {
    "id": 32747,
    "name": "Fredens Torv",
    "latitude": "56.1540749",
    "longitude": "10.209378",
    "thumbnail_url": ""
  },
  {
    "id": 5014,
    "name": "Netto, Skovvejen",
    "latitude": "56.1644348",
    "longitude": "10.2169257",
    "thumbnail_url": ""
  },
  {
    "id": 3879,
    "name": "Ole Rømers Gade/Seven Eleven",
    "latitude": "56.1470762",
    "longitude": "10.1955511",
    "thumbnail_url": ""
  },
  {
    "id": 22317,
    "name": "Rema Silkeborgvej",
    "latitude": "56.1550982",
    "longitude": "10.1665498",
    "thumbnail_url": ""
  },
  {
    "id": 3869,
    "name": "Banegårdsgade/Nemprint",
    "latitude": "56.1503977",
    "longitude": "10.2017022",
    "thumbnail_url": ""
  },
  {
    "id": 5464,
    "name": "Ceres Allé 18",
    "latitude": "56.1549557",
    "longitude": "10.1881931",
    "thumbnail_url": ""
  },
  {
    "id": 16461,
    "name": "Hammershusvej 39",
    "latitude": "56.172526",
    "longitude": "10.1818102",
    "thumbnail_url": ""
  },
  {
    "id": 22454,
    "name": "Ild pizza Lystrupvej",
    "latitude": "56.203767",
    "longitude": "10.2363865",
    "thumbnail_url": ""
  },
  {
    "id": 32882,
    "name": "Skejby Indgang F",
    "latitude": "56.1906357",
    "longitude": "10.174751",
    "thumbnail_url": ""
  },
  {
    "id": 15044,
    "name": "Letbanen Stop Aarhus Hospital",
    "latitude": "56.1922874",
    "longitude": "10.1768051",
    "thumbnail_url": ""
  },
  {
    "id": 5019,
    "name": "Kirkegårdsvej 26",
    "latitude": "56.1651935",
    "longitude": "10.2126718",
    "thumbnail_url": ""
  },
  {
    "id": 3878,
    "name": "Frederiks Alle-Apotek",
    "latitude": "56.1461425",
    "longitude": "10.1930125",
    "thumbnail_url": ""
  },
  {
    "id": 4030,
    "name": "Tivoli",
    "latitude": "56.137463",
    "longitude": "10.1955673",
    "thumbnail_url": ""
  },
  {
    "id": 3857,
    "name": "Østergade/Jyske Bank",
    "latitude": "56.1544566",
    "longitude": "10.2047022",
    "thumbnail_url": ""
  },
  {
    "id": 3901,
    "name": "Aarhus University/Nørrebrogade",
    "latitude": "56.1703791",
    "longitude": "10.2051555",
    "thumbnail_url": ""
  },
  {
    "id": 16467,
    "name": "Åby Ringvej/ Silkeborgvej",
    "latitude": "56.1540589",
    "longitude": "10.1439145",
    "thumbnail_url": ""
  },
  {
    "id": 3837,
    "name": "City Hall/Rådhuspladsen Entrance",
    "latitude": "56.1528884",
    "longitude": "10.2033404",
    "thumbnail_url": ""
  },
  {
    "id": 6048,
    "name": "Skolebakken_2",
    "latitude": "56.1565964",
    "longitude": "10.2130198",
    "thumbnail_url": ""
  },
  {
    "id": 4490,
    "name": "Fakta, Kongsbergs Pl.",
    "latitude": "56.176782",
    "longitude": "10.2009009",
    "thumbnail_url": ""
  },
  {
    "id": 13289,
    "name": "Dokk1 Front",
    "latitude": "56.1535133",
    "longitude": "10.2128177",
    "thumbnail_url": ""
  },
  {
    "id": 20604,
    "name": "Hostel Book 1",
    "latitude": "56.1569233",
    "longitude": "10.1998075",
    "thumbnail_url": ""
  },
  {
    "id": 3842,
    "name": "Normal/Waxies",
    "latitude": "56.1560067",
    "longitude": "10.2064916",
    "thumbnail_url": ""
  },
  {
    "id": 4492,
    "name": "Amphitheater Botanical Gardens",
    "latitude": "56.1629282",
    "longitude": "10.1853967",
    "thumbnail_url": ""
  },
  {
    "id": 20767,
    "name": "Rolighedsvej",
    "latitude": "56.1844725",
    "longitude": "10.2366608",
    "thumbnail_url": ""
  },
  {
    "id": 3896,
    "name": "Nordre Ringgade/Aarhus University Library",
    "latitude": "56.17067",
    "longitude": "10.1997227",
    "thumbnail_url": ""
  },
  {
    "id": 31849,
    "name": "Egå Marina",
    "latitude": "56.2102322",
    "longitude": "10.2881488",
    "thumbnail_url": ""
  },
  {
    "id": 27453,
    "name": "Ravnsbjerg Kollegiet",
    "latitude": "56.1195383",
    "longitude": "10.1495946",
    "thumbnail_url": ""
  },
  {
    "id": 20782,
    "name": "Viby Torv",
    "latitude": "56.128709",
    "longitude": "10.163355",
    "thumbnail_url": ""
  },
  {
    "id": 4365,
    "name": "Helsingforsgade, Storcenter Nord",
    "latitude": "56.1716034",
    "longitude": "10.1880008",
    "thumbnail_url": ""
  },
  {
    "id": 5354,
    "name": "VUC",
    "latitude": "56.1445896",
    "longitude": "10.1996337",
    "thumbnail_url": ""
  },
  {
    "id": 14095,
    "name": "Grenåvej 150",
    "latitude": "56.1895075",
    "longitude": "10.2187974",
    "thumbnail_url": ""
  },
  {
    "id": 21212,
    "name": "Vilhelm Becks Vej",
    "latitude": "56.1302627",
    "longitude": "10.1766071",
    "thumbnail_url": ""
  },
  {
    "id": 12594,
    "name": "Valhalvej ",
    "latitude": "56.151639",
    "longitude": "10.1740212",
    "thumbnail_url": ""
  },
  {
    "id": 17706,
    "name": "Dirch Passers Gade 3",
    "latitude": "56.1514421",
    "longitude": "10.1848019",
    "thumbnail_url": ""
  },
  {
    "id": 22551,
    "name": "Vestergade/Vesterbro",
    "latitude": "56.157487",
    "longitude": "10.1991082",
    "thumbnail_url": ""
  },
  {
    "id": 16248,
    "name": "Knudrisgade 5",
    "latitude": "56.1624091",
    "longitude": "10.2120593",
    "thumbnail_url": ""
  },
  {
    "id": 27261,
    "name": "Damagervej 9",
    "latitude": "56.1314107",
    "longitude": "10.1566381",
    "thumbnail_url": ""
  },
  {
    "id": 20335,
    "name": "Aarhus Kollegiet lottesvej",
    "latitude": "56.1605808",
    "longitude": "10.1335748",
    "thumbnail_url": ""
  },
  {
    "id": 13612,
    "name": "Ceresbyen",
    "latitude": "56.1557948",
    "longitude": "10.1880685",
    "thumbnail_url": ""
  },
  {
    "id": 22619,
    "name": "Engtoften",
    "latitude": "56.12358",
    "longitude": "10.1690911",
    "thumbnail_url": ""
  },
  {
    "id": 31208,
    "name": "Arca",
    "latitude": "56.1592085",
    "longitude": "10.2069234",
    "thumbnail_url": ""
  },
  {
    "id": 29233,
    "name": "Tretommervej ",
    "latitude": "56.1859806",
    "longitude": "10.2257147",
    "thumbnail_url": ""
  },
  {
    "id": 23842,
    "name": "Thomas Koppels Gade",
    "latitude": "56.1518977",
    "longitude": "10.1887984",
    "thumbnail_url": ""
  },
  {
    "id": 22510,
    "name": "Match Padel",
    "latitude": "56.2090677",
    "longitude": "10.2240591",
    "thumbnail_url": ""
  },
  {
    "id": 29715,
    "name": "Moesgård Alle",
    "latitude": "56.0863467",
    "longitude": "10.22269",
    "thumbnail_url": ""
  },
  {
    "id": 28088,
    "name": "Karen Blixens Blvd. ",
    "latitude": "56.1588932",
    "longitude": "10.1345702",
    "thumbnail_url": ""
  },
  {
    "id": 23562,
    "name": "Scandinavian Center side entrance ",
    "latitude": "56.1525405",
    "longitude": "10.1961108",
    "thumbnail_url": ""
  },
  {
    "id": 20768,
    "name": "Aldersrovej",
    "latitude": "56.1709925",
    "longitude": "10.2117672",
    "thumbnail_url": ""
  },
  {
    "id": 27542,
    "name": "Søren Frichs vej 51",
    "latitude": "56.150569",
    "longitude": "10.1691972",
    "thumbnail_url": ""
  },
  {
    "id": 6259,
    "name": "Peter Sabroes Gade",
    "latitude": "56.1702677",
    "longitude": "10.2089325",
    "thumbnail_url": ""
  },
  {
    "id": 13386,
    "name": "Grenåvej",
    "latitude": "56.1958788",
    "longitude": "10.2203053",
    "thumbnail_url": ""
  },
  {
    "id": 3859,
    "name": " Voxhall",
    "latitude": "56.156076",
    "longitude": "10.1989409",
    "thumbnail_url": ""
  },
  {
    "id": 5469,
    "name": "Dome of Visions",
    "latitude": "56.158337",
    "longitude": "10.2185116",
    "thumbnail_url": ""
  },
  {
    "id": 4138,
    "name": "Paustian",
    "latitude": "56.1625201",
    "longitude": "10.2160433",
    "thumbnail_url": ""
  },
  {
    "id": 18386,
    "name": "Emil Betts Passage 7",
    "latitude": "56.1574083",
    "longitude": "10.2054903",
    "thumbnail_url": ""
  },
  {
    "id": 3848,
    "name": "Navitas",
    "latitude": "56.1585978",
    "longitude": "10.2147739",
    "thumbnail_url": ""
  },
  {
    "id": 3853,
    "name": "Christiansgade/Memphis Roadhouse",
    "latitude": "56.1557301",
    "longitude": "10.2036515",
    "thumbnail_url": ""
  },
  {
    "id": 5000,
    "name": "Fakta, Skanderborgvej",
    "latitude": "56.1427627",
    "longitude": "10.1865688",
    "thumbnail_url": ""
  },
  {
    "id": 3933,
    "name": "Olof Palmes Alle",
    "latitude": "56.1895649",
    "longitude": "10.1836952",
    "thumbnail_url": ""
  },
  {
    "id": 30482,
    "name": "Lyseng Indrætspark",
    "latitude": "56.1124433",
    "longitude": "10.1928833",
    "thumbnail_url": ""
  },
  {
    "id": 3871,
    "name": "Jægergårdsgade/Netto",
    "latitude": "56.1481169",
    "longitude": "10.200945",
    "thumbnail_url": ""
  },
  {
    "id": 3911,
    "name": "Isbjerget",
    "latitude": "56.1652572",
    "longitude": "10.2298091",
    "thumbnail_url": ""
  },
  {
    "id": 19775,
    "name": "Grønningen ",
    "latitude": "56.1602636",
    "longitude": "10.2002451",
    "thumbnail_url": ""
  },
  {
    "id": 32314,
    "name": "søauditorierne",
    "latitude": "56.1665697",
    "longitude": "10.2060338",
    "thumbnail_url": ""
  },
  {
    "id": 31340,
    "name": "Vikingelegeplads ",
    "latitude": "56.1412237",
    "longitude": "10.1653036",
    "thumbnail_url": ""
  },
  {
    "id": 5698,
    "name": "Swimming pool",
    "latitude": "56.1439751",
    "longitude": "10.1961618",
    "thumbnail_url": ""
  },
  {
    "id": 5141,
    "name": "Regenburgsgade 15",
    "latitude": "56.1571309",
    "longitude": "10.1845515",
    "thumbnail_url": ""
  },
  {
    "id": 20816,
    "name": "Telefonsmøgen",
    "latitude": "56.1552295",
    "longitude": "10.2060879",
    "thumbnail_url": ""
  },
  {
    "id": 14304,
    "name": "Irma Pedersens Gade ",
    "latitude": "56.1638934",
    "longitude": "10.2274403",
    "thumbnail_url": ""
  },
  {
    "id": 17402,
    "name": "Thit Jensens Gade",
    "latitude": "56.1640781",
    "longitude": "10.2279899",
    "thumbnail_url": ""
  },
  {
    "id": 6445,
    "name": "Vennelyst Blvd.",
    "latitude": "56.1644596",
    "longitude": "10.2045193",
    "thumbnail_url": ""
  },
  {
    "id": 5875,
    "name": "Medicinerhuset ",
    "latitude": "56.1675996",
    "longitude": "10.2019457",
    "thumbnail_url": ""
  },
  {
    "id": 20962,
    "name": "Bolia",
    "latitude": "56.1502384",
    "longitude": "10.2077425",
    "thumbnail_url": ""
  },
  {
    "id": 3898,
    "name": "Aarhus University Administrationen",
    "latitude": "56.1717074",
    "longitude": "10.2030051",
    "thumbnail_url": ""
  },
  {
    "id": 4136,
    "name": "VIA",
    "latitude": "56.1562855",
    "longitude": "10.1898032",
    "thumbnail_url": ""
  },
  {
    "id": 3899,
    "name": "Nobel Parken/Aarhus University Library",
    "latitude": "56.1719392",
    "longitude": "10.2051052",
    "thumbnail_url": ""
  },
  {
    "id": 15751,
    "name": "Highlanders Bar",
    "latitude": "56.154145",
    "longitude": "10.210979",
    "thumbnail_url": ""
  },
  {
    "id": 3888,
    "name": "Vesterbro Torv",
    "latitude": "56.1582707",
    "longitude": "10.1985975",
    "thumbnail_url": ""
  },
  {
    "id": 15798,
    "name": "Christiansgade 25",
    "latitude": "56.1551834",
    "longitude": "10.202993",
    "thumbnail_url": ""
  },
  {
    "id": 31088,
    "name": "Store Torv",
    "latitude": "56.1573322",
    "longitude": "10.2088865",
    "thumbnail_url": ""
  },
  {
    "id": 22772,
    "name": "Silkeborgvej 12",
    "latitude": "56.1563187",
    "longitude": "10.1801922",
    "thumbnail_url": ""
  },
  {
    "id": 3926,
    "name": "Aarhus University Hospital/Nørrebrogade",
    "latitude": "56.1674504",
    "longitude": "10.2078108",
    "thumbnail_url": ""
  },
  {
    "id": 23817,
    "name": "Intet Navn",
    "latitude": "56.1572424",
    "longitude": "10.2041246",
    "thumbnail_url": ""
  },
  {
    "id": 14389,
    "name": "Møllehatte",
    "latitude": "56.1862837",
    "longitude": "10.2117676",
    "thumbnail_url": ""
  },
  {
    "id": 22263,
    "name": "Stadion Alle",
    "latitude": "56.1360096",
    "longitude": "10.1958033",
    "thumbnail_url": ""
  },
  {
    "id": 20337,
    "name": "Doris Kærsaas Gade",
    "latitude": "56.1962815",
    "longitude": "10.2044605",
    "thumbnail_url": ""
  },
  {
    "id": 26268,
    "name": "Aarhus Universitet 53",
    "latitude": "56.170924",
    "longitude": "10.1956947",
    "thumbnail_url": ""
  },
  {
    "id": 18333,
    "name": "Spættevej 3",
    "latitude": "56.165373",
    "longitude": "10.176504",
    "thumbnail_url": ""
  },
  {
    "id": 23909,
    "name": "Balticagade",
    "latitude": "56.1548544",
    "longitude": "10.2198098",
    "thumbnail_url": ""
  },
  {
    "id": 21782,
    "name": "Lisbjerg Bygade",
    "latitude": "56.21707",
    "longitude": "10.164629",
    "thumbnail_url": ""
  },
  {
    "id": 19913,
    "name": "Business Academy Aarhus Viby",
    "latitude": "56.1197964",
    "longitude": "10.1583828",
    "thumbnail_url": ""
  },
  {
    "id": 3852,
    "name": "Åboulevarden/Huj",
    "latitude": "56.1561933",
    "longitude": "10.2039097",
    "thumbnail_url": ""
  },
  {
    "id": 3866,
    "name": "Ryesgade/IMERCO",
    "latitude": "56.152196",
    "longitude": "10.2049644",
    "thumbnail_url": ""
  },
  {
    "id": 3897,
    "name": "Nordre Ringgade/Nørrebrogade/AU Building 1326",
    "latitude": "56.1711937",
    "longitude": "10.2041061",
    "thumbnail_url": ""
  },
  {
    "id": 23570,
    "name": "Korshøjen",
    "latitude": "56.1999679",
    "longitude": "10.224165",
    "thumbnail_url": ""
  },
  {
    "id": 27326,
    "name": "Grenåvej/Ådalsvej",
    "latitude": "56.2034166",
    "longitude": "10.2548193",
    "thumbnail_url": ""
  },
  {
    "id": 3832,
    "name": "Scandinavian center_Music House",
    "latitude": "56.1525508",
    "longitude": "10.1980712",
    "thumbnail_url": ""
  },
  {
    "id": 4133,
    "name": "Nørregade/Letbanen/AU",
    "latitude": "56.1673903",
    "longitude": "10.2070472",
    "thumbnail_url": ""
  },
  {
    "id": 23910,
    "name": "Hummel",
    "latitude": "56.1553511",
    "longitude": "10.2208904",
    "thumbnail_url": ""
  },
  {
    "id": 23911,
    "name": "Balticgade 16C",
    "latitude": "56.1550108",
    "longitude": "10.2206232",
    "thumbnail_url": ""
  },
  {
    "id": 28248,
    "name": "Føtex Brobjerg ",
    "latitude": "56.2050107",
    "longitude": "10.2624914",
    "thumbnail_url": ""
  },
  {
    "id": 23222,
    "name": "Søvej Brabrand",
    "latitude": "56.1533108",
    "longitude": "10.1041786",
    "thumbnail_url": ""
  },
  {
    "id": 3890,
    "name": "Vestre Ringgade-Bottanisk have",
    "latitude": "56.1642977",
    "longitude": "10.1872515",
    "thumbnail_url": ""
  },
  {
    "id": 8285,
    "name": "Skejby Centret",
    "latitude": "56.1942929",
    "longitude": "10.1944566",
    "thumbnail_url": ""
  },
  {
    "id": 16514,
    "name": "Vestre Ringgade #2",
    "latitude": "56.1659074",
    "longitude": "10.1877422",
    "thumbnail_url": ""
  },
  {
    "id": 29050,
    "name": "Visma",
    "latitude": "56.1106784",
    "longitude": "10.1590695",
    "thumbnail_url": ""
  },
  {
    "id": 27878,
    "name": "Silkeborgvej/Tinesvej",
    "latitude": "56.1531891",
    "longitude": "10.1359582",
    "thumbnail_url": ""
  },
  {
    "id": 15121,
    "name": "Ceres Haven",
    "latitude": "56.1561977",
    "longitude": "10.1941905",
    "thumbnail_url": ""
  },
  {
    "id": 8582,
    "name": "Nordborggade 24",
    "latitude": "56.1454037",
    "longitude": "10.1855004",
    "thumbnail_url": ""
  },
  {
    "id": 26167,
    "name": "Bjødstrupvej",
    "latitude": "56.1079547",
    "longitude": "10.168024",
    "thumbnail_url": ""
  },
  {
    "id": 14098,
    "name": "Helga Perdersens Gade",
    "latitude": "56.1658952",
    "longitude": "10.2301118",
    "thumbnail_url": ""
  },
  {
    "id": 23557,
    "name": "Byvangen",
    "latitude": "56.1300976",
    "longitude": "10.1694819",
    "thumbnail_url": ""
  },
  {
    "id": 15551,
    "name": "Dalgas Ave 8",
    "latitude": "56.1433674",
    "longitude": "10.201001",
    "thumbnail_url": ""
  },
  {
    "id": 26938,
    "name": "N.J. Fjords Gade",
    "latitude": "56.1431949",
    "longitude": "10.1997083",
    "thumbnail_url": ""
  },
  {
    "id": 3862,
    "name": "Aarhus Rutebilstation",
    "latitude": "56.1519179",
    "longitude": "10.2103436",
    "thumbnail_url": ""
  },
  {
    "id": 31835,
    "name": "Frendsvang Ruddel",
    "latitude": "56.1270219",
    "longitude": "10.1849278",
    "thumbnail_url": ""
  },
  {
    "id": 31704,
    "name": "Football stadium ",
    "latitude": "56.1913889",
    "longitude": "10.2098685",
    "thumbnail_url": ""
  },
  {
    "id": 30317,
    "name": "Fynsgade 6",
    "latitude": "56.1644555",
    "longitude": "10.20202",
    "thumbnail_url": ""
  },
  {
    "id": 26571,
    "name": "MIB Feast",
    "latitude": "56.1650288",
    "longitude": "10.2280019",
    "thumbnail_url": ""
  },
  {
    "id": 23256,
    "name": "Lokesvej",
    "latitude": "56.1494374",
    "longitude": "10.1717986",
    "thumbnail_url": ""
  },
  {
    "id": 32760,
    "name": "Let Køb",
    "latitude": "56.131519",
    "longitude": "10.1810559",
    "thumbnail_url": ""
  },
  {
    "id": 6475,
    "name": "Kildegården 14",
    "latitude": "56.1414006",
    "longitude": "10.2062443",
    "thumbnail_url": ""
  },
  {
    "id": 18340,
    "name": "Viborgvej 1",
    "latitude": "56.1580427",
    "longitude": "10.1923777",
    "thumbnail_url": ""
  },
  {
    "id": 28582,
    "name": "Solbakken",
    "latitude": "56.1877436",
    "longitude": "10.2378098",
    "thumbnail_url": ""
  },
  {
    "id": 16511,
    "name": "Falstersgade 61",
    "latitude": "56.1646323",
    "longitude": "10.1989625",
    "thumbnail_url": ""
  },
  {
    "id": 27979,
    "name": "Netto Risskov",
    "latitude": "56.201582",
    "longitude": "10.260802",
    "thumbnail_url": ""
  },
  {
    "id": 3870,
    "name": "Frederiks Alle/Føtex",
    "latitude": "56.150665",
    "longitude": "10.199221",
    "thumbnail_url": ""
  },
  {
    "id": 4982,
    "name": "Åkrogs Strand",
    "latitude": "56.2027976",
    "longitude": "10.2814677",
    "thumbnail_url": ""
  },
  {
    "id": 20343,
    "name": "Veri Centre Front",
    "latitude": "56.1885844",
    "longitude": "10.2151297",
    "thumbnail_url": ""
  },
  {
    "id": 22644,
    "name": "Teatret",
    "latitude": "56.162925",
    "longitude": "10.2275734",
    "thumbnail_url": ""
  },
  {
    "id": 4491,
    "name": "Letbanen, Nehrus Alle",
    "latitude": "56.1867646",
    "longitude": "10.1936522",
    "thumbnail_url": ""
  },
  {
    "id": 13618,
    "name": "Marselis Blvd. 32",
    "latitude": "56.1414465",
    "longitude": "10.2003414",
    "thumbnail_url": ""
  },
  {
    "id": 8297,
    "name": "Marselisborg Havnevej 60",
    "latitude": "56.1392079",
    "longitude": "10.2172895",
    "thumbnail_url": ""
  },
  {
    "id": 20968,
    "name": "Thit Jensens gade 24",
    "latitude": "56.1639302",
    "longitude": "10.2288572",
    "thumbnail_url": ""
  },
  {
    "id": 12754,
    "name": "Auditorium F",
    "latitude": "56.16687",
    "longitude": "10.2002085",
    "thumbnail_url": ""
  },
  {
    "id": 13122,
    "name": "Søren Frichs Vej 24",
    "latitude": "56.1528671",
    "longitude": "10.1841137",
    "thumbnail_url": ""
  },
  {
    "id": 20786,
    "name": "Ringkøbingvej 28",
    "latitude": "56.1567967",
    "longitude": "10.1888534",
    "thumbnail_url": ""
  },
  {
    "id": 24593,
    "name": "Valmuevej",
    "latitude": "56.1988708",
    "longitude": "10.2444278",
    "thumbnail_url": ""
  },
  {
    "id": 15851,
    "name": "Møllevangs Allé 146",
    "latitude": "56.1735076",
    "longitude": "10.1847138",
    "thumbnail_url": ""
  },
  {
    "id": 27713,
    "name": "Pakhus 77",
    "latitude": "56.1616855",
    "longitude": "10.2218255",
    "thumbnail_url": ""
  },
  {
    "id": 5015,
    "name": "Nørreport 15",
    "latitude": "56.1603675",
    "longitude": "10.212995",
    "thumbnail_url": ""
  },
  {
    "id": 3867,
    "name": "Hallssti",
    "latitude": "56.1489625",
    "longitude": "10.202994",
    "thumbnail_url": ""
  },
  {
    "id": 23812,
    "name": "Ormslevvej",
    "latitude": "56.1307008",
    "longitude": "10.1543273",
    "thumbnail_url": ""
  },
  {
    "id": 4977,
    "name": "Superkiosken",
    "latitude": "56.170098",
    "longitude": "10.1980641",
    "thumbnail_url": ""
  },
  {
    "id": 6630,
    "name": "Carl Blochs Gade 35",
    "latitude": "56.1548004",
    "longitude": "10.1933969",
    "thumbnail_url": ""
  },
  {
    "id": 30800,
    "name": "CitiLight",
    "latitude": "56.202457",
    "longitude": "10.2325399",
    "thumbnail_url": ""
  },
  {
    "id": 4958,
    "name": "Viborgvej 21",
    "latitude": "56.1585572",
    "longitude": "10.1910183",
    "thumbnail_url": ""
  },
  {
    "id": 4978,
    "name": "AU, Building 1412",
    "latitude": "56.1710248",
    "longitude": "10.2016492",
    "thumbnail_url": ""
  },
  {
    "id": 22645,
    "name": "89 Havn",
    "latitude": "56.1626129",
    "longitude": "10.2286882",
    "thumbnail_url": ""
  },
  {
    "id": 5144,
    "name": "Ceres Arena",
    "latitude": "56.1331767",
    "longitude": "10.1956813",
    "thumbnail_url": ""
  },
  {
    "id": 19813,
    "name": "Ferry entrance Aarhus",
    "latitude": "56.1491579",
    "longitude": "10.2500004",
    "thumbnail_url": ""
  },
  {
    "id": 15444,
    "name": "Tangkrogen",
    "latitude": "56.1393283",
    "longitude": "10.2066761",
    "thumbnail_url": ""
  },
  {
    "id": 23142,
    "name": "Johanne Bergs Gade",
    "latitude": "56.1637858",
    "longitude": "10.2220146",
    "thumbnail_url": ""
  },
  {
    "id": 5112,
    "name": "Aarhus Central Food Market",
    "latitude": "56.1513421",
    "longitude": "10.2057114",
    "thumbnail_url": ""
  },
  {
    "id": 3931,
    "name": "Randersvej/Hasle Ringvej (Nord)",
    "latitude": "56.1825521",
    "longitude": "10.1964437",
    "thumbnail_url": ""
  },
  {
    "id": 26299,
    "name": "Skejby Indgang G",
    "latitude": "56.1921578",
    "longitude": "10.1738528",
    "thumbnail_url": ""
  },
  {
    "id": 31345,
    "name": "Næringen",
    "latitude": "56.1946502",
    "longitude": "10.1983822",
    "thumbnail_url": ""
  },
  {
    "id": 14662,
    "name": "Jægergårdsgade 114",
    "latitude": "56.1485317",
    "longitude": "10.2055207",
    "thumbnail_url": ""
  },
  {
    "id": 4972,
    "name": "Finlandsgade 21",
    "latitude": "56.1714957",
    "longitude": "10.1901197",
    "thumbnail_url": ""
  },
  {
    "id": 30017,
    "name": "Irma Pedersens Gade 64",
    "latitude": "56.1643455",
    "longitude": "10.2264761",
    "thumbnail_url": ""
  },
  {
    "id": 17949,
    "name": "Hotel Guest Apart",
    "latitude": "56.194243",
    "longitude": "10.1760474",
    "thumbnail_url": ""
  },
  {
    "id": 27809,
    "name": "Christian X's Kollegium",
    "latitude": "56.1283115",
    "longitude": "10.1724208",
    "thumbnail_url": ""
  },
  {
    "id": 15130,
    "name": "Steen billes gade",
    "latitude": "56.1746729",
    "longitude": "10.2152983",
    "thumbnail_url": ""
  },
  {
    "id": 23641,
    "name": "Hantwerk",
    "latitude": "56.1645457",
    "longitude": "10.218761",
    "thumbnail_url": ""
  },
  {
    "id": 20972,
    "name": "Book 1 Front Door",
    "latitude": "56.156579",
    "longitude": "10.2004821",
    "thumbnail_url": ""
  },
  {
    "id": 14171,
    "name": "Ørneredevej",
    "latitude": "56.1244983",
    "longitude": "10.2173437",
    "thumbnail_url": ""
  },
  {
    "id": 4140,
    "name": "Business Academy Aarhus",
    "latitude": "56.1221808",
    "longitude": "10.160889",
    "thumbnail_url": ""
  },
  {
    "id": 22555,
    "name": "Ikea Aarhus",
    "latitude": "56.2034804",
    "longitude": "10.1804356",
    "thumbnail_url": ""
  },
  {
    "id": 4249,
    "name": "Marselisborg kajak club",
    "latitude": "56.1254186",
    "longitude": "10.2160989",
    "thumbnail_url": ""
  },
  {
    "id": 5009,
    "name": "DGI-Huset",
    "latitude": "56.1492981",
    "longitude": "10.2061828",
    "thumbnail_url": ""
  },
  {
    "id": 20193,
    "name": "Mariana Corner",
    "latitude": "56.16604",
    "longitude": "10.2277159",
    "thumbnail_url": ""
  },
  {
    "id": 3833,
    "name": "Music House",
    "latitude": "56.1525134",
    "longitude": "10.1992245",
    "thumbnail_url": ""
  },
  {
    "id": 4515,
    "name": "Ølandsgade",
    "latitude": "56.1613719",
    "longitude": "10.2187262",
    "thumbnail_url": ""
  },
  {
    "id": 12519,
    "name": "Søren Frichs Vej Corner",
    "latitude": "56.1534949",
    "longitude": "10.1818333",
    "thumbnail_url": ""
  },
  {
    "id": 27755,
    "name": "Kulturhus Bunkeren",
    "latitude": "56.1856074",
    "longitude": "10.1890187",
    "thumbnail_url": ""
  },
  {
    "id": 32388,
    "name": "Comwell",
    "latitude": "56.1502149",
    "longitude": "10.2086367",
    "thumbnail_url": ""
  },
  {
    "id": 23824,
    "name": "Tilst Disc Golf Bane",
    "latitude": "56.1869604",
    "longitude": "10.092562",
    "thumbnail_url": ""
  },
  {
    "id": 4900,
    "name": "Antroposofisk Kulturhus",
    "latitude": "56.1165614",
    "longitude": "10.2069436",
    "thumbnail_url": ""
  },
  {
    "id": 13373,
    "name": "Fiskerivej",
    "latitude": "56.168824",
    "longitude": "10.222356",
    "thumbnail_url": ""
  },
  {
    "id": 15791,
    "name": "Spobjergvej",
    "latitude": "56.1682056",
    "longitude": "10.1171032",
    "thumbnail_url": ""
  },
  {
    "id": 31523,
    "name": "Ok/Tinesvej",
    "latitude": "56.1535657",
    "longitude": "10.1353272",
    "thumbnail_url": ""
  },
  {
    "id": 12975,
    "name": "Bartholins Allé",
    "latitude": "56.1697359",
    "longitude": "10.2045811",
    "thumbnail_url": ""
  },
  {
    "id": 6626,
    "name": "Fitness World_Skåde Center",
    "latitude": "56.1066016",
    "longitude": "10.2056105",
    "thumbnail_url": ""
  },
  {
    "id": 27120,
    "name": "Gellerup Bibliotek",
    "latitude": "56.1598449",
    "longitude": "10.1343975",
    "thumbnail_url": ""
  },
  {
    "id": 19720,
    "name": "Vibyvej slagter",
    "latitude": "56.149545",
    "longitude": "10.1567319",
    "thumbnail_url": ""
  },
  {
    "id": 23922,
    "name": "Q-Park Mindet 1",
    "latitude": "56.1520847",
    "longitude": "10.2155115",
    "thumbnail_url": ""
  },
  {
    "id": 23552,
    "name": "Dagmar Petersens Gade 92",
    "latitude": "56.1671317",
    "longitude": "10.2268493",
    "thumbnail_url": ""
  },
  {
    "id": 12713,
    "name": "Jægergårdsgade 132",
    "latitude": "56.1485035",
    "longitude": "10.2061838",
    "thumbnail_url": ""
  },
  {
    "id": 22412,
    "name": "Silkeborvej/Viby Ringvej",
    "latitude": "56.1536893",
    "longitude": "10.1428924",
    "thumbnail_url": ""
  },
  {
    "id": 5355,
    "name": "Tietgens Pl.",
    "latitude": "56.1448109",
    "longitude": "10.2040045",
    "thumbnail_url": ""
  },
  {
    "id": 23569,
    "name": "Aarhus Viking ",
    "latitude": "56.1376091",
    "longitude": "10.2123053",
    "thumbnail_url": ""
  },
  {
    "id": 15355,
    "name": "Netto/Meny Vindrosen",
    "latitude": "56.1874735",
    "longitude": "10.2150245",
    "thumbnail_url": ""
  },
  {
    "id": 3884,
    "name": "Godsbanen_2",
    "latitude": "56.1538652",
    "longitude": "10.195448",
    "thumbnail_url": ""
  },
  {
    "id": 5479,
    "name": "Otto Ruds Gade 3",
    "latitude": "56.1712574",
    "longitude": "10.2197262",
    "thumbnail_url": ""
  },
  {
    "id": 28161,
    "name": "Emiliedalsvej",
    "latitude": "56.1092636",
    "longitude": "10.214442",
    "thumbnail_url": ""
  },
  {
    "id": 5021,
    "name": "City Bike Parking Marselisborg Havn",
    "latitude": "56.1392669",
    "longitude": "10.2137205",
    "thumbnail_url": ""
  },
  {
    "id": 15767,
    "name": "Mønsgade 4",
    "latitude": "56.1577865",
    "longitude": "10.1948438",
    "thumbnail_url": ""
  },
  {
    "id": 31728,
    "name": "Aarhus havn",
    "latitude": "56.1529391",
    "longitude": "10.2172388",
    "thumbnail_url": ""
  },
  {
    "id": 26750,
    "name": "Lystrupvej 224",
    "latitude": "56.1997818",
    "longitude": "10.2345247",
    "thumbnail_url": ""
  },
  {
    "id": 3877,
    "name": "Harald Jensens Plads",
    "latitude": "56.1438656",
    "longitude": "10.1907185",
    "thumbnail_url": ""
  },
  {
    "id": 27415,
    "name": "Langenæs Álle 62a",
    "latitude": "56.1419539",
    "longitude": "10.1798576",
    "thumbnail_url": ""
  },
  {
    "id": 30740,
    "name": "Agro Food Park",
    "latitude": "56.2006612",
    "longitude": "10.1584013",
    "thumbnail_url": ""
  },
  {
    "id": 20994,
    "name": "Silkeborgvej 162",
    "latitude": "56.1561734",
    "longitude": "10.1779928",
    "thumbnail_url": ""
  },
  {
    "id": 30134,
    "name": "Lystrupvej 1",
    "latitude": "56.1996814",
    "longitude": "10.2360754",
    "thumbnail_url": ""
  },
  {
    "id": 23886,
    "name": "Meny Langenæs",
    "latitude": "56.1432711",
    "longitude": "10.1863559",
    "thumbnail_url": ""
  },
  {
    "id": 17072,
    "name": "Skejby parken 8",
    "latitude": "56.1945341",
    "longitude": "10.190061",
    "thumbnail_url": ""
  },
  {
    "id": 26298,
    "name": "Skejby Indgang C",
    "latitude": "56.1883606",
    "longitude": "10.1719525",
    "thumbnail_url": ""
  },
  {
    "id": 15644,
    "name": "Langelandsgade 30",
    "latitude": "56.1609701",
    "longitude": "10.1966294",
    "thumbnail_url": ""
  },
  {
    "id": 4247,
    "name": "Marselisborg Castle",
    "latitude": "56.1296593",
    "longitude": "10.2022363",
    "thumbnail_url": ""
  },
  {
    "id": 29264,
    "name": "Den Gamle by",
    "latitude": "56.1578606",
    "longitude": "10.1931785",
    "thumbnail_url": ""
  },
  {
    "id": 20528,
    "name": "Sankt Anna Gade",
    "latitude": "56.1455747",
    "longitude": "10.1987615",
    "thumbnail_url": ""
  },
  {
    "id": 15668,
    "name": "Vejlby-Risskov Hallen",
    "latitude": "56.1934479",
    "longitude": "10.2093009",
    "thumbnail_url": ""
  },
  {
    "id": 12441,
    "name": "Skanderborgvej Island",
    "latitude": "56.1354192",
    "longitude": "10.1743413",
    "thumbnail_url": ""
  },
  {
    "id": 24594,
    "name": "Lidl Skejby ",
    "latitude": "56.1995124",
    "longitude": "10.182461",
    "thumbnail_url": ""
  },
  {
    "id": 16409,
    "name": "Kongevellen",
    "latitude": "56.1854839",
    "longitude": "10.2095747",
    "thumbnail_url": ""
  },
  {
    "id": 14096,
    "name": "Fredericks plads/Spanien 63",
    "latitude": "56.1489213",
    "longitude": "10.2097023",
    "thumbnail_url": ""
  },
  {
    "id": 30267,
    "name": "Aarhus University building 1324",
    "latitude": "56.1708323",
    "longitude": "10.2038681",
    "thumbnail_url": ""
  },
  {
    "id": 22688,
    "name": "Rymarken",
    "latitude": "56.1663122",
    "longitude": "10.1582407",
    "thumbnail_url": ""
  },
  {
    "id": 6696,
    "name": "Viborgvej 57",
    "latitude": "56.1630524",
    "longitude": "10.1753351",
    "thumbnail_url": ""
  },
  {
    "id": 22733,
    "name": "Blixens",
    "latitude": "56.1617453",
    "longitude": "10.1338973",
    "thumbnail_url": ""
  },
  {
    "id": 15145,
    "name": "Kongsvang Alle 22",
    "latitude": "56.1396855",
    "longitude": "10.1863197",
    "thumbnail_url": ""
  },
  {
    "id": 26537,
    "name": "Spar Vejlby",
    "latitude": "56.1956812",
    "longitude": "10.2073119",
    "thumbnail_url": ""
  },
  {
    "id": 23841,
    "name": "Lone Kellermanns Gade",
    "latitude": "56.1514643",
    "longitude": "10.1872642",
    "thumbnail_url": ""
  },
  {
    "id": 15532,
    "name": "Gustav Wieds Vej 10",
    "latitude": "56.1680188",
    "longitude": "10.194525",
    "thumbnail_url": ""
  },
  {
    "id": 20338,
    "name": "Raptus Arena",
    "latitude": "56.1970321",
    "longitude": "10.2030728",
    "thumbnail_url": ""
  },
  {
    "id": 3980,
    "name": "Østergade/Fjall Raven",
    "latitude": "56.1538893",
    "longitude": "10.2077539",
    "thumbnail_url": ""
  },
  {
    "id": 20927,
    "name": "Funch Thomsens Gade",
    "latitude": "56.1741371",
    "longitude": "10.2034044",
    "thumbnail_url": ""
  },
  {
    "id": 3905,
    "name": "Aarhus University_Kemisk Kantine",
    "latitude": "56.1679151",
    "longitude": "10.1989898",
    "thumbnail_url": ""
  },
  {
    "id": 8116,
    "name": "Nørregade 46",
    "latitude": "56.1604293",
    "longitude": "10.2078373",
    "thumbnail_url": ""
  },
  {
    "id": 11432,
    "name": "Snogebæksvej",
    "latitude": "56.1749331",
    "longitude": "10.167554",
    "thumbnail_url": ""
  },
  {
    "id": 4342,
    "name": "Rowing Club, Risskov",
    "latitude": "56.1904986",
    "longitude": "10.2468471",
    "thumbnail_url": ""
  },
  {
    "id": 30551,
    "name": "Søren Frichs Vej 51",
    "latitude": "56.1494993",
    "longitude": "10.1687881",
    "thumbnail_url": ""
  },
  {
    "id": 23196,
    "name": "Bindesbølls Allé",
    "latitude": "56.186684",
    "longitude": "10.2286292",
    "thumbnail_url": ""
  },
  {
    "id": 16927,
    "name": "Grundtvig Hus Kollegiet",
    "latitude": "56.1826814",
    "longitude": "10.1918566",
    "thumbnail_url": ""
  },
  {
    "id": 31544,
    "name": "Egsagervej",
    "latitude": "56.1429756",
    "longitude": "10.1522644",
    "thumbnail_url": ""
  },
  {
    "id": 23928,
    "name": "Boulders ",
    "latitude": "56.2052459",
    "longitude": "10.1817746",
    "thumbnail_url": ""
  },
  {
    "id": 26532,
    "name": "Padel Lounge Aarhus",
    "latitude": "56.2079023",
    "longitude": "10.1763922",
    "thumbnail_url": ""
  },
  {
    "id": 20963,
    "name": "Værkmestergade",
    "latitude": "56.1492311",
    "longitude": "10.2076517",
    "thumbnail_url": ""
  },
  {
    "id": 8587,
    "name": "Børnenes Kontor Harald Jensens Plads",
    "latitude": "56.143387",
    "longitude": "10.1897003",
    "thumbnail_url": ""
  },
  {
    "id": 4338,
    "name": "Aldersrovej 33",
    "latitude": "56.1733655",
    "longitude": "10.2106407",
    "thumbnail_url": ""
  },
  {
    "id": 3891,
    "name": "Aarhus BSS-Vestre Ringgade/Vibovej",
    "latitude": "56.1613064",
    "longitude": "10.1825485",
    "thumbnail_url": ""
  },
  {
    "id": 4364,
    "name": "Storcenter Nord, Shopping Center",
    "latitude": "56.1692467",
    "longitude": "10.1886606",
    "thumbnail_url": ""
  },
  {
    "id": 30720,
    "name": "Ankersgade",
    "latitude": "56.1479717",
    "longitude": "10.18972",
    "thumbnail_url": ""
  },
  {
    "id": 23816,
    "name": "Kristhøjvej",
    "latitude": "56.1173736",
    "longitude": "10.194946",
    "thumbnail_url": ""
  },
  {
    "id": 23534,
    "name": "Hjortholmsvej 2B",
    "latitude": "56.1636021",
    "longitude": "10.2191104",
    "thumbnail_url": ""
  },
  {
    "id": 5659,
    "name": "Ørneredevej 7",
    "latitude": "56.1209243",
    "longitude": "10.2237978",
    "thumbnail_url": ""
  },
  {
    "id": 6286,
    "name": "Vestre Strandallé ",
    "latitude": "56.1948737",
    "longitude": "10.2372994",
    "thumbnail_url": ""
  },
  {
    "id": 32424,
    "name": "Grønnegade",
    "latitude": "56.1627673",
    "longitude": "10.1977094",
    "thumbnail_url": ""
  },
  {
    "id": 31585,
    "name": "DSB Delecykler",
    "latitude": "56.1508663",
    "longitude": "10.2068021",
    "thumbnail_url": ""
  },
  {
    "id": 23561,
    "name": "Spanien 20",
    "latitude": "56.1494843",
    "longitude": "10.2096841",
    "thumbnail_url": ""
  },
  {
    "id": 12745,
    "name": "Bernhard Jensens Blvd/ Dalargade",
    "latitude": "56.1620767",
    "longitude": "10.219862",
    "thumbnail_url": ""
  },
  {
    "id": 20364,
    "name": "Øllegårdsvej st.",
    "latitude": "56.1147781",
    "longitude": "10.1343231",
    "thumbnail_url": ""
  },
  {
    "id": 20502,
    "name": "Spar Viby",
    "latitude": "56.1220162",
    "longitude": "10.1423402",
    "thumbnail_url": ""
  },
  {
    "id": 14341,
    "name": "AU, Moesgaard",
    "latitude": "56.087135",
    "longitude": "10.22469",
    "thumbnail_url": ""
  },
  {
    "id": 15530,
    "name": "Vestre Ringgade #1",
    "latitude": "56.1651642",
    "longitude": "10.1878696",
    "thumbnail_url": ""
  },
  {
    "id": 3860,
    "name": "Sønder Alle-Matas",
    "latitude": "56.1528711",
    "longitude": "10.2051093",
    "thumbnail_url": ""
  },
  {
    "id": 23813,
    "name": "Rosenhø",
    "latitude": "56.11635",
    "longitude": "10.1486927",
    "thumbnail_url": ""
  },
  {
    "id": 23884,
    "name": "Rosenhøj Letbane",
    "latitude": "56.1167763",
    "longitude": "10.1469104",
    "thumbnail_url": ""
  },
  {
    "id": 4989,
    "name": "Høegh-Guldbergs Gade",
    "latitude": "56.1651705",
    "longitude": "10.2020871",
    "thumbnail_url": ""
  },
  {
    "id": 19899,
    "name": "Baldersgade",
    "latitude": "56.1502607",
    "longitude": "10.1712491",
    "thumbnail_url": ""
  },
  {
    "id": 5356,
    "name": "Randersvej/Skejbygårdsvej",
    "latitude": "56.1933682",
    "longitude": "10.1872727",
    "thumbnail_url": ""
  },
  {
    "id": 3868,
    "name": "Jægergårdsgade/Bruuns Galleri",
    "latitude": "56.1484523",
    "longitude": "10.2042262",
    "thumbnail_url": ""
  },
  {
    "id": 26300,
    "name": "Skejby Indgang J",
    "latitude": "56.192252",
    "longitude": "10.1669475",
    "thumbnail_url": ""
  },
  {
    "id": 22622,
    "name": "Sørens Frichsvej 93",
    "latitude": "56.1471765",
    "longitude": "10.1567742",
    "thumbnail_url": ""
  },
  {
    "id": 13614,
    "name": "Hack Kampmanns Pl. ",
    "latitude": "56.1549838",
    "longitude": "10.2132709",
    "thumbnail_url": ""
  },
  {
    "id": 20469,
    "name": "Brammersgade 45",
    "latitude": "56.1473674",
    "longitude": "10.206962",
    "thumbnail_url": ""
  },
  {
    "id": 15535,
    "name": "Bartholins Allé 2",
    "latitude": "56.1653043",
    "longitude": "10.2054486",
    "thumbnail_url": ""
  },
  {
    "id": 12667,
    "name": "Viborgvej 3",
    "latitude": "56.1581076",
    "longitude": "10.1911693",
    "thumbnail_url": ""
  },
  {
    "id": 19275,
    "name": "Torsøvej Station",
    "latitude": "56.2052891",
    "longitude": "10.2284522",
    "thumbnail_url": ""
  },
  {
    "id": 8588,
    "name": "Ewaldsgade 14",
    "latitude": "56.1487739",
    "longitude": "10.1955959",
    "thumbnail_url": ""
  },
  {
    "id": 5353,
    "name": "Qiagen, Silkeborgvej ",
    "latitude": "56.1574252",
    "longitude": "10.192642",
    "thumbnail_url": ""
  },
  {
    "id": 19435,
    "name": "Molslinjen Ferry Aarhus",
    "latitude": "56.1505882",
    "longitude": "10.2538232",
    "thumbnail_url": ""
  },
  {
    "id": 6258,
    "name": "Silkeborgvej 142",
    "latitude": "56.1563006",
    "longitude": "10.1789836",
    "thumbnail_url": ""
  },
  {
    "id": 17942,
    "name": "Marselisborg Havnevej 4",
    "latitude": "56.1390398",
    "longitude": "10.2122382",
    "thumbnail_url": ""
  },
  {
    "id": 7567,
    "name": "Silkeborgvej/Ennova",
    "latitude": "56.156047",
    "longitude": "10.1836543",
    "thumbnail_url": ""
  },
  {
    "id": 5571,
    "name": "Langelandsgade 136",
    "latitude": "56.167204",
    "longitude": "10.1974365",
    "thumbnail_url": ""
  },
  {
    "id": 4971,
    "name": "Silkeborgvej 96",
    "latitude": "56.1564415",
    "longitude": "10.1812738",
    "thumbnail_url": ""
  },
  {
    "id": 27045,
    "name": "Polensgade 15",
    "latitude": "56.1537881",
    "longitude": "10.2195543",
    "thumbnail_url": ""
  },
  {
    "id": 30315,
    "name": "Job Center",
    "latitude": "56.1502894",
    "longitude": "10.2115868",
    "thumbnail_url": ""
  },
  {
    "id": 20204,
    "name": "Helsingforsgade",
    "latitude": "56.1710791",
    "longitude": "10.1930957",
    "thumbnail_url": ""
  },
  {
    "id": 26871,
    "name": "Netto Vestergade",
    "latitude": "56.1564494",
    "longitude": "10.1968977",
    "thumbnail_url": ""
  },
  {
    "id": 3873,
    "name": "Bruuns Gade/Føtex",
    "latitude": "56.1466697",
    "longitude": "10.2039834",
    "thumbnail_url": ""
  },
  {
    "id": 15581,
    "name": "Hendrik Pontoppidans Gade 16",
    "latitude": "56.1440124",
    "longitude": "10.2057111",
    "thumbnail_url": ""
  },
  {
    "id": 30422,
    "name": "Frydenlundhuset",
    "latitude": "56.1713774",
    "longitude": "10.1769726",
    "thumbnail_url": ""
  },
  {
    "id": 3910,
    "name": "Den Permanente",
    "latitude": "56.1768939",
    "longitude": "10.2306473",
    "thumbnail_url": ""
  }
]