[
  {
    "id": "",
    "name": "Antwerp Amerikalei",
    "latitude": "51.2077783",
    "longitude": "4.3983409",
    "thumbnail_url": ""
  },
  {
    "id": "",
    "name": "Antwerp Anneessenstraat",
    "latitude": "51.2177455",
    "longitude": "4.4176985",
    "thumbnail_url": ""
  },
  {
    "id": "",
    "name": "Antwerp Artsen-Zonder-Grenzen",
    "latitude": "51.2014122",
    "longitude": "4.4237563",
    "thumbnail_url": ""
  },
  {
    "id": "",
    "name": "Antwerp Belgielei",
    "latitude": "51.2065263",
    "longitude": "4.4197926",
    "thumbnail_url": ""
  },
  {
    "id": "",
    "name": "Antwerp CS Astridplein B",
    "latitude": "51.21835",
    "longitude": "4.42164",
    "thumbnail_url": ""
  },
  {
    "id": "",
    "name": "Antwerp CS - Astridplein A",
    "latitude": "51.2180143",
    "longitude": "4.4207458",
    "thumbnail_url": ""
  },
  {
    "id": "",
    "name": "Antwerp CS Breydelstraat",
    "latitude": "51.2182455",
    "longitude": "4.4191667",
    "thumbnail_url": ""
  },
  {
    "id": "",
    "name": "Antwerp Dageraadplaats",
    "latitude": "51.2070075",
    "longitude": "4.4305885",
    "thumbnail_url": ""
  },
  {
    "id": "",
    "name": "Antwerp Expo",
    "latitude": "51.1914375",
    "longitude": "4.3990161",
    "thumbnail_url": ""
  },
  {
    "id": "",
    "name": "Antwerp Harmonie",
    "latitude": "51.2010734",
    "longitude": "4.4130995",
    "thumbnail_url": ""
  },
  {
    "id": "",
    "name": "Antwerp Kempisch dok",
    "latitude": "51.2311714",
    "longitude": "4.4129597",
    "thumbnail_url": ""
  },
  {
    "id": "",
    "name": "Antwerp Kronenburgstraat",
    "latitude": "51.2116405",
    "longitude": "4.4004764",
    "thumbnail_url": ""
  },
  {
    "id": "",
    "name": "Antwerp Lange Lozana",
    "latitude": "51.2016586",
    "longitude": "4.4061123",
    "thumbnail_url": ""
  },
  {
    "id": "",
    "name": "Linkeroever P+R",
    "latitude": "51.2194765",
    "longitude": "4.3495701",
    "thumbnail_url": ""
  },
  {
    "id": "",
    "name": "Luchtbal NMBS",
    "latitude": "51.2444489",
    "longitude": "4.4245057",
    "thumbnail_url": ""
  },
  {
    "id": "",
    "name": "Luchtbal NMBS Noorderdokken",
    "latitude": "51.2615778",
    "longitude": "4.4270263",
    "thumbnail_url": ""
  },
  {
    "id": "",
    "name": "Luchtbal P+R Havana",
    "latitude": "51.2628401",
    "longitude": "4.4190171",
    "thumbnail_url": ""
  },
  {
    "id": "",
    "name": "Antwerp MAS / St-Aldegondiskaai",
    "latitude": "51.22812",
    "longitude": "4.404984",
    "thumbnail_url": ""
  },
  {
    "id": "",
    "name": "Antwerp Mechelseplein",
    "latitude": "51.2139365",
    "longitude": "4.4050308",
    "thumbnail_url": ""
  },
  {
    "id": "",
    "name": "Antwerp Mediaplein",
    "latitude": "51.2130411",
    "longitude": "4.42113",
    "thumbnail_url": ""
  },
  {
    "id": "",
    "name": "Luchtbal Kinepolis",
    "latitude": "51.2450429",
    "longitude": "4.4195541",
    "thumbnail_url": ""
  },
  {
    "id": "",
    "name": "Antwerp Museum Schone Kunsten",
    "latitude": "51.2094071",
    "longitude": "4.3943274",
    "thumbnail_url": ""
  },
  {
    "id": "",
    "name": "Antwerp Nationale Bank",
    "latitude": "51.2117706",
    "longitude": "4.4076612",
    "thumbnail_url": ""
  },
  {
    "id": "",
    "name": "Antwerp Opera",
    "latitude": "51.2194726",
    "longitude": "4.415807",
    "thumbnail_url": ""
  },
  {
    "id": "",
    "name": "Wilrijk P+R Olympiade dropzone",
    "latitude": "51.1839",
    "longitude": "4.392",
    "thumbnail_url": ""
  },
  {
    "id": "",
    "name": "Antwerp Paardenmarkt",
    "latitude": "51.2251502",
    "longitude": "4.4091695",
    "thumbnail_url": ""
  },
  {
    "id": "",
    "name": "Antwerp Groenplaats",
    "latitude": "51.2195319",
    "longitude": "4.4012713",
    "thumbnail_url": ""
  },
  {
    "id": "",
    "name": "Antwerp Premetro Handel",
    "latitude": "51.2242187",
    "longitude": "4.4320997",
    "thumbnail_url": ""
  },
  {
    "id": "",
    "name": "Antwerp Premetro Meir",
    "latitude": "51.2180643",
    "longitude": "4.4069485",
    "thumbnail_url": ""
  },
  {
    "id": "",
    "name": "Antwerp Rooseveltplaats",
    "latitude": "51.21984",
    "longitude": "4.41677",
    "thumbnail_url": ""
  },
  {
    "id": "",
    "name": "Antwerp Schijnpoort A",
    "latitude": "51.2273537",
    "longitude": "4.4388026",
    "thumbnail_url": ""
  },
  {
    "id": "",
    "name": "Antwerp Schijnpoort B",
    "latitude": "51.2276148",
    "longitude": "4.4400889",
    "thumbnail_url": ""
  },
  {
    "id": "",
    "name": "Antwerp St-Andriesplaats",
    "latitude": "51.2149155",
    "longitude": "4.3961442",
    "thumbnail_url": ""
  },
  {
    "id": "",
    "name": "Antwerp Steenplein",
    "latitude": "51.2217686",
    "longitude": "4.3970267",
    "thumbnail_url": ""
  },
  {
    "id": "",
    "name": "Antwerp St-Jansplein",
    "latitude": "51.2251554",
    "longitude": "4.418513",
    "thumbnail_url": ""
  },
  {
    "id": "",
    "name": "Linkeroever Van Eedenplein",
    "latitude": "51.2206033",
    "longitude": "4.3867828",
    "thumbnail_url": ""
  },
  {
    "id": "",
    "name": "Antwerp Vlaamsekaai",
    "latitude": "51.2100272",
    "longitude": "4.3909891",
    "thumbnail_url": ""
  },
  {
    "id": "",
    "name": "Berchem Driekoningenstraat",
    "latitude": "51.1958958",
    "longitude": "4.4190832",
    "thumbnail_url": ""
  },
  {
    "id": "",
    "name": "Berchem Fruithoflaan",
    "latitude": "51.1803093",
    "longitude": "4.4330573",
    "thumbnail_url": ""
  },
  {
    "id": "",
    "name": "Berchem NMBS",
    "latitude": "51.2005763",
    "longitude": "4.4327249",
    "thumbnail_url": ""
  },
  {
    "id": "",
    "name": "Borgerhout Te Boelaerpark",
    "latitude": "51.2003739",
    "longitude": "4.4501112",
    "thumbnail_url": ""
  },
  {
    "id": "",
    "name": "Borsbeek Dorp",
    "latitude": "51.1929914",
    "longitude": "4.4870499",
    "thumbnail_url": ""
  },
  {
    "id": "",
    "name": "Borsbeek Wijk Wenigerstraat",
    "latitude": "51.1985773",
    "longitude": "4.4765313",
    "thumbnail_url": ""
  },
  {
    "id": "",
    "name": "Deurne Turnhoutsebaan",
    "latitude": "51.2205821",
    "longitude": "4.4593613",
    "thumbnail_url": ""
  },
  {
    "id": "",
    "name": "Deurne Luchthaven",
    "latitude": "51.1897694",
    "longitude": "4.4492644",
    "thumbnail_url": ""
  },
  {
    "id": "",
    "name": "Deurne Muggenberglei",
    "latitude": "51.2090841",
    "longitude": "4.4571605",
    "thumbnail_url": ""
  },
  {
    "id": "",
    "name": "Wommelgem Silsburg Tramterminus 6E",
    "latitude": "51.203753",
    "longitude": "4.4829473",
    "thumbnail_url": ""
  },
  {
    "id": "",
    "name": "Hoboken Fort 8 dropzone",
    "latitude": "51.1681925",
    "longitude": "4.3491413",
    "thumbnail_url": ""
  },
  {
    "id": "",
    "name": "Hoboken Schoonselhof dropzone",
    "latitude": "51.169141",
    "longitude": "4.3635312",
    "thumbnail_url": ""
  },
  {
    "id": "",
    "name": "Hoboken Veerdienst dropzone",
    "latitude": "51.1755646",
    "longitude": "4.3320596",
    "thumbnail_url": ""
  },
  {
    "id": "",
    "name": "Wilrijk Bist dropzone",
    "latitude": "51.1704031",
    "longitude": "4.394766",
    "thumbnail_url": ""
  },
  {
    "id": "",
    "name": "Wilrijk Krijgslaan fietsenrek",
    "latitude": "51.1631397",
    "longitude": "4.3984358",
    "thumbnail_url": ""
  },
  {
    "id": "",
    "name": "Wilrijk Jules Moretuslei dropzone",
    "latitude": "51.172219",
    "longitude": "4.3886944",
    "thumbnail_url": ""
  },
  {
    "id": "",
    "name": "Wilrijk Boomsesteenweg/N177/bushalte",
    "latitude": "51.152509",
    "longitude": "4.3815683",
    "thumbnail_url": ""
  },
  {
    "id": "",
    "name": "Wilrijk UA Universiteitsplein fietsenrek",
    "latitude": "51.1636647",
    "longitude": "4.401212",
    "thumbnail_url": ""
  },
  {
    "id": "",
    "name": "Beveren Fort Liefkenshoek",
    "latitude": "51.2959685",
    "longitude": "4.2857248",
    "thumbnail_url": ""
  },
  {
    "id": "",
    "name": "Beveren Haasdonk - fietsrek",
    "latitude": "51.1813144",
    "longitude": "4.2392227",
    "thumbnail_url": ""
  },
  {
    "id": "",
    "name": "Beveren Kallo Dorp - fietsrek",
    "latitude": "51.2526853",
    "longitude": "4.2788881",
    "thumbnail_url": ""
  },
  {
    "id": "",
    "name": "Beveren Kallo Waterbus steiger",
    "latitude": "51.2686599",
    "longitude": "4.2982406",
    "thumbnail_url": ""
  },
  {
    "id": "",
    "name": "Kieldrecht Kerk - fietsrek",
    "latitude": "51.2885967",
    "longitude": "4.175664",
    "thumbnail_url": ""
  },
  {
    "id": "",
    "name": "Beveren Markt - fietsrek",
    "latitude": "51.2131262",
    "longitude": "4.2561563",
    "thumbnail_url": ""
  },
  {
    "id": "",
    "name": "Beveren Melsele Spoorweglaan - fietsrek",
    "latitude": "51.2198478",
    "longitude": "4.2822222",
    "thumbnail_url": ""
  },
  {
    "id": "",
    "name": "Beveren NMBS Melsele - fietsrek",
    "latitude": "51.2108",
    "longitude": "4.2875",
    "thumbnail_url": ""
  },
  {
    "id": "",
    "name": "Beveren P+R Melsele - zijkant fietsrek",
    "latitude": "51.2190932",
    "longitude": "4.3045901",
    "thumbnail_url": ""
  },
  {
    "id": "",
    "name": "Verrebroek Dorp - fietsrek",
    "latitude": "51.2553729",
    "longitude": "4.1886176",
    "thumbnail_url": ""
  },
  {
    "id": "",
    "name": "Beveren Vrasene kerk - fietsrek",
    "latitude": "51.2193549",
    "longitude": "4.1951218",
    "thumbnail_url": ""
  },
  {
    "id": "",
    "name": "Beveren - Doel dorp - voetpad",
    "latitude": "51.3113763",
    "longitude": "4.2645302",
    "thumbnail_url": ""
  },
  {
    "id": "",
    "name": "Beveren Gevangenis - vooraan parking",
    "latitude": "51.1964753",
    "longitude": "4.3094717",
    "thumbnail_url": ""
  },
  {
    "id": "",
    "name": "Boechout NMBS Boechout",
    "latitude": "51.1634509",
    "longitude": "4.4949188",
    "thumbnail_url": ""
  },
  {
    "id": "",
    "name": "Boechout P+R Boechout",
    "latitude": "51.1690887",
    "longitude": "4.4931745",
    "thumbnail_url": ""
  },
  {
    "id": "",
    "name": "Boechout Kerk",
    "latitude": "51.1584592",
    "longitude": "4.4914003",
    "thumbnail_url": ""
  },
  {
    "id": "",
    "name": "Boechout Sportpark Sneppenbos",
    "latitude": "51.1701021",
    "longitude": "4.5146117",
    "thumbnail_url": ""
  },
  {
    "id": "",
    "name": "Boechout Vremde Kerk",
    "latitude": "51.1753529",
    "longitude": "4.5244533",
    "thumbnail_url": ""
  },
  {
    "id": "",
    "name": "Boom NMBS Station - fietsrek",
    "latitude": "51.0902982",
    "longitude": "4.3600839",
    "thumbnail_url": ""
  },
  {
    "id": "",
    "name": "Borsbeek Carrefour",
    "latitude": "51.1948069",
    "longitude": "4.4774725",
    "thumbnail_url": ""
  },
  {
    "id": "",
    "name": "Borsbeek Periscoop",
    "latitude": "51.196645",
    "longitude": "4.4862492",
    "thumbnail_url": ""
  },
  {
    "id": "",
    "name": "Brasschaat - Oud Gemeentehuis 3E2P - fietsrek",
    "latitude": "51.2884648",
    "longitude": "4.485111",
    "thumbnail_url": ""
  },
  {
    "id": "",
    "name": "Brasschaat / Brecht P+R St Job 10E - fietsrek",
    "latitude": "51.3100647",
    "longitude": "4.5547344",
    "thumbnail_url": ""
  },
  {
    "id": "",
    "name": "Brasschaat Kerk 6E4P - fietsrek",
    "latitude": "51.2898976",
    "longitude": "4.4924768",
    "thumbnail_url": ""
  },
  {
    "id": "",
    "name": "Brasschaat MariaTerHeide Kerk 6E4P - fietsrek",
    "latitude": "51.3231995",
    "longitude": "4.5205056",
    "thumbnail_url": ""
  },
  {
    "id": "",
    "name": "Brasschaat Bethanie 4E4P - fietsrek",
    "latitude": "51.3131771",
    "longitude": "4.5131224",
    "thumbnail_url": ""
  },
  {
    "id": "",
    "name": "Brasschaat Driehoek 2E4P - fietsrek",
    "latitude": "51.3038859",
    "longitude": "4.5037402",
    "thumbnail_url": ""
  },
  {
    "id": "",
    "name": "Brasschaat Hoge Kaart 2E4P - fietsrek",
    "latitude": "51.3033841",
    "longitude": "4.4857354",
    "thumbnail_url": ""
  },
  {
    "id": "",
    "name": "Brasschaat Lage Kaart 4E6P - fietsrek",
    "latitude": "51.3003607",
    "longitude": "4.4817581",
    "thumbnail_url": ""
  },
  {
    "id": "",
    "name": "Brasschaat Maria Ter Heide Kazerne Copp 2E2P",
    "latitude": "51.3294517",
    "longitude": "4.5285264",
    "thumbnail_url": ""
  },
  {
    "id": "",
    "name": "Brasschaat Miksebaan  4E4P -zijkant",
    "latitude": "51.2921994",
    "longitude": "4.5053036",
    "thumbnail_url": ""
  },
  {
    "id": "",
    "name": "Brasschaat Voshollei 2E2P - fietsrek",
    "latitude": "51.2760102",
    "longitude": "4.4726644",
    "thumbnail_url": ""
  },
  {
    "id": "",
    "name": "Brecht NMBS Noorderkempen - Brecht Hoek",
    "latitude": "51.3570757",
    "longitude": "4.6323232",
    "thumbnail_url": ""
  },
  {
    "id": "",
    "name": "Brecht Sint-Job-in-'t-Goor Kruispunt",
    "latitude": "51.3044357",
    "longitude": "4.5679166",
    "thumbnail_url": ""
  },
  {
    "id": "",
    "name": "Brecht Sint-Lenaarts Kerk",
    "latitude": "51.3471084",
    "longitude": "4.6793017",
    "thumbnail_url": ""
  },
  {
    "id": "",
    "name": "Brecht Andrelaan",
    "latitude": "51.3164",
    "longitude": "4.5856",
    "thumbnail_url": ""
  },
  {
    "id": "",
    "name": "Brecht Centrum",
    "latitude": "51.3502718",
    "longitude": "4.6390529",
    "thumbnail_url": ""
  },
  {
    "id": "",
    "name": "Brecht Klein Veerle",
    "latitude": "51.3359856",
    "longitude": "4.6621265",
    "thumbnail_url": ""
  },
  {
    "id": "",
    "name": "Brecht Overbroek-Sternhoven",
    "latitude": "51.3425324",
    "longitude": "4.6050527",
    "thumbnail_url": ""
  },
  {
    "id": "",
    "name": "Brecht Sint-Job Xus Koning",
    "latitude": "51.292519",
    "longitude": "4.5863801",
    "thumbnail_url": ""
  },
  {
    "id": "",
    "name": "Edegem Gemeenteplein",
    "latitude": "51.1554535",
    "longitude": "4.4463094",
    "thumbnail_url": ""
  },
  {
    "id": "",
    "name": "Edegem P+R UZA",
    "latitude": "51.1570626",
    "longitude": "4.4129322",
    "thumbnail_url": ""
  },
  {
    "id": "",
    "name": "Edegem Buizegem Sint Goriksplein",
    "latitude": "51.1488932",
    "longitude": "4.4548591",
    "thumbnail_url": ""
  },
  {
    "id": "",
    "name": "Edegem Grijpegemplein",
    "latitude": "51.1619765",
    "longitude": "4.4497579",
    "thumbnail_url": ""
  },
  {
    "id": "",
    "name": "Edegem Kattenbroek",
    "latitude": "51.148976",
    "longitude": "4.4347249",
    "thumbnail_url": ""
  },
  {
    "id": "",
    "name": "Edegem Kerkplein - Fort 5",
    "latitude": "51.1670727",
    "longitude": "4.4272305",
    "thumbnail_url": ""
  },
  {
    "id": "",
    "name": "Edegem Molenveld",
    "latitude": "51.1637037",
    "longitude": "4.427347",
    "thumbnail_url": ""
  },
  {
    "id": "",
    "name": "Edegem Omer van Ommerplein",
    "latitude": "51.1606311",
    "longitude": "4.418585",
    "thumbnail_url": ""
  },
  {
    "id": "",
    "name": "Ekeren Markt  4E4P",
    "latitude": "51.2772802",
    "longitude": "4.4183322",
    "thumbnail_url": ""
  },
  {
    "id": "",
    "name": "Ekeren NMBS Noord 4E4P",
    "latitude": "51.2811927",
    "longitude": "4.4339939",
    "thumbnail_url": ""
  },
  {
    "id": "",
    "name": "Ekeren NMBS St-Mariaburg 3E3P",
    "latitude": "51.2907539",
    "longitude": "4.435279",
    "thumbnail_url": ""
  },
  {
    "id": "",
    "name": "Ekeren St Michielscollege 2E6P",
    "latitude": "51.2719056",
    "longitude": "4.4586151",
    "thumbnail_url": ""
  },
  {
    "id": "",
    "name": "Ekeren Academie 4P",
    "latitude": "51.2846923",
    "longitude": "4.4265944",
    "thumbnail_url": ""
  },
  {
    "id": "",
    "name": "Brasschaat Boskapellei 4P",
    "latitude": "51.2951408",
    "longitude": "4.4422746",
    "thumbnail_url": ""
  },
  {
    "id": "",
    "name": "Ekeren Districthuis 4P",
    "latitude": "51.2782074",
    "longitude": "4.4238986",
    "thumbnail_url": ""
  },
  {
    "id": "",
    "name": "Ekeren Driehoekstraat",
    "latitude": "51.2844413",
    "longitude": "4.4228865",
    "thumbnail_url": ""
  },
  {
    "id": "",
    "name": "Ekeren Edisonlaan 4P",
    "latitude": "51.2911598",
    "longitude": "4.4092641",
    "thumbnail_url": ""
  },
  {
    "id": "",
    "name": "Ekeren Geestenspoor 4P",
    "latitude": "51.2819416",
    "longitude": "4.4251782",
    "thumbnail_url": ""
  },
  {
    "id": "",
    "name": "Ekeren Hagelkruis 4P",
    "latitude": "51.2745411",
    "longitude": "4.4105906",
    "thumbnail_url": ""
  },
  {
    "id": "",
    "name": "Ekeren Handboogstraat 4P",
    "latitude": "51.2765702",
    "longitude": "4.4076143",
    "thumbnail_url": ""
  },
  {
    "id": "",
    "name": "Ekeren Hertogenlaan 4P",
    "latitude": "51.2762542",
    "longitude": "4.4431284",
    "thumbnail_url": ""
  },
  {
    "id": "",
    "name": "Ekeren Hof de Bist 5P",
    "latitude": "51.282031",
    "longitude": "4.4421296",
    "thumbnail_url": ""
  },
  {
    "id": "",
    "name": "Ekeren JC Rozemaai 4P",
    "latitude": "51.2720241",
    "longitude": "4.412206",
    "thumbnail_url": ""
  },
  {
    "id": "",
    "name": "Ekeren Kapelsesteenweg 4P",
    "latitude": "51.2923766",
    "longitude": "4.4439209",
    "thumbnail_url": ""
  },
  {
    "id": "",
    "name": "Ekeren Klein Heiken 4P",
    "latitude": "51.2965367",
    "longitude": "4.4124635",
    "thumbnail_url": ""
  },
  {
    "id": "",
    "name": "Ekeren Konijnenberg 4P",
    "latitude": "51.278582",
    "longitude": "4.4297333",
    "thumbnail_url": ""
  },
  {
    "id": "",
    "name": "Ekeren Kretenborglaan 4P",
    "latitude": "51.2721902",
    "longitude": "4.4415448",
    "thumbnail_url": ""
  },
  {
    "id": "",
    "name": "Ekeren Leugenberg  2E2P",
    "latitude": "51.2994469",
    "longitude": "4.4097893",
    "thumbnail_url": ""
  },
  {
    "id": "",
    "name": "Ekeren Moerenhoutlaan 4P",
    "latitude": "51.280987",
    "longitude": "4.4295884",
    "thumbnail_url": ""
  },
  {
    "id": "",
    "name": "Ekeren Oudebaan 4P",
    "latitude": "51.2770118",
    "longitude": "4.4509238",
    "thumbnail_url": ""
  },
  {
    "id": "",
    "name": "Ekeren Paardebloemlaan 4P",
    "latitude": "51.2800715",
    "longitude": "4.442439",
    "thumbnail_url": ""
  },
  {
    "id": "",
    "name": "Ekeren Prinshoeveweg",
    "latitude": "51.279708",
    "longitude": "4.447414",
    "thumbnail_url": ""
  },
  {
    "id": "",
    "name": "Ekeren Rozemaai",
    "latitude": "51.2688559",
    "longitude": "4.4175914",
    "thumbnail_url": ""
  },
  {
    "id": "",
    "name": "Ekeren Schoonbroek Kerk 4P",
    "latitude": "51.2790613",
    "longitude": "4.4097336",
    "thumbnail_url": ""
  },
  {
    "id": "",
    "name": "Ekeren Sint-Mariabrug Kerk 5P",
    "latitude": "51.293512",
    "longitude": "4.4376612",
    "thumbnail_url": ""
  },
  {
    "id": "",
    "name": "Ekeren Tiendenstraat 4P",
    "latitude": "51.283237",
    "longitude": "4.4107375",
    "thumbnail_url": ""
  },
  {
    "id": "",
    "name": "Ekeren Vic Heymanstraat 4P",
    "latitude": "51.2839862",
    "longitude": "4.4194072",
    "thumbnail_url": ""
  },
  {
    "id": "",
    "name": "Ekeren Vogelkersstraat 4P",
    "latitude": "51.2880992",
    "longitude": "4.4321167",
    "thumbnail_url": ""
  },
  {
    "id": "",
    "name": "Ekeren Vuurkruisenstraat 4P2E",
    "latitude": "51.2757718",
    "longitude": "4.4145393",
    "thumbnail_url": ""
  },
  {
    "id": "",
    "name": "Ekeren Wijk Sint-Mariabrug 4P",
    "latitude": "51.2970705",
    "longitude": "4.440306",
    "thumbnail_url": ""
  },
  {
    "id": "",
    "name": "Ekeren Zwaantjeshoek 5P",
    "latitude": "51.2726772",
    "longitude": "4.4538933",
    "thumbnail_url": ""
  },
  {
    "id": "",
    "name": "Ekeren Zwembad 4E5P",
    "latitude": "51.279251",
    "longitude": "4.4134873",
    "thumbnail_url": ""
  },
  {
    "id": "",
    "name": "Hemiksem Arendweg - fietsrek",
    "latitude": "51.1534371",
    "longitude": "4.3419702",
    "thumbnail_url": ""
  },
  {
    "id": "",
    "name": "Hemiksem Callebeek - fietsrek",
    "latitude": "51.1433189",
    "longitude": "4.3311352",
    "thumbnail_url": ""
  },
  {
    "id": "",
    "name": "Hemiksem Dorp kerkplein fietsenrek",
    "latitude": "51.143891",
    "longitude": "4.3455618",
    "thumbnail_url": ""
  },
  {
    "id": "",
    "name": "Hemiksem NMBS - fietsrek",
    "latitude": "51.1364978",
    "longitude": "4.3382005",
    "thumbnail_url": ""
  },
  {
    "id": "",
    "name": "Hemiksem Bouwerij",
    "latitude": "51.1367976",
    "longitude": "4.345076",
    "thumbnail_url": ""
  },
  {
    "id": "",
    "name": "Hemiksem Nijverheidsstraat x N148 fietsenrek",
    "latitude": "51.1346597",
    "longitude": "4.335115",
    "thumbnail_url": ""
  },
  {
    "id": "",
    "name": "Kalmthout Parochiezaal - fietsrek",
    "latitude": "51.3966964",
    "longitude": "4.4974023",
    "thumbnail_url": ""
  },
  {
    "id": "",
    "name": "Kalmthout Kerkplein Driehoek - fietsrek",
    "latitude": "51.38268",
    "longitude": "4.47491",
    "thumbnail_url": ""
  },
  {
    "id": "",
    "name": "Kalmthout Nieuwmoer Kerkstraat - fietsrek",
    "latitude": "51.4329932",
    "longitude": "4.5180312",
    "thumbnail_url": ""
  },
  {
    "id": "",
    "name": "Kalmthout NMBS Heide - fietsrek",
    "latitude": "51.36514",
    "longitude": "4.46041",
    "thumbnail_url": ""
  },
  {
    "id": "",
    "name": "Kalmthout NMBS - fietsrek",
    "latitude": "51.3908889",
    "longitude": "4.4668466",
    "thumbnail_url": ""
  },
  {
    "id": "",
    "name": "Kapellen Hoogboom",
    "latitude": "51.3123419",
    "longitude": "4.452174",
    "thumbnail_url": ""
  },
  {
    "id": "",
    "name": "Kapellen Industrie Starrenhof",
    "latitude": "51.3286881",
    "longitude": "4.4157083",
    "thumbnail_url": ""
  },
  {
    "id": "",
    "name": "Kapellen NMBS Station",
    "latitude": "51.3139853",
    "longitude": "4.4326331",
    "thumbnail_url": ""
  },
  {
    "id": "",
    "name": "Kapellen Dorp",
    "latitude": "51.3141424",
    "longitude": "4.4288206",
    "thumbnail_url": ""
  },
  {
    "id": "",
    "name": "Kapellen/Stabroek Putte Kruispunt",
    "latitude": "51.3534679",
    "longitude": "4.397381",
    "thumbnail_url": ""
  },
  {
    "id": "",
    "name": "Kontich De Nachtegaal",
    "latitude": "51.1297521",
    "longitude": "4.4531409",
    "thumbnail_url": ""
  },
  {
    "id": "",
    "name": "Kontich Gemeenteplein fietsenstalling",
    "latitude": "51.1352734",
    "longitude": "4.4459267",
    "thumbnail_url": ""
  },
  {
    "id": "",
    "name": "Kontich Kazerne Kerk",
    "latitude": "51.127744",
    "longitude": "4.4724822",
    "thumbnail_url": ""
  },
  {
    "id": "",
    "name": "Kontich Waarloos",
    "latitude": "51.1068972",
    "longitude": "4.4520881",
    "thumbnail_url": ""
  },
  {
    "id": "",
    "name": "Kontich NMBS Kontich-Lint",
    "latitude": "51.1337277",
    "longitude": "4.4763791",
    "thumbnail_url": ""
  },
  {
    "id": "",
    "name": "Lier Markt (Vismarkt) fietsenrek",
    "latitude": "51.1308515",
    "longitude": "4.5718722",
    "thumbnail_url": ""
  },
  {
    "id": "",
    "name": "Lier NMBS Station fietsenrek",
    "latitude": "51.1355666",
    "longitude": "4.5610264",
    "thumbnail_url": ""
  },
  {
    "id": "",
    "name": "Lier Veemarkt",
    "latitude": "51.1284563",
    "longitude": "4.5824608",
    "thumbnail_url": ""
  },
  {
    "id": "",
    "name": "Lint Centrum / Oudstrijdersplein",
    "latitude": "51.1270004",
    "longitude": "4.498664",
    "thumbnail_url": ""
  },
  {
    "id": "",
    "name": "Lint NMBS Kontich / Lint",
    "latitude": "51.1337362",
    "longitude": "4.4772437",
    "thumbnail_url": ""
  },
  {
    "id": "",
    "name": "Malle Industrie N12",
    "latitude": "51.2988386",
    "longitude": "4.7111367",
    "thumbnail_url": ""
  },
  {
    "id": "",
    "name": "Malle Oostmalle Dorp",
    "latitude": "51.3022217",
    "longitude": "4.733957",
    "thumbnail_url": ""
  },
  {
    "id": "",
    "name": "Malle Westmalle Dorp",
    "latitude": "51.2970757",
    "longitude": "4.6964446",
    "thumbnail_url": ""
  },
  {
    "id": "",
    "name": "Mortsel Gemeenteplein 3E2P - fietsrek",
    "latitude": "51.1705615",
    "longitude": "4.4498073",
    "thumbnail_url": ""
  },
  {
    "id": "",
    "name": "Mortsel Luithagen - Vredebaan 4E3P -fietsrek",
    "latitude": "51.1729892",
    "longitude": "4.444577",
    "thumbnail_url": ""
  },
  {
    "id": "",
    "name": "Mortsel NMBS Liersesteenweg 3E3P - fietsrek",
    "latitude": "51.1690762",
    "longitude": "4.4691745",
    "thumbnail_url": ""
  },
  {
    "id": "",
    "name": "Mortsel NMBS Mortsel 3E3P - fietsrek",
    "latitude": "51.1822867",
    "longitude": "4.4479984",
    "thumbnail_url": ""
  },
  {
    "id": "",
    "name": "Mortsel NMBS Oude God 4E2P - fietsrek",
    "latitude": "51.1712838",
    "longitude": "4.456269",
    "thumbnail_url": ""
  },
  {
    "id": "",
    "name": "Mortsel Jozef Hermanslei 2E3P - fietsrek",
    "latitude": "51.1765267",
    "longitude": "4.436311",
    "thumbnail_url": ""
  },
  {
    "id": "",
    "name": "Mortsel Meidoorn 2P",
    "latitude": "51.1773393",
    "longitude": "4.4655597",
    "thumbnail_url": ""
  },
  {
    "id": "",
    "name": "Mortsel Vijf-aprilwarande 3P",
    "latitude": "51.1686096",
    "longitude": "4.4431881",
    "thumbnail_url": ""
  },
  {
    "id": "",
    "name": "Niel NMBS dropzone",
    "latitude": "51.11131",
    "longitude": "4.33899",
    "thumbnail_url": ""
  },
  {
    "id": "",
    "name": "Niel Dorpsplein fietsenrek",
    "latitude": "51.109196",
    "longitude": "4.3266157",
    "thumbnail_url": ""
  },
  {
    "id": "",
    "name": "Niel Hellegat 6P fietsenrek",
    "latitude": "51.0995077",
    "longitude": "4.3398469",
    "thumbnail_url": ""
  },
  {
    "id": "",
    "name": "Niel Wetenschapspark Bpost",
    "latitude": "51.1077535",
    "longitude": "4.3582207",
    "thumbnail_url": ""
  },
  {
    "id": "",
    "name": "Ranst Broechem Van Den Nestlaan - fietsrek",
    "latitude": "51.1824395",
    "longitude": "4.5930195",
    "thumbnail_url": ""
  },
  {
    "id": "",
    "name": "Ranst Emblem Dorp - begin parking",
    "latitude": "51.1604595",
    "longitude": "4.599177",
    "thumbnail_url": ""
  },
  {
    "id": "",
    "name": "Ranst Gasthuisstraat - fietsrek",
    "latitude": "51.1882085",
    "longitude": "4.5621163",
    "thumbnail_url": ""
  },
  {
    "id": "",
    "name": "Ranst Oelegem Kerk - fietsrek",
    "latitude": "51.2111608",
    "longitude": "4.5972153",
    "thumbnail_url": ""
  },
  {
    "id": "",
    "name": "Ranst Oelegem Ter Stratenweg - klinkers",
    "latitude": "51.2102714",
    "longitude": "4.5814866",
    "thumbnail_url": ""
  },
  {
    "id": "",
    "name": "Ranst P+R Oelegem E34 - parking",
    "latitude": "51.2121974",
    "longitude": "4.6236274",
    "thumbnail_url": ""
  },
  {
    "id": "",
    "name": "Rumst N171xN177 Reet",
    "latitude": "51.1069095",
    "longitude": "4.3700794",
    "thumbnail_url": ""
  },
  {
    "id": "",
    "name": "Rumst P+R Vosberg",
    "latitude": "51.0851724",
    "longitude": "4.4451475",
    "thumbnail_url": ""
  },
  {
    "id": "",
    "name": "Rumst Reet Kerk",
    "latitude": "51.1013073",
    "longitude": "4.4120743",
    "thumbnail_url": ""
  },
  {
    "id": "",
    "name": "Rumst Stelplaats",
    "latitude": "51.079164",
    "longitude": "4.4229182",
    "thumbnail_url": ""
  },
  {
    "id": "",
    "name": "Rumst Terhagen Kerk",
    "latitude": "51.0797848",
    "longitude": "4.3979188",
    "thumbnail_url": ""
  },
  {
    "id": "",
    "name": "SGW De Klinge Kerk",
    "latitude": "51.2562406",
    "longitude": "4.0902187",
    "thumbnail_url": ""
  },
  {
    "id": "",
    "name": "Sint-Gillis-Waas Gemeentehuis 4E4P",
    "latitude": "51.2171042",
    "longitude": "4.129155",
    "thumbnail_url": ""
  },
  {
    "id": "",
    "name": "Sint-Gillis-Waas Sint Helena",
    "latitude": "51.2232609",
    "longitude": "4.1254086",
    "thumbnail_url": ""
  },
  {
    "id": "",
    "name": "SGW Meerdonk Dorp 4E",
    "latitude": "51.2602935",
    "longitude": "4.146962",
    "thumbnail_url": ""
  },
  {
    "id": "",
    "name": "Sint-Gillis-Waas Sint-Pauwels 4E",
    "latitude": "51.1939998",
    "longitude": "4.0958891",
    "thumbnail_url": ""
  },
  {
    "id": "",
    "name": "Temse Hoogkamer 2E4P",
    "latitude": "51.1395048",
    "longitude": "4.1848355",
    "thumbnail_url": ""
  },
  {
    "id": "",
    "name": "Temse Velle Kerk 4E",
    "latitude": "51.1604158",
    "longitude": "4.2071736",
    "thumbnail_url": ""
  },
  {
    "id": "",
    "name": "Temse Elversele N41 4E",
    "latitude": "51.1138909",
    "longitude": "4.1427063",
    "thumbnail_url": ""
  },
  {
    "id": "",
    "name": "Waasmunster VTC Meermin 4E",
    "latitude": "51.1071388",
    "longitude": "4.0878297",
    "thumbnail_url": ""
  },
  {
    "id": "",
    "name": "Wijnegem Dorp - dropzone",
    "latitude": "51.2276465",
    "longitude": "4.5238201",
    "thumbnail_url": ""
  },
  {
    "id": "",
    "name": "Wijnegem 't Gasthuis - fietsrek",
    "latitude": "51.2258997",
    "longitude": "4.5141722",
    "thumbnail_url": ""
  },
  {
    "id": "",
    "name": "Wijnegem - Shopping Center - fietsrek",
    "latitude": "51.2223947",
    "longitude": "4.499977",
    "thumbnail_url": ""
  },
  {
    "id": "",
    "name": "Wijnegem Houtlaan/Ganzenweg - fietsrek",
    "latitude": "51.2302155",
    "longitude": "4.5082501",
    "thumbnail_url": ""
  },
  {
    "id": "",
    "name": "Wijnegem Hippolyte Meeusstraat - voetpad",
    "latitude": "51.2279672",
    "longitude": "4.5416169",
    "thumbnail_url": ""
  },
  {
    "id": "",
    "name": "Wijnegem Sportcentrum - fietsrek",
    "latitude": "51.2253646",
    "longitude": "4.5334841",
    "thumbnail_url": ""
  },
  {
    "id": "",
    "name": "Zandhoven Dorp",
    "latitude": "51.2135236",
    "longitude": "4.6567335",
    "thumbnail_url": ""
  },
  {
    "id": "",
    "name": "Zandhoven P+R Massenhoven",
    "latitude": "51.1944983",
    "longitude": "4.6417568",
    "thumbnail_url": ""
  },
  {
    "id": "",
    "name": "Zandhoven Pulle Dorp",
    "latitude": "51.2042647",
    "longitude": "4.7119741",
    "thumbnail_url": ""
  },
  {
    "id": "",
    "name": "Zandhoven Viersel Dorp",
    "latitude": "51.1882983",
    "longitude": "4.647883",
    "thumbnail_url": ""
  },
  {
    "id": "",
    "name": "Zandhoven Pulderbos Dorp",
    "latitude": "51.2180236",
    "longitude": "4.6912103",
    "thumbnail_url": ""
  },
  {
    "id": "",
    "name": "Merksem P+R Keisershoek",
    "latitude": "51.2582688",
    "longitude": "4.4617089",
    "thumbnail_url": ""
  },
  {
    "id": "",
    "name": "Brasschaat Rustoordlei",
    "latitude": "51.3011966",
    "longitude": "4.4719884",
    "thumbnail_url": ""
  },
  {
    "id": "",
    "name": "Brasschaat KLINA 6E2P - Begin bushalte",
    "latitude": "51.2977296",
    "longitude": "4.4887938",
    "thumbnail_url": ""
  },
  {
    "id": "",
    "name": "Brasschaat Vriesdonk Donksestnweg 4E4P- rek",
    "latitude": "51.2797448",
    "longitude": "4.4533395",
    "thumbnail_url": ""
  },
  {
    "id": "",
    "name": "Brasschaat Mariaburg 6E4P - Tussen paaltjes",
    "latitude": "51.2911554",
    "longitude": "4.4450472",
    "thumbnail_url": ""
  },
  {
    "id": "",
    "name": "Brasschaat Perron Noord - randparkeren",
    "latitude": "51.3362568",
    "longitude": "4.502239",
    "thumbnail_url": ""
  },
  {
    "id": "",
    "name": "Merksem Kroonplein",
    "latitude": "51.2510709",
    "longitude": "4.4491161",
    "thumbnail_url": ""
  },
  {
    "id": "",
    "name": "Merksem Oudebarreel",
    "latitude": "51.246592",
    "longitude": "4.450544",
    "thumbnail_url": ""
  },
  {
    "id": "",
    "name": "Borgerhout Kwekerijstraat",
    "latitude": "51.2204387",
    "longitude": "4.4417214",
    "thumbnail_url": ""
  },
  {
    "id": "",
    "name": "Aartselaar Laar oranje fietsenrek",
    "latitude": "51.1343393",
    "longitude": "4.3870868",
    "thumbnail_url": ""
  },
  {
    "id": "",
    "name": "Aartselaar N177 x Kontichsesteenweg",
    "latitude": "51.1422947",
    "longitude": "4.3786785",
    "thumbnail_url": ""
  },
  {
    "id": "",
    "name": "Aartselaar Sportcentrum fietsenrek",
    "latitude": "51.1384693",
    "longitude": "4.4002256",
    "thumbnail_url": ""
  },
  {
    "id": "",
    "name": "Schelle NMBS - fietsrek",
    "latitude": "51.1257083",
    "longitude": "4.3400962",
    "thumbnail_url": ""
  },
  {
    "id": "",
    "name": "Hove Kerk",
    "latitude": "51.1543511",
    "longitude": "4.4711801",
    "thumbnail_url": ""
  },
  {
    "id": "",
    "name": "Hove station NMBS",
    "latitude": "51.1540827",
    "longitude": "4.4647593",
    "thumbnail_url": ""
  },
  {
    "id": "",
    "name": "Schilde Brasschaatsebaan",
    "latitude": "51.2383751",
    "longitude": "4.5776719",
    "thumbnail_url": ""
  },
  {
    "id": "",
    "name": "Schilde 's-Gravenwezel Centrum",
    "latitude": "51.2631298",
    "longitude": "4.5535665",
    "thumbnail_url": ""
  },
  {
    "id": "",
    "name": "Zoersel - Halle Kerk - fietsrek",
    "latitude": "51.2396731",
    "longitude": "4.6483279",
    "thumbnail_url": ""
  },
  {
    "id": "",
    "name": "Zoersel Dorp - fietsrek",
    "latitude": "51.2695976",
    "longitude": "4.7135028",
    "thumbnail_url": ""
  },
  {
    "id": "",
    "name": "Zoersel P+R De Haan - fietsrek",
    "latitude": "51.2458737",
    "longitude": "4.7037676",
    "thumbnail_url": ""
  },
  {
    "id": "",
    "name": "Zoersel Sint Antonius Bib - fietsenrek",
    "latitude": "51.2652824",
    "longitude": "4.6358878",
    "thumbnail_url": ""
  },
  {
    "id": "",
    "name": "Zoersel - Eikenlaan - fietsrek",
    "latitude": "51.2529082",
    "longitude": "4.6174962",
    "thumbnail_url": ""
  },
  {
    "id": "",
    "name": "Wommelgem Brieleke 4P",
    "latitude": "51.2018972",
    "longitude": "4.5143886",
    "thumbnail_url": ""
  },
  {
    "id": "",
    "name": "Wommelgem Kerk 6E",
    "latitude": "51.2033151",
    "longitude": "4.5223774",
    "thumbnail_url": ""
  },
  {
    "id": "",
    "name": "Zandvliet Dorp / Botermarkt 2E4P",
    "latitude": "51.3598625",
    "longitude": "4.3086909",
    "thumbnail_url": ""
  },
  {
    "id": "",
    "name": "Berendrecht Dorpsstraat 2E4P",
    "latitude": "51.3435962",
    "longitude": "4.3139056",
    "thumbnail_url": ""
  },
  {
    "id": "",
    "name": "Berendrecht Steenovenstraat 2E4P",
    "latitude": "51.3540569",
    "longitude": "4.3343867",
    "thumbnail_url": ""
  },
  {
    "id": "",
    "name": "Berendrecht dienstencentrum 2E4P",
    "latitude": "51.3461711",
    "longitude": "4.3228089",
    "thumbnail_url": ""
  },
  {
    "id": "",
    "name": "Zandvliet Antwerpsebaan 2E2P",
    "latitude": "51.3695289",
    "longitude": "4.3312797",
    "thumbnail_url": ""
  },
  {
    "id": "",
    "name": "Berendrecht Molengeest 2E4P",
    "latitude": "51.3525729",
    "longitude": "4.3230867",
    "thumbnail_url": ""
  },
  {
    "id": "",
    "name": "Berendrecht Sporthal 2E2P",
    "latitude": "51.3502329",
    "longitude": "4.3159764",
    "thumbnail_url": ""
  },
  {
    "id": "",
    "name": "Stabroek Hoevenen Markt",
    "latitude": "51.3066845",
    "longitude": "4.4044079",
    "thumbnail_url": ""
  },
  {
    "id": "",
    "name": "Stabroek op-en afrit P+R",
    "latitude": "51.3267808",
    "longitude": "4.3535878",
    "thumbnail_url": ""
  },
  {
    "id": "",
    "name": "Stabroek Dorp",
    "latitude": "51.3322509",
    "longitude": "4.3650623",
    "thumbnail_url": ""
  },
  {
    "id": "",
    "name": "Stabroek Hoevenen Krekelberg",
    "latitude": "51.3142139",
    "longitude": "4.395384",
    "thumbnail_url": ""
  },
  {
    "id": "",
    "name": "Schoten Deuzelt Kerk",
    "latitude": "51.2448797",
    "longitude": "4.4668882",
    "thumbnail_url": ""
  },
  {
    "id": "",
    "name": "Schoten Markt",
    "latitude": "51.2510355",
    "longitude": "4.498565",
    "thumbnail_url": ""
  },
  {
    "id": "",
    "name": "Schoten Zeurt",
    "latitude": "51.2644387",
    "longitude": "4.5080086",
    "thumbnail_url": ""
  },
  {
    "id": "",
    "name": "Wommelgem P+R Draaiboom (P+R Wommelgem)",
    "latitude": "51.2117876",
    "longitude": "4.4915775",
    "thumbnail_url": ""
  },
  {
    "id": "",
    "name": "Schelle Leopoldstraat - fietsenrek",
    "latitude": "51.129044",
    "longitude": "4.3355035",
    "thumbnail_url": ""
  },
  {
    "id": "",
    "name": "Schelle bushalte Tolhuisstraat - fietsrek",
    "latitude": "51.1193298",
    "longitude": "4.3342423",
    "thumbnail_url": ""
  },
  {
    "id": "",
    "name": "Lillo Parking Jachthaven",
    "latitude": "51.3039512",
    "longitude": "4.2888445",
    "thumbnail_url": ""
  },
  {
    "id": "",
    "name": "Zwijndrecht Dorp - fietsrek",
    "latitude": "51.2191161",
    "longitude": "4.3256017",
    "thumbnail_url": ""
  },
  {
    "id": "",
    "name": "Zwijndrecht Burcht Kaai - fietsrek",
    "latitude": "51.2015399",
    "longitude": "4.3488707",
    "thumbnail_url": ""
  },
  {
    "id": "",
    "name": "Zwijndrecht NMBS zuid - fietsrek",
    "latitude": "51.2139016",
    "longitude": "4.3312058",
    "thumbnail_url": ""
  },
  {
    "id": "",
    "name": "Stabroek 's Hertogendijk",
    "latitude": "51.3264223",
    "longitude": "4.3844368",
    "thumbnail_url": ""
  },
  {
    "id": "",
    "name": "Wuustwezel Dorp - fietsrek",
    "latitude": "51.390178",
    "longitude": "4.5920801",
    "thumbnail_url": ""
  },
  {
    "id": "",
    "name": "Wuustwezel Sociaal Huis - fietsrek",
    "latitude": "51.3608177",
    "longitude": "4.5560229",
    "thumbnail_url": ""
  },
  {
    "id": "",
    "name": "Wuustwezel Loenhout Kerk - fietsrek",
    "latitude": "51.3984061",
    "longitude": "4.6424488",
    "thumbnail_url": ""
  },
  {
    "id": "",
    "name": "Essen Heuvelplein - fietsrek",
    "latitude": "51.4651672",
    "longitude": "4.4718705",
    "thumbnail_url": ""
  },
  {
    "id": "",
    "name": "Essen Industrie Rijkmaker - fietsrek",
    "latitude": "51.4470525",
    "longitude": "4.4958655",
    "thumbnail_url": ""
  },
  {
    "id": "",
    "name": "Essen NMBS Essen - fietsrek",
    "latitude": "51.4623951",
    "longitude": "4.4518749",
    "thumbnail_url": ""
  },
  {
    "id": "",
    "name": "Essen NMBS Wildert - fietsrek",
    "latitude": "51.4278222",
    "longitude": "4.4631891",
    "thumbnail_url": ""
  },
  {
    "id": "",
    "name": "Temse NMBS 6E4P",
    "latitude": "51.1262417",
    "longitude": "4.2214392",
    "thumbnail_url": ""
  },
  {
    "id": "",
    "name": "Kruibeke Bazel Dorp 6E4P",
    "latitude": "51.1481985",
    "longitude": "4.2985273",
    "thumbnail_url": ""
  },
  {
    "id": "",
    "name": "Kruibeke Kerk 6E4P",
    "latitude": "51.1278827",
    "longitude": "4.290993",
    "thumbnail_url": ""
  },
  {
    "id": "",
    "name": "Kruibeke Rupelmonde Mercatorplein 6E6P",
    "latitude": "51.1712662",
    "longitude": "4.3113084",
    "thumbnail_url": ""
  },
  {
    "id": "",
    "name": "Kruibeke Scheldelei - Veerdienst 4E4P",
    "latitude": "51.1756097",
    "longitude": "4.3232964",
    "thumbnail_url": ""
  },
  {
    "id": "",
    "name": "Sint-Niklaas Station Belsele NMBS 4E",
    "latitude": "51.1507819",
    "longitude": "4.0877571",
    "thumbnail_url": ""
  },
  {
    "id": "",
    "name": "Sint-Niklaas Nieuwkerken NMBS 4E2P",
    "latitude": "51.1852432",
    "longitude": "4.1843825",
    "thumbnail_url": ""
  },
  {
    "id": "",
    "name": "Sint-Niklaas NMBS 10E",
    "latitude": "51.1714122",
    "longitude": "4.144773",
    "thumbnail_url": ""
  },
  {
    "id": "",
    "name": "Sint-Niklaas Waasland Shopping",
    "latitude": "51.151939",
    "longitude": "4.156101",
    "thumbnail_url": ""
  },
  {
    "id": "",
    "name": "Sint-Niklaas SVK 4E6P",
    "latitude": "51.1658005",
    "longitude": "4.1291698",
    "thumbnail_url": ""
  },
  {
    "id": "",
    "name": "Stekene Dorp 3E2P",
    "latitude": "51.2064267",
    "longitude": "4.0415209",
    "thumbnail_url": ""
  },
  {
    "id": "",
    "name": "Aartselaar A12 Shopping fietsenrek",
    "latitude": "51.1177506",
    "longitude": "4.37493",
    "thumbnail_url": ""
  },
  {
    "id": "",
    "name": "Antwerp Nieuw Zuid",
    "latitude": "51.205237",
    "longitude": "4.3819054",
    "thumbnail_url": ""
  },
  {
    "id": "",
    "name": "Antwerp Schoenmarkt",
    "latitude": "51.2184202",
    "longitude": "4.4028246",
    "thumbnail_url": ""
  },
  {
    "id": "",
    "name": "Antwerp Vlinderpaleis",
    "latitude": "51.2038201",
    "longitude": "4.3884966",
    "thumbnail_url": ""
  },
  {
    "id": "",
    "name": "Antwerp Diamant",
    "latitude": "51.2151852",
    "longitude": "4.4203388",
    "thumbnail_url": ""
  },
  {
    "id": "",
    "name": "Antwerp Tropisch Instituut",
    "latitude": "51.2121962",
    "longitude": "4.3973301",
    "thumbnail_url": ""
  },
  {
    "id": "",
    "name": "Antwerp Sint-Annatunnel",
    "latitude": "51.2188539",
    "longitude": "4.3959806",
    "thumbnail_url": ""
  },
  {
    "id": "",
    "name": "Antwerp Nationalestraat",
    "latitude": "51.2167127",
    "longitude": "4.3993757",
    "thumbnail_url": ""
  },
  {
    "id": "",
    "name": "Brecht Dienstencentrum Sint-Job",
    "latitude": "51.2923216",
    "longitude": "4.5768149",
    "thumbnail_url": ""
  },
  {
    "id": "",
    "name": "Deurne Park Groot Schijn",
    "latitude": "51.2169411",
    "longitude": "4.4822897",
    "thumbnail_url": ""
  },
  {
    "id": "",
    "name": "Antwerp Meirbrug",
    "latitude": "51.2184813",
    "longitude": "4.4053892",
    "thumbnail_url": ""
  },
  {
    "id": "",
    "name": "Antwerp Eiermarkt",
    "latitude": "51.2192207",
    "longitude": "4.4036658",
    "thumbnail_url": ""
  },
  {
    "id": "",
    "name": "Antwerp De Vri\u00e9restraat",
    "latitude": "51.2099898",
    "longitude": "4.3975994",
    "thumbnail_url": ""
  },
  {
    "id": "",
    "name": "Antwerp Willemdok",
    "latitude": "51.2294765",
    "longitude": "4.4113152",
    "thumbnail_url": ""
  },
  {
    "id": "",
    "name": "Ekeren Kloosterstraat",
    "latitude": "51.2839515",
    "longitude": "4.4159152",
    "thumbnail_url": ""
  },
  {
    "id": "",
    "name": "Ekeren NMBS Zuid 4E4P",
    "latitude": "51.2810199",
    "longitude": "4.4344623",
    "thumbnail_url": ""
  },
  {
    "id": "",
    "name": "Antwerp The Beacon",
    "latitude": "51.2253043",
    "longitude": "4.4013024",
    "thumbnail_url": ""
  },
  {
    "id": "",
    "name": "Antwerp Zuid NMBS Montigny",
    "latitude": "51.1987098",
    "longitude": "4.3906729",
    "thumbnail_url": ""
  },
  {
    "id": "",
    "name": "Antwerp CS De Keyserlei",
    "latitude": "51.217337",
    "longitude": "4.4203519",
    "thumbnail_url": ""
  },
  {
    "id": "",
    "name": "Luchtbal Noorderlaan  - stoep",
    "latitude": "51.2547762",
    "longitude": "4.4198768",
    "thumbnail_url": ""
  },
  {
    "id": "",
    "name": "Antwerp AP Hogeschool",
    "latitude": "51.2298784",
    "longitude": "4.4144078",
    "thumbnail_url": ""
  },
  {
    "id": "",
    "name": "Antwerp Ossenmarkt",
    "latitude": "51.2220094",
    "longitude": "4.4133097",
    "thumbnail_url": ""
  },
  {
    "id": "",
    "name": "Antwerp Scheldepark",
    "latitude": "51.2110647",
    "longitude": "4.3884594",
    "thumbnail_url": ""
  },
  {
    "id": "",
    "name": "Deurne Sportpaleis",
    "latitude": "51.2301001",
    "longitude": "4.4424071",
    "thumbnail_url": ""
  },
  {
    "id": "",
    "name": "Deurne Van Deynsestraat",
    "latitude": "51.2304078",
    "longitude": "4.4511701",
    "thumbnail_url": ""
  },
  {
    "id": "",
    "name": "Deurne Bisschoppenhofpark",
    "latitude": "51.2319148",
    "longitude": "4.4606547",
    "thumbnail_url": ""
  },
  {
    "id": "",
    "name": "Deurne Bosuil",
    "latitude": "51.2310595",
    "longitude": "4.4691828",
    "thumbnail_url": ""
  },
  {
    "id": "",
    "name": "Deurne De Berlaimont",
    "latitude": "51.2284188",
    "longitude": "4.4574693",
    "thumbnail_url": ""
  },
  {
    "id": "",
    "name": "Deurne Venneborglaan",
    "latitude": "51.2198801",
    "longitude": "4.4704934",
    "thumbnail_url": ""
  },
  {
    "id": "",
    "name": "Deurne Kasteel Sterckhof",
    "latitude": "51.2149569",
    "longitude": "4.4615348",
    "thumbnail_url": ""
  },
  {
    "id": "",
    "name": "Borgerhout Windsor",
    "latitude": "51.2089713",
    "longitude": "4.4469875",
    "thumbnail_url": ""
  },
  {
    "id": "",
    "name": "Deurne Ruggeveld",
    "latitude": "51.2192673",
    "longitude": "4.4806825",
    "thumbnail_url": ""
  },
  {
    "id": "",
    "name": "Borgerhout Berchemlei",
    "latitude": "51.202912",
    "longitude": "4.4457833",
    "thumbnail_url": ""
  },
  {
    "id": "",
    "name": "Wilrijk Sportcentrum fietsenrek",
    "latitude": "51.1892695",
    "longitude": "4.3970582",
    "thumbnail_url": ""
  },
  {
    "id": "",
    "name": "Antwerp De Singel",
    "latitude": "51.1937168",
    "longitude": "4.4023895",
    "thumbnail_url": ""
  },
  {
    "id": "",
    "name": "Antwerp Desguinlei",
    "latitude": "51.1965364",
    "longitude": "4.3964514",
    "thumbnail_url": ""
  },
  {
    "id": "",
    "name": "Antwerp Hof ter Bekestraat",
    "latitude": "51.2017915",
    "longitude": "4.3960841",
    "thumbnail_url": ""
  },
  {
    "id": "",
    "name": "Antwerp Boudewijns",
    "latitude": "51.2050155",
    "longitude": "4.4002486",
    "thumbnail_url": ""
  },
  {
    "id": "",
    "name": "Borgerhout Mars",
    "latitude": "51.2014238",
    "longitude": "4.442068",
    "thumbnail_url": ""
  },
  {
    "id": "",
    "name": "Wilrijk Nachtegalenpark fietsenrek",
    "latitude": "51.1832076",
    "longitude": "4.4072717",
    "thumbnail_url": ""
  },
  {
    "id": "",
    "name": "Wilrijk Crowne Plaza rode fietsenrek",
    "latitude": "51.1901779",
    "longitude": "4.4048477",
    "thumbnail_url": ""
  },
  {
    "id": "",
    "name": "Berchem Vredestraat",
    "latitude": "51.196181",
    "longitude": "4.4261575",
    "thumbnail_url": ""
  },
  {
    "id": "",
    "name": "Berchem St Hubertus",
    "latitude": "51.1986559",
    "longitude": "4.4244218",
    "thumbnail_url": ""
  },
  {
    "id": "",
    "name": "Berchem De Koninck",
    "latitude": "51.1994299",
    "longitude": "4.4167279",
    "thumbnail_url": ""
  },
  {
    "id": "",
    "name": "Antwerp Pothoek",
    "latitude": "51.2255148",
    "longitude": "4.4364113",
    "thumbnail_url": ""
  },
  {
    "id": "",
    "name": "Antwerp Eilandje",
    "latitude": "51.233069",
    "longitude": "4.4052646",
    "thumbnail_url": ""
  },
  {
    "id": "",
    "name": "Antwerp Houtdok",
    "latitude": "51.2348973",
    "longitude": "4.4138465",
    "thumbnail_url": ""
  },
  {
    "id": "",
    "name": "Antwerp Schengenplein",
    "latitude": "51.2332895",
    "longitude": "4.4110163",
    "thumbnail_url": ""
  },
  {
    "id": "",
    "name": "Hoboken Sint Jozefkerk fietsenrek",
    "latitude": "51.171902",
    "longitude": "4.3384499",
    "thumbnail_url": ""
  },
  {
    "id": "",
    "name": "Hoboken Valaar fietsenrek",
    "latitude": "51.175452",
    "longitude": "4.3788715",
    "thumbnail_url": ""
  },
  {
    "id": "",
    "name": "Hoboken Bibliotheek fietsenrek",
    "latitude": "51.1894536",
    "longitude": "4.3863227",
    "thumbnail_url": ""
  },
  {
    "id": "",
    "name": "Hoboken Beerschot dropzone",
    "latitude": "51.1837456",
    "longitude": "4.3824985",
    "thumbnail_url": ""
  },
  {
    "id": "",
    "name": "Hoboken Broydenborgpark fietsenrek",
    "latitude": "51.1735248",
    "longitude": "4.3523699",
    "thumbnail_url": ""
  },
  {
    "id": "",
    "name": "Hoboken Roodenbekehoek fietsenrek",
    "latitude": "51.1784775",
    "longitude": "4.3486735",
    "thumbnail_url": ""
  },
  {
    "id": "",
    "name": "Antwerp Butchers",
    "latitude": "51.2061742",
    "longitude": "4.3926534",
    "thumbnail_url": ""
  },
  {
    "id": "",
    "name": "Borgerhout Krugerpark",
    "latitude": "51.215935",
    "longitude": "4.4418582",
    "thumbnail_url": ""
  },
  {
    "id": "",
    "name": "Berchem Van Hombeeckplein",
    "latitude": "51.1948325",
    "longitude": "4.4166501",
    "thumbnail_url": ""
  },
  {
    "id": "",
    "name": "Antwerp Hondenweide",
    "latitude": "51.2004112",
    "longitude": "4.3898075",
    "thumbnail_url": ""
  },
  {
    "id": "",
    "name": "Antwerp Colruyt Zuid",
    "latitude": "51.2058758",
    "longitude": "4.385983",
    "thumbnail_url": ""
  },
  {
    "id": "",
    "name": "Antwerp Waterpoort",
    "latitude": "51.2079332",
    "longitude": "4.3887387",
    "thumbnail_url": ""
  },
  {
    "id": "",
    "name": "Antwerp Alamarine",
    "latitude": "51.2087587",
    "longitude": "4.3873909",
    "thumbnail_url": ""
  },
  {
    "id": "",
    "name": "Antwerp Waagnatie",
    "latitude": "51.232873",
    "longitude": "4.4028236",
    "thumbnail_url": ""
  },
  {
    "id": "",
    "name": "Antwerp Haven Havenhuis 4E",
    "latitude": "51.24029",
    "longitude": "4.4083963",
    "thumbnail_url": ""
  },
  {
    "id": "",
    "name": "Antwerp Tunnelplaats",
    "latitude": "51.2264657",
    "longitude": "4.4137945",
    "thumbnail_url": ""
  },
  {
    "id": "",
    "name": "Antwerp Falconplein",
    "latitude": "51.226194",
    "longitude": "4.4050184",
    "thumbnail_url": ""
  },
  {
    "id": "",
    "name": "Antwerp Falconrui",
    "latitude": "51.2252231",
    "longitude": "4.404898",
    "thumbnail_url": ""
  },
  {
    "id": "",
    "name": "Antwerp Veemarkt",
    "latitude": "51.2237107",
    "longitude": "4.4000355",
    "thumbnail_url": ""
  },
  {
    "id": "",
    "name": "Antwerp Steenhouwersvest",
    "latitude": "51.2180676",
    "longitude": "4.3980081",
    "thumbnail_url": ""
  },
  {
    "id": "",
    "name": "Antwerp Wasbar",
    "latitude": "51.212147",
    "longitude": "4.3940243",
    "thumbnail_url": ""
  },
  {
    "id": "",
    "name": "Antwerp Pulcinella",
    "latitude": "51.2154751",
    "longitude": "4.4006353",
    "thumbnail_url": ""
  },
  {
    "id": "",
    "name": "Antwerp Theaterplein",
    "latitude": "51.2147032",
    "longitude": "4.4106269",
    "thumbnail_url": ""
  },
  {
    "id": "",
    "name": "Antwerp Kasteelplein",
    "latitude": "51.2097726",
    "longitude": "4.4020337",
    "thumbnail_url": ""
  },
  {
    "id": "",
    "name": "Antwerp Rubenshuis",
    "latitude": "51.217223",
    "longitude": "4.4089988",
    "thumbnail_url": ""
  },
  {
    "id": "",
    "name": "Antwerp Markgravelei",
    "latitude": "51.2006849",
    "longitude": "4.3984557",
    "thumbnail_url": ""
  },
  {
    "id": "",
    "name": "Antwerp Leman",
    "latitude": "51.1967806",
    "longitude": "4.4106009",
    "thumbnail_url": ""
  },
  {
    "id": "",
    "name": "Antwerp Rijswijck",
    "latitude": "51.1969287",
    "longitude": "4.4063839",
    "thumbnail_url": ""
  },
  {
    "id": "",
    "name": "Antwerp St Vincentius fietsenrek",
    "latitude": "51.2060583",
    "longitude": "4.4136396",
    "thumbnail_url": ""
  },
  {
    "id": "",
    "name": "Antwerp Vinken",
    "latitude": "51.2045148",
    "longitude": "4.4045915",
    "thumbnail_url": ""
  },
  {
    "id": "",
    "name": "Antwerp Molen",
    "latitude": "51.2063784",
    "longitude": "4.4097367",
    "thumbnail_url": ""
  },
  {
    "id": "",
    "name": "Antwerp Mechelsesteen",
    "latitude": "51.2039879",
    "longitude": "4.4114429",
    "thumbnail_url": ""
  },
  {
    "id": "",
    "name": "Borgerhout Trix",
    "latitude": "51.2197153",
    "longitude": "4.4487001",
    "thumbnail_url": ""
  },
  {
    "id": "",
    "name": "Antwerp Hospitaalplein",
    "latitude": "51.2035188",
    "longitude": "4.4256677",
    "thumbnail_url": ""
  },
  {
    "id": "",
    "name": "Antwerp Lamoriniere",
    "latitude": "51.2038991",
    "longitude": "4.4207887",
    "thumbnail_url": ""
  },
  {
    "id": "",
    "name": "Antwerp Nestlei",
    "latitude": "51.2095268",
    "longitude": "4.4238699",
    "thumbnail_url": ""
  },
  {
    "id": "",
    "name": "Berchem Marsenille",
    "latitude": "51.1989534",
    "longitude": "4.4280813",
    "thumbnail_url": ""
  },
  {
    "id": "",
    "name": "Antwerp Draakplaats",
    "latitude": "51.2056443",
    "longitude": "4.4321761",
    "thumbnail_url": ""
  },
  {
    "id": "",
    "name": "Antwerp UA Veke",
    "latitude": "51.2228246",
    "longitude": "4.4113085",
    "thumbnail_url": ""
  },
  {
    "id": "",
    "name": "Antwerp Stadswaag",
    "latitude": "51.2240324",
    "longitude": "4.4071906",
    "thumbnail_url": ""
  },
  {
    "id": "",
    "name": "Antwerp Minderbroeder",
    "latitude": "51.2230931",
    "longitude": "4.4061026",
    "thumbnail_url": ""
  },
  {
    "id": "",
    "name": "Antwerp Kipdorp",
    "latitude": "51.2206514",
    "longitude": "4.4097146",
    "thumbnail_url": ""
  },
  {
    "id": "",
    "name": "Antwerp Hessenplein",
    "latitude": "51.2258816",
    "longitude": "4.4097421",
    "thumbnail_url": ""
  },
  {
    "id": "",
    "name": "Antwerp Koepoort",
    "latitude": "51.2236212",
    "longitude": "4.402995",
    "thumbnail_url": ""
  },
  {
    "id": "",
    "name": "Antwerp Oudaan",
    "latitude": "51.2161977",
    "longitude": "4.404611",
    "thumbnail_url": ""
  },
  {
    "id": "",
    "name": "Antwerp Blauwtoren",
    "latitude": "51.2128154",
    "longitude": "4.4094349",
    "thumbnail_url": ""
  },
  {
    "id": "",
    "name": "Hoboken Vinkevelden fietsenrek",
    "latitude": "51.173478",
    "longitude": "4.3475001",
    "thumbnail_url": ""
  },
  {
    "id": "",
    "name": "Antwerp Sint Carolus",
    "latitude": "51.220856",
    "longitude": "4.4039418",
    "thumbnail_url": ""
  },
  {
    "id": "",
    "name": "Wilrijk Sport Terbeke dropzone",
    "latitude": "51.1618079",
    "longitude": "4.3757923",
    "thumbnail_url": ""
  },
  {
    "id": "",
    "name": "Antwerp Victor Jacobs",
    "latitude": "51.1978076",
    "longitude": "4.4253727",
    "thumbnail_url": ""
  },
  {
    "id": "",
    "name": "Antwerp Limaplein",
    "latitude": "51.2344477",
    "longitude": "4.4035063",
    "thumbnail_url": ""
  },
  {
    "id": "",
    "name": "Antwerp Kinderpark",
    "latitude": "51.2086793",
    "longitude": "4.3849417",
    "thumbnail_url": ""
  },
  {
    "id": "",
    "name": "Wilrijk Planetariumlaan fietsenrek",
    "latitude": "51.1554118",
    "longitude": "4.3897532",
    "thumbnail_url": ""
  },
  {
    "id": "",
    "name": "Wilrijk Neerland fietsenrek",
    "latitude": "51.1625075",
    "longitude": "4.3893821",
    "thumbnail_url": ""
  },
  {
    "id": "",
    "name": "Antwerp Play Zuid",
    "latitude": "51.2069428",
    "longitude": "4.3858305",
    "thumbnail_url": ""
  },
  {
    "id": "",
    "name": "Antwerp Leon Steyen",
    "latitude": "51.2066486",
    "longitude": "4.3842081",
    "thumbnail_url": ""
  },
  {
    "id": "",
    "name": "Antwerp Zomerbar",
    "latitude": "51.2307461",
    "longitude": "4.422966",
    "thumbnail_url": ""
  },
  {
    "id": "",
    "name": "Antwerp Oranje",
    "latitude": "51.2280551",
    "longitude": "4.4230649",
    "thumbnail_url": ""
  },
  {
    "id": "",
    "name": "Merksem Jan Palfijn",
    "latitude": "51.257449",
    "longitude": "4.4490539",
    "thumbnail_url": ""
  },
  {
    "id": "",
    "name": "Merksem Kwadeveldenplein",
    "latitude": "51.2585518",
    "longitude": "4.4418468",
    "thumbnail_url": ""
  },
  {
    "id": "",
    "name": "Merksem Sport",
    "latitude": "51.2602502",
    "longitude": "4.4601461",
    "thumbnail_url": ""
  },
  {
    "id": "",
    "name": "Merksem Carrefour",
    "latitude": "51.2589173",
    "longitude": "4.4652987",
    "thumbnail_url": ""
  },
  {
    "id": "",
    "name": "Merksem Districtshuis",
    "latitude": "51.2425174",
    "longitude": "4.4420315",
    "thumbnail_url": ""
  },
  {
    "id": "",
    "name": "Merksem Lambrechts",
    "latitude": "51.2480901",
    "longitude": "4.4321113",
    "thumbnail_url": ""
  },
  {
    "id": "",
    "name": "Merksem Nieuwdreef",
    "latitude": "51.2513396",
    "longitude": "4.4376276",
    "thumbnail_url": ""
  },
  {
    "id": "",
    "name": "Merksem Terlindenhof",
    "latitude": "51.248108",
    "longitude": "4.4442198",
    "thumbnail_url": ""
  },
  {
    "id": "",
    "name": "Merksem Ringlaan",
    "latitude": "51.2538689",
    "longitude": "4.4598661",
    "thumbnail_url": ""
  },
  {
    "id": "",
    "name": "Antwerp Elisabeth",
    "latitude": "51.2227742",
    "longitude": "4.4240875",
    "thumbnail_url": ""
  },
  {
    "id": "",
    "name": "Antwerp ZNA Stuivenberg",
    "latitude": "51.2231362",
    "longitude": "4.4364431",
    "thumbnail_url": ""
  },
  {
    "id": "",
    "name": "Antwerp Stuivenbergplein",
    "latitude": "51.2264256",
    "longitude": "4.4285105",
    "thumbnail_url": ""
  },
  {
    "id": "",
    "name": "Antwerp Sint-Willibrordus",
    "latitude": "51.2189475",
    "longitude": "4.4315608",
    "thumbnail_url": ""
  },
  {
    "id": "",
    "name": "Antwerp van Goghplein",
    "latitude": "51.2220098",
    "longitude": "4.4293473",
    "thumbnail_url": ""
  },
  {
    "id": "",
    "name": "Merksem Maantjessteen",
    "latitude": "51.2553797",
    "longitude": "4.4446433",
    "thumbnail_url": ""
  },
  {
    "id": "",
    "name": "Deurne Saerens",
    "latitude": "51.2289711",
    "longitude": "4.4781065",
    "thumbnail_url": ""
  },
  {
    "id": "",
    "name": "Hoboken Krugerstraat fietsenrek",
    "latitude": "51.1862416",
    "longitude": "4.3653937",
    "thumbnail_url": ""
  },
  {
    "id": "",
    "name": "Hoboken Hendriklei fietsenrek",
    "latitude": "51.1877132",
    "longitude": "4.3728754",
    "thumbnail_url": ""
  },
  {
    "id": "",
    "name": "Deurne Alfons",
    "latitude": "51.2287706",
    "longitude": "4.4698091",
    "thumbnail_url": ""
  },
  {
    "id": "",
    "name": "Deurne Ter Rivierenlaan",
    "latitude": "51.2231649",
    "longitude": "4.4692237",
    "thumbnail_url": ""
  },
  {
    "id": "",
    "name": "Deurne Sint Rochus",
    "latitude": "51.2049717",
    "longitude": "4.4644675",
    "thumbnail_url": ""
  },
  {
    "id": "",
    "name": "Deurne Arena",
    "latitude": "51.2065339",
    "longitude": "4.4586129",
    "thumbnail_url": ""
  },
  {
    "id": "",
    "name": "Antwerp Lange Koepoort",
    "latitude": "51.2226417",
    "longitude": "4.4024052",
    "thumbnail_url": ""
  },
  {
    "id": "",
    "name": "Antwerp Oostkaai",
    "latitude": "51.2300513",
    "longitude": "4.4076952",
    "thumbnail_url": ""
  },
  {
    "id": "",
    "name": "Antwerp MAS Noord",
    "latitude": "51.2297179",
    "longitude": "4.4033148",
    "thumbnail_url": ""
  },
  {
    "id": "",
    "name": "Antwerp Orteleuskaai",
    "latitude": "51.2250522",
    "longitude": "4.3997002",
    "thumbnail_url": ""
  },
  {
    "id": "",
    "name": "Antwerp Korte Nieuwstraat",
    "latitude": "51.2203711",
    "longitude": "4.4039029",
    "thumbnail_url": ""
  },
  {
    "id": "",
    "name": "Hoboken Sint Catharina fietsenrek",
    "latitude": "51.1926139",
    "longitude": "4.3804647",
    "thumbnail_url": ""
  },
  {
    "id": "",
    "name": "Hoboken Salesianen fietsenrek",
    "latitude": "51.1731673",
    "longitude": "4.3659446",
    "thumbnail_url": ""
  },
  {
    "id": "",
    "name": "Antwerp Meir",
    "latitude": "51.218214",
    "longitude": "4.4149687",
    "thumbnail_url": ""
  },
  {
    "id": "",
    "name": "Antwerp Dam",
    "latitude": "51.2331557",
    "longitude": "4.430836",
    "thumbnail_url": ""
  },
  {
    "id": "",
    "name": "Luchtbal Tampicoplein",
    "latitude": "51.2514743",
    "longitude": "4.4229841",
    "thumbnail_url": ""
  },
  {
    "id": "",
    "name": "Luchtbal Bowling",
    "latitude": "51.2499753",
    "longitude": "4.4207673",
    "thumbnail_url": ""
  },
  {
    "id": "",
    "name": "Antwerp ZNA Cadix",
    "latitude": "51.2315374",
    "longitude": "4.4167218",
    "thumbnail_url": ""
  },
  {
    "id": "",
    "name": "Antwerp Brederode",
    "latitude": "51.2070762",
    "longitude": "4.3974609",
    "thumbnail_url": ""
  },
  {
    "id": "",
    "name": "Wilrijk Mastweg fietsenrek",
    "latitude": "51.1720673",
    "longitude": "4.3933963",
    "thumbnail_url": ""
  },
  {
    "id": "",
    "name": "Berchem Pulhof",
    "latitude": "51.1849153",
    "longitude": "4.4301312",
    "thumbnail_url": ""
  },
  {
    "id": "",
    "name": "Borgerhout Bleekhof",
    "latitude": "51.2114703",
    "longitude": "4.4324842",
    "thumbnail_url": ""
  },
  {
    "id": "",
    "name": "Borgerhout Naeyaertplein",
    "latitude": "51.2097921",
    "longitude": "4.4404963",
    "thumbnail_url": ""
  },
  {
    "id": "",
    "name": "Borgerhout Reiziger",
    "latitude": "51.2136662",
    "longitude": "4.4438256",
    "thumbnail_url": ""
  },
  {
    "id": "",
    "name": "Borgerhout Helm",
    "latitude": "51.2167494",
    "longitude": "4.43171",
    "thumbnail_url": ""
  },
  {
    "id": "",
    "name": "Berchem Williot",
    "latitude": "51.1875363",
    "longitude": "4.4340784",
    "thumbnail_url": ""
  },
  {
    "id": "",
    "name": "Antwerp Kapel",
    "latitude": "51.2250285",
    "longitude": "4.412373",
    "thumbnail_url": ""
  },
  {
    "id": "",
    "name": "Berchem Campus",
    "latitude": "51.1829888",
    "longitude": "4.4237244",
    "thumbnail_url": ""
  },
  {
    "id": "",
    "name": "Berchem Het Rooi",
    "latitude": "51.1880953",
    "longitude": "4.4368304",
    "thumbnail_url": ""
  },
  {
    "id": "",
    "name": "Hoboken Plein Publiek fietsenrek",
    "latitude": "51.1955141",
    "longitude": "4.3632423",
    "thumbnail_url": ""
  },
  {
    "id": "",
    "name": "Wuustwezel Braken - fietsrek",
    "latitude": "51.4087254",
    "longitude": "4.6120718",
    "thumbnail_url": ""
  },
  {
    "id": "",
    "name": "Wuustwezel Sterbos - fietsrek",
    "latitude": "51.3916791",
    "longitude": "4.5639077",
    "thumbnail_url": ""
  },
  {
    "id": "",
    "name": "Antwerp Stadspark Noord",
    "latitude": "51.2150848",
    "longitude": "4.4153804",
    "thumbnail_url": ""
  },
  {
    "id": "",
    "name": "Antwerp Charlottalei",
    "latitude": "51.2095657",
    "longitude": "4.418479",
    "thumbnail_url": ""
  },
  {
    "id": "",
    "name": "Linkeroever Strantwerpen",
    "latitude": "51.234075",
    "longitude": "4.3946831",
    "thumbnail_url": ""
  },
  {
    "id": "",
    "name": "Linkeroever Plage",
    "latitude": "51.234801",
    "longitude": "4.3865631",
    "thumbnail_url": ""
  },
  {
    "id": "",
    "name": "Linkeroever Maritieme Overheid",
    "latitude": "51.2258133",
    "longitude": "4.3907949",
    "thumbnail_url": ""
  },
  {
    "id": "",
    "name": "Linkeroever Verhaeren",
    "latitude": "51.2233277",
    "longitude": "4.3862412",
    "thumbnail_url": ""
  },
  {
    "id": "",
    "name": "Linkeroever Galgenweel",
    "latitude": "51.2174015",
    "longitude": "4.3779146",
    "thumbnail_url": ""
  },
  {
    "id": "",
    "name": "Linkeroever Halewijn",
    "latitude": "51.2204731",
    "longitude": "4.3786995",
    "thumbnail_url": ""
  },
  {
    "id": "",
    "name": "Linkeroever Colruyt",
    "latitude": "51.2193123",
    "longitude": "4.3642709",
    "thumbnail_url": ""
  },
  {
    "id": "",
    "name": "Linkeroever Spinnaker",
    "latitude": "51.2166431",
    "longitude": "4.3657669",
    "thumbnail_url": ""
  },
  {
    "id": "",
    "name": "Antwerp Van Geert",
    "latitude": "51.2151951",
    "longitude": "4.4274587",
    "thumbnail_url": ""
  },
  {
    "id": "",
    "name": "Antwerp Venus",
    "latitude": "51.2229041",
    "longitude": "4.4088388",
    "thumbnail_url": ""
  },
  {
    "id": "",
    "name": "Antwerp Verbond",
    "latitude": "51.2102166",
    "longitude": "4.4003027",
    "thumbnail_url": ""
  },
  {
    "id": "",
    "name": "Wilrijk UA Drie Eiken fietsenrek",
    "latitude": "51.1602558",
    "longitude": "4.4067702",
    "thumbnail_url": ""
  },
  {
    "id": "",
    "name": "Berchem UA Middelheim",
    "latitude": "51.1839408",
    "longitude": "4.4212406",
    "thumbnail_url": ""
  },
  {
    "id": "",
    "name": "Berchem UA Groenenborger",
    "latitude": "51.1775482",
    "longitude": "4.41588",
    "thumbnail_url": ""
  },
  {
    "id": "",
    "name": "Antwerp Groeningerplein",
    "latitude": "51.2200532",
    "longitude": "4.4381342",
    "thumbnail_url": ""
  },
  {
    "id": "",
    "name": "Borgerhout Terloplein",
    "latitude": "51.2196122",
    "longitude": "4.443908",
    "thumbnail_url": ""
  },
  {
    "id": "",
    "name": "Antwerp Kerkstraat",
    "latitude": "51.2195582",
    "longitude": "4.4347966",
    "thumbnail_url": ""
  },
  {
    "id": "",
    "name": "Antwerp Drossaard",
    "latitude": "51.2185336",
    "longitude": "4.4397509",
    "thumbnail_url": ""
  },
  {
    "id": "",
    "name": "Deurne AZ Monica",
    "latitude": "51.2059024",
    "longitude": "4.4710594",
    "thumbnail_url": ""
  },
  {
    "id": "",
    "name": "Deurne Zwemvijver",
    "latitude": "51.1975655",
    "longitude": "4.4619576",
    "thumbnail_url": ""
  },
  {
    "id": "",
    "name": "Deurne Boekenbergpark",
    "latitude": "51.1996551",
    "longitude": "4.465064",
    "thumbnail_url": ""
  },
  {
    "id": "",
    "name": "Deurne Boekenberg Sport",
    "latitude": "51.1954052",
    "longitude": "4.4725456",
    "thumbnail_url": ""
  },
  {
    "id": "",
    "name": "Borgerhout Zillebeke",
    "latitude": "51.1944102",
    "longitude": "4.4435842",
    "thumbnail_url": ""
  },
  {
    "id": "",
    "name": "Borgerhout Vincotteplein",
    "latitude": "51.2162399",
    "longitude": "4.4382657",
    "thumbnail_url": ""
  },
  {
    "id": "",
    "name": "Antwerp Lindeboom",
    "latitude": "51.2200122",
    "longitude": "4.4360076",
    "thumbnail_url": ""
  },
  {
    "id": "",
    "name": "Antwerp Kistemaecker",
    "latitude": "51.2193581",
    "longitude": "4.4365776",
    "thumbnail_url": ""
  },
  {
    "id": "",
    "name": "Merksem Lambrechtshoeken",
    "latitude": "51.2434571",
    "longitude": "4.4295299",
    "thumbnail_url": ""
  },
  {
    "id": "",
    "name": "Wilrijk Heis fietsenrek",
    "latitude": "51.176462",
    "longitude": "4.3931137",
    "thumbnail_url": ""
  },
  {
    "id": "",
    "name": "Beveren Gravenplein - fietsrek",
    "latitude": "51.2136869",
    "longitude": "4.2607345",
    "thumbnail_url": ""
  },
  {
    "id": "",
    "name": "Beveren Vijfstraten - fietsrek",
    "latitude": "51.2059715",
    "longitude": "4.2411583",
    "thumbnail_url": ""
  },
  {
    "id": "",
    "name": "Antwerp Troonplaats",
    "latitude": "51.203284",
    "longitude": "4.3917186",
    "thumbnail_url": ""
  },
  {
    "id": "",
    "name": "Mortsel Kerkstraat 3P - fietsrek",
    "latitude": "51.1658262",
    "longitude": "4.4635658",
    "thumbnail_url": ""
  },
  {
    "id": "",
    "name": "Wilrijk Frans Nagelsplein fietsenrek",
    "latitude": "51.174031",
    "longitude": "4.3916083",
    "thumbnail_url": ""
  },
  {
    "id": "",
    "name": "Deurne Tweegezuster",
    "latitude": "51.2256145",
    "longitude": "4.4723767",
    "thumbnail_url": ""
  },
  {
    "id": "",
    "name": "Merksem Campinia",
    "latitude": "51.2404779",
    "longitude": "4.4362017",
    "thumbnail_url": ""
  },
  {
    "id": "",
    "name": "Antwerp De Coninckplein",
    "latitude": "51.221432",
    "longitude": "4.4206915",
    "thumbnail_url": ""
  },
  {
    "id": "",
    "name": "Boom Pastorij - speeltuin",
    "latitude": "51.0909066",
    "longitude": "4.3927462",
    "thumbnail_url": ""
  },
  {
    "id": "",
    "name": "Luchtbal Brandweer BZA 6E",
    "latitude": "51.2504979",
    "longitude": "4.4197102",
    "thumbnail_url": ""
  },
  {
    "id": "",
    "name": "Antwerp Haven Boortmalt 4E",
    "latitude": "51.2752523",
    "longitude": "4.3629797",
    "thumbnail_url": ""
  },
  {
    "id": "",
    "name": "Antwerp Haven Atlantic House 4E",
    "latitude": "51.2643624",
    "longitude": "4.4003977",
    "thumbnail_url": ""
  },
  {
    "id": "",
    "name": "Antwerp Haven De Club",
    "latitude": "51.2672914",
    "longitude": "4.3768069",
    "thumbnail_url": ""
  },
  {
    "id": "",
    "name": "Antwerp Haven ThyssenKrupp 4E",
    "latitude": "51.252966",
    "longitude": "4.3975171",
    "thumbnail_url": ""
  },
  {
    "id": "",
    "name": "Essen Hoek - fietsrek",
    "latitude": "51.4458876",
    "longitude": "4.4100771",
    "thumbnail_url": ""
  },
  {
    "id": "",
    "name": "Essen Horendonk - fietsrek",
    "latitude": "51.4672688",
    "longitude": "4.4938401",
    "thumbnail_url": ""
  },
  {
    "id": "",
    "name": "Boom De Schorre - fietsenrek",
    "latitude": "51.0862799",
    "longitude": "4.3833578",
    "thumbnail_url": ""
  },
  {
    "id": "",
    "name": "Mortsel Edegemstraat - fietsrek",
    "latitude": "51.1702747",
    "longitude": "4.4483498",
    "thumbnail_url": ""
  },
  {
    "id": "",
    "name": "Mortsel Vismarkt - fietsrek",
    "latitude": "51.1689232",
    "longitude": "4.4567586",
    "thumbnail_url": ""
  },
  {
    "id": "",
    "name": "Mortsel Lieven Gevaertstraat - fietsrek",
    "latitude": "51.1744431",
    "longitude": "4.4412964",
    "thumbnail_url": ""
  },
  {
    "id": "",
    "name": "Mortsel Guido Gezellelaan - bomen",
    "latitude": "51.1753898",
    "longitude": "4.4462459",
    "thumbnail_url": ""
  },
  {
    "id": "",
    "name": "Mortsel Kaphaanlei - fietsrek",
    "latitude": "51.1682236",
    "longitude": "4.473208",
    "thumbnail_url": ""
  },
  {
    "id": "",
    "name": "Mortsel Edmond Thieffrylaan - fietsrek",
    "latitude": "51.1666736",
    "longitude": "4.4480303",
    "thumbnail_url": ""
  },
  {
    "id": "",
    "name": "Mortsel 11-Julistraat - fietsrek",
    "latitude": "51.1680591",
    "longitude": "4.4621459",
    "thumbnail_url": ""
  },
  {
    "id": "",
    "name": "Mortsel Eduardshof - fietsrek",
    "latitude": "51.1715076",
    "longitude": "4.4433542",
    "thumbnail_url": ""
  },
  {
    "id": "",
    "name": "Brasschaat Kerk Bethanie - fietsrek",
    "latitude": "51.3151954",
    "longitude": "4.5020024",
    "thumbnail_url": ""
  },
  {
    "id": "",
    "name": "Brasschaat park - eerste boom aan de hoek",
    "latitude": "51.2879761",
    "longitude": "4.4911944",
    "thumbnail_url": ""
  },
  {
    "id": "",
    "name": "Brasschaat Aralea Ploegsebaan - zijkant",
    "latitude": "51.3238056",
    "longitude": "4.5070966",
    "thumbnail_url": ""
  },
  {
    "id": "",
    "name": "Brasschaat jeugdhuis Hob nob - fietsrek",
    "latitude": "51.3012286",
    "longitude": "4.5126366",
    "thumbnail_url": ""
  },
  {
    "id": "",
    "name": "Brasschaat Dr.Roosenplein 3E2P - In de boog",
    "latitude": "51.2878163",
    "longitude": "4.4859886",
    "thumbnail_url": ""
  },
  {
    "id": "",
    "name": "Brasschaat zwemdoklei - inkeping bollen",
    "latitude": "51.2972468",
    "longitude": "4.4493274",
    "thumbnail_url": ""
  },
  {
    "id": "",
    "name": "Ranst Oelegem rondpunt - gras",
    "latitude": "51.2135754",
    "longitude": "4.5901089",
    "thumbnail_url": ""
  },
  {
    "id": "",
    "name": "Ranst Bibliotheek - fietsrek",
    "latitude": "51.189446",
    "longitude": "4.5591352",
    "thumbnail_url": ""
  },
  {
    "id": "",
    "name": "Ranst Broechem Kerk - voetpad",
    "latitude": "51.1814529",
    "longitude": "4.6018065",
    "thumbnail_url": ""
  },
  {
    "id": "",
    "name": "Ranst Tennisclub - parkeerplaats 1",
    "latitude": "51.1827788",
    "longitude": "4.5609994",
    "thumbnail_url": ""
  },
  {
    "id": "",
    "name": "Ranst sporthal het Loo - fietsrek",
    "latitude": "51.1847546",
    "longitude": "4.5888971",
    "thumbnail_url": ""
  },
  {
    "id": "",
    "name": "Wommelgem P+R - fietsrek oud fruitmarkt 6E",
    "latitude": "51.2119694",
    "longitude": "4.4920916",
    "thumbnail_url": ""
  },
  {
    "id": "",
    "name": "Ekeren Mol 2P",
    "latitude": "51.2767185",
    "longitude": "4.4430752",
    "thumbnail_url": ""
  },
  {
    "id": "",
    "name": "Berchem Kerk Pius-X - fietsrek",
    "latitude": "51.1775047",
    "longitude": "4.4226559",
    "thumbnail_url": ""
  },
  {
    "id": "",
    "name": "Berchem Marie-Jos\u00e9laan - fietsrek",
    "latitude": "51.1858036",
    "longitude": "4.4243319",
    "thumbnail_url": ""
  },
  {
    "id": "",
    "name": "Berchem Strijdhoflaan - fietsrek",
    "latitude": "51.1874119",
    "longitude": "4.4250985",
    "thumbnail_url": ""
  },
  {
    "id": "",
    "name": "Schelle Interescautsite - dropzone",
    "latitude": "51.1230788",
    "longitude": "4.3153808",
    "thumbnail_url": ""
  },
  {
    "id": "",
    "name": "Zoersel Heideweg - fietsrek",
    "latitude": "51.2428573",
    "longitude": "4.6326112",
    "thumbnail_url": ""
  },
  {
    "id": "",
    "name": "Zoersel De Pier - fietsrek",
    "latitude": "51.2410117",
    "longitude": "4.6395107",
    "thumbnail_url": ""
  },
  {
    "id": "",
    "name": "Antwerp Rubenslei",
    "latitude": "51.2129805",
    "longitude": "4.4125544",
    "thumbnail_url": ""
  },
  {
    "id": "",
    "name": "Deurne Gallifortlei - fietsrek",
    "latitude": "51.2232939",
    "longitude": "4.4641084",
    "thumbnail_url": ""
  },
  {
    "id": "",
    "name": "Hoboken Alfred Cool fietsenrek",
    "latitude": "51.188172",
    "longitude": "4.3909847",
    "thumbnail_url": ""
  },
  {
    "id": "",
    "name": "Antwerp Provinciehuis",
    "latitude": "51.1994702",
    "longitude": "4.4108518",
    "thumbnail_url": ""
  },
  {
    "id": "",
    "name": "Zwijndrecht NMBS noord - fietsrek",
    "latitude": "51.2142593",
    "longitude": "4.3310165",
    "thumbnail_url": ""
  },
  {
    "id": "",
    "name": "Zwijndrecht Sportpark - fietsrek",
    "latitude": "51.2155675",
    "longitude": "4.3266259",
    "thumbnail_url": ""
  },
  {
    "id": "",
    "name": "Hoboken De Schorren fietsenrek",
    "latitude": "51.1852711",
    "longitude": "4.3423177",
    "thumbnail_url": ""
  },
  {
    "id": "",
    "name": "Linkeroever Beatrijslaan",
    "latitude": "51.21644",
    "longitude": "4.3844366",
    "thumbnail_url": ""
  },
  {
    "id": "",
    "name": "Antwerp Vlierstraat",
    "latitude": "51.2140492",
    "longitude": "4.3980771",
    "thumbnail_url": ""
  },
  {
    "id": "",
    "name": "Antwerp De Pijl",
    "latitude": "51.2221701",
    "longitude": "4.4182621",
    "thumbnail_url": ""
  },
  {
    "id": "",
    "name": "Zwijndrecht Kerkplein",
    "latitude": "51.2017784",
    "longitude": "4.3451521",
    "thumbnail_url": ""
  },
  {
    "id": "",
    "name": "Schoten Gasketelplein",
    "latitude": "51.2566963",
    "longitude": "4.5049263",
    "thumbnail_url": ""
  },
  {
    "id": "",
    "name": "Schoten Villerslei",
    "latitude": "51.2522596",
    "longitude": "4.5096661",
    "thumbnail_url": ""
  },
  {
    "id": "",
    "name": "Schoten Botermelk",
    "latitude": "51.2776077",
    "longitude": "4.5256155",
    "thumbnail_url": ""
  },
  {
    "id": "",
    "name": "Schoten Braamstraat",
    "latitude": "51.2419157",
    "longitude": "4.4921563",
    "thumbnail_url": ""
  },
  {
    "id": "",
    "name": "Schoten Papenaardeken",
    "latitude": "51.2497917",
    "longitude": "4.4864301",
    "thumbnail_url": ""
  },
  {
    "id": "",
    "name": "Schoten Parking 'T Ven",
    "latitude": "51.2519941",
    "longitude": "4.501601",
    "thumbnail_url": ""
  },
  {
    "id": "",
    "name": "Schoten Churchill",
    "latitude": "51.2503249",
    "longitude": "4.4951386",
    "thumbnail_url": ""
  },
  {
    "id": "",
    "name": "Schoten De Gym",
    "latitude": "51.2549919",
    "longitude": "4.5357993",
    "thumbnail_url": ""
  },
  {
    "id": "",
    "name": "Schoten Campus Kajee",
    "latitude": "51.2656385",
    "longitude": "4.5382024",
    "thumbnail_url": ""
  },
  {
    "id": "",
    "name": "Schoten Kasteel",
    "latitude": "51.2457114",
    "longitude": "4.4899355",
    "thumbnail_url": ""
  },
  {
    "id": "",
    "name": "Antwerp Inkomst",
    "latitude": "51.213944",
    "longitude": "4.4382694",
    "thumbnail_url": ""
  },
  {
    "id": "",
    "name": "Beveren Van der Valk Hotel",
    "latitude": "51.1989009",
    "longitude": "4.2244517",
    "thumbnail_url": ""
  },
  {
    "id": "",
    "name": "Aartselaar Koekoek glasbollen",
    "latitude": "51.1141478",
    "longitude": "4.3719142",
    "thumbnail_url": ""
  },
  {
    "id": "",
    "name": "Aartselaar bushalte de bonte koe",
    "latitude": "51.117175",
    "longitude": "4.3939586",
    "thumbnail_url": ""
  },
  {
    "id": "",
    "name": "Lokeren Carpool parking 2E 6P",
    "latitude": "51.0878256",
    "longitude": "4.0205736",
    "thumbnail_url": ""
  },
  {
    "id": "",
    "name": "Lokeren Markt 3E 3P",
    "latitude": "51.1056625",
    "longitude": "3.9886094",
    "thumbnail_url": ""
  },
  {
    "id": "",
    "name": "Lokeren Melkerijstraat 4P",
    "latitude": "51.1154875",
    "longitude": "4.0147031",
    "thumbnail_url": ""
  },
  {
    "id": "",
    "name": "Lokeren Doorslaarkerk 4E",
    "latitude": "51.1212375",
    "longitude": "3.9259219",
    "thumbnail_url": ""
  },
  {
    "id": "",
    "name": "Lokeren Daknamkerk 4E",
    "latitude": "51.1254625",
    "longitude": "3.9803281",
    "thumbnail_url": ""
  },
  {
    "id": "",
    "name": "Lokeren Heiendekerk 4E",
    "latitude": "51.0859125",
    "longitude": "3.9584219",
    "thumbnail_url": ""
  },
  {
    "id": "",
    "name": "Lokeren Erksaardebrug 4E",
    "latitude": "51.1460379",
    "longitude": "3.9542366",
    "thumbnail_url": ""
  },
  {
    "id": "",
    "name": "Kruibeke Veerdienst 4E4P",
    "latitude": "51.1759125",
    "longitude": "4.3157656",
    "thumbnail_url": ""
  },
  {
    "id": "",
    "name": "Kruibeke Hogenakkerhoek",
    "latitude": "51.1970125",
    "longitude": "4.3164219",
    "thumbnail_url": ""
  },
  {
    "id": "",
    "name": "Kruibeke Dulpop",
    "latitude": "51.1481208",
    "longitude": "4.3053719",
    "thumbnail_url": ""
  },
  {
    "id": "",
    "name": "Kruibeke Ticoon",
    "latitude": "51.1580784",
    "longitude": "4.3032014",
    "thumbnail_url": ""
  },
  {
    "id": "",
    "name": "Moerbeke Statiestraat 4E",
    "latitude": "51.1743875",
    "longitude": "3.9332656",
    "thumbnail_url": ""
  },
  {
    "id": "",
    "name": "Sint-Gillis-Waas Turkeyenstraat",
    "latitude": "51.2254125",
    "longitude": "4.1484531",
    "thumbnail_url": ""
  },
  {
    "id": "",
    "name": "Sint-Gillis-Waas De Route 4E",
    "latitude": "51.2184625",
    "longitude": "4.1130156",
    "thumbnail_url": ""
  },
  {
    "id": "",
    "name": "Sint-Gillis-Waas Golf/Musketeers 4E",
    "latitude": "51.2262457",
    "longitude": "4.0881948",
    "thumbnail_url": ""
  },
  {
    "id": "",
    "name": "Sint-Niklaas Hoge Heerweg 6P",
    "latitude": "51.1466935",
    "longitude": "4.1788894",
    "thumbnail_url": ""
  },
  {
    "id": "",
    "name": "Sint-Niklaas Kettermuit 6P",
    "latitude": "51.1366625",
    "longitude": "4.1521406",
    "thumbnail_url": ""
  },
  {
    "id": "",
    "name": "Sint-Niklaas Sinaai NMBS 4E",
    "latitude": "51.1434574",
    "longitude": "4.0683184",
    "thumbnail_url": ""
  },
  {
    "id": "",
    "name": "Sint-Niklaas Sinaai Dries 4E",
    "latitude": "51.1571517",
    "longitude": "4.0431511",
    "thumbnail_url": ""
  },
  {
    "id": "",
    "name": "Stekene Kemzeke Dorp 2E4P",
    "latitude": "51.2071716",
    "longitude": "4.075038",
    "thumbnail_url": ""
  },
  {
    "id": "",
    "name": "Stekene Klein Sinaai 2E4P",
    "latitude": "51.181377",
    "longitude": "3.9897603",
    "thumbnail_url": ""
  },
  {
    "id": "",
    "name": "Temse Steendorp Sterstraat 2E4P",
    "latitude": "51.1300575",
    "longitude": "4.2684847",
    "thumbnail_url": ""
  },
  {
    "id": "",
    "name": "Temse Tielrode Kerkstraat 4E",
    "latitude": "51.1131832",
    "longitude": "4.1754225",
    "thumbnail_url": ""
  },
  {
    "id": "",
    "name": "Temse IZ De Zaat 2E",
    "latitude": "51.1178102",
    "longitude": "4.1995075",
    "thumbnail_url": ""
  },
  {
    "id": "",
    "name": "Temse Tinelplaats 4E",
    "latitude": "51.1264207",
    "longitude": "4.2037326",
    "thumbnail_url": ""
  },
  {
    "id": "",
    "name": "Temse Centraal TTS",
    "latitude": "51.1408414",
    "longitude": "4.1930233",
    "thumbnail_url": ""
  },
  {
    "id": "",
    "name": "Waasmunster Ruiter 4E",
    "latitude": "51.1159488",
    "longitude": "4.0424916",
    "thumbnail_url": ""
  },
  {
    "id": "",
    "name": "Waasmunster Somebeke Dries 4E",
    "latitude": "51.1139713",
    "longitude": "4.1251304",
    "thumbnail_url": ""
  },
  {
    "id": "",
    "name": "Zele Wijnveld",
    "latitude": "51.0833125",
    "longitude": "4.0373594",
    "thumbnail_url": ""
  },
  {
    "id": "",
    "name": "Zele Zevensterren",
    "latitude": "51.076189",
    "longitude": "4.0456663",
    "thumbnail_url": ""
  },
  {
    "id": "",
    "name": "Zele NMBS",
    "latitude": "51.0731047",
    "longitude": "4.0418023",
    "thumbnail_url": ""
  },
  {
    "id": "",
    "name": "Brecht Lochtenbergplein",
    "latitude": "51.3016122",
    "longitude": "4.5607716",
    "thumbnail_url": ""
  },
  {
    "id": "",
    "name": "Brecht Sluis 5",
    "latitude": "51.2992769",
    "longitude": "4.557853",
    "thumbnail_url": ""
  },
  {
    "id": "",
    "name": "Brecht De Renlaan",
    "latitude": "51.2998565",
    "longitude": "4.5721621",
    "thumbnail_url": ""
  },
  {
    "id": "",
    "name": "Brecht Vaartlaan",
    "latitude": "51.3219979",
    "longitude": "4.5865941",
    "thumbnail_url": ""
  },
  {
    "id": "",
    "name": "Lokeren NMBS 6E4P",
    "latitude": "51.1070667",
    "longitude": "3.9861605",
    "thumbnail_url": ""
  },
  {
    "id": "",
    "name": "Zele Sporthal De Klodde",
    "latitude": "51.0679375",
    "longitude": "4.0447963",
    "thumbnail_url": ""
  },
  {
    "id": "",
    "name": "Antwerp Noordschippers",
    "latitude": "51.234594",
    "longitude": "4.4288883",
    "thumbnail_url": ""
  },
  {
    "id": "",
    "name": "Wommelgem Koralenhoeve 4E",
    "latitude": "51.210691",
    "longitude": "4.5165202",
    "thumbnail_url": ""
  },
  {
    "id": "",
    "name": "Wommelgem Lukoil - dals voor hek 1E2P",
    "latitude": "51.1975838",
    "longitude": "4.5273996",
    "thumbnail_url": ""
  },
  {
    "id": "",
    "name": "Antwerp Park Spoor Noord",
    "latitude": "51.2299882",
    "longitude": "4.4210038",
    "thumbnail_url": ""
  },
  {
    "id": "",
    "name": "Antwerp Ploeg",
    "latitude": "51.2155843",
    "longitude": "4.4256932",
    "thumbnail_url": ""
  },
  {
    "id": "",
    "name": "Hoboken Groothandelsmarkt Bushalte",
    "latitude": "51.1927799",
    "longitude": "4.3727356",
    "thumbnail_url": ""
  },
  {
    "id": "",
    "name": "Lier Carrefour",
    "latitude": "51.1268303",
    "longitude": "4.549822",
    "thumbnail_url": ""
  },
  {
    "id": "",
    "name": "Hemiksem Heiligstraat",
    "latitude": "51.1502378",
    "longitude": "4.349788",
    "thumbnail_url": ""
  },
  {
    "id": "",
    "name": "Boechout Mussenplein",
    "latitude": "51.1691999",
    "longitude": "4.5042633",
    "thumbnail_url": ""
  },
  {
    "id": "",
    "name": "Boechout Kardinaal Sterckxplein",
    "latitude": "51.1677484",
    "longitude": "4.4981399",
    "thumbnail_url": ""
  },
  {
    "id": "",
    "name": "Kalmthout Achterbroek - fietsrek",
    "latitude": "51.3867966",
    "longitude": "4.5032454",
    "thumbnail_url": ""
  },
  {
    "id": "",
    "name": "Kalmthout Sportpark - fietsrek",
    "latitude": "51.3777108",
    "longitude": "4.4797599",
    "thumbnail_url": ""
  },
  {
    "id": "",
    "name": "Kalmthout Zwarte Hond - fietsrek",
    "latitude": "51.3727621",
    "longitude": "4.5023902",
    "thumbnail_url": ""
  },
  {
    "id": "",
    "name": "Antwerp HKA Museum",
    "latitude": "51.210744",
    "longitude": "4.3899735",
    "thumbnail_url": ""
  },
  {
    "id": "",
    "name": "Antwerp Eureka",
    "latitude": "51.2244485",
    "longitude": "4.4278436",
    "thumbnail_url": ""
  },
  {
    "id": "",
    "name": "Tisselt Halte Kotterlaan 2E2P",
    "latitude": "51.035348",
    "longitude": "4.3555425",
    "thumbnail_url": ""
  },
  {
    "id": "",
    "name": "Blaasveld Kerk 2E2P - fietsrek",
    "latitude": "51.0566375",
    "longitude": "4.3717344",
    "thumbnail_url": ""
  },
  {
    "id": "",
    "name": "Willebroek Halte Populierenlaan 2E2P",
    "latitude": "51.0512625",
    "longitude": "4.3472656",
    "thumbnail_url": ""
  },
  {
    "id": "",
    "name": "Klein-Willebroek Sasplein 2E2P - fietsrek",
    "latitude": "51.0807957",
    "longitude": "4.366648",
    "thumbnail_url": ""
  },
  {
    "id": "",
    "name": "Heindonk Kerk 1E1P - fietsrek",
    "latitude": "51.0665125",
    "longitude": "4.4065781",
    "thumbnail_url": ""
  },
  {
    "id": "",
    "name": "Heindonk Hazewinkel",
    "latitude": "51.0610375",
    "longitude": "4.4065781",
    "thumbnail_url": ""
  },
  {
    "id": "",
    "name": "Willebroek HVT De Schalk 1E1P - fietsrek",
    "latitude": "51.0611375",
    "longitude": "4.3467031",
    "thumbnail_url": ""
  },
  {
    "id": "",
    "name": "Willebroek AZ Rivierenland",
    "latitude": "51.0537875",
    "longitude": "4.3576719",
    "thumbnail_url": ""
  },
  {
    "id": "",
    "name": "Tisselt Voetbal Blaasveldstraat",
    "latitude": "51.0358625",
    "longitude": "4.3617031",
    "thumbnail_url": ""
  },
  {
    "id": "",
    "name": "Blaasveld Ten Bergh 3E3P",
    "latitude": "51.0509375",
    "longitude": "4.3727656",
    "thumbnail_url": ""
  },
  {
    "id": "",
    "name": "Willebroek A.V Landeghemplein 3E3P - fietsrek",
    "latitude": "51.0605875",
    "longitude": "4.3603281",
    "thumbnail_url": ""
  },
  {
    "id": "",
    "name": "Antwerp van Schoonbeke",
    "latitude": "51.1985662",
    "longitude": "4.4027546",
    "thumbnail_url": ""
  },
  {
    "id": "",
    "name": "Willebroek Station 4E4P",
    "latitude": "51.0662625",
    "longitude": "4.3547344",
    "thumbnail_url": ""
  },
  {
    "id": "",
    "name": "Zandhoven Sportcomplex 't Veld - fietsrek",
    "latitude": "51.2165625",
    "longitude": "4.6541094",
    "thumbnail_url": ""
  },
  {
    "id": "",
    "name": "Zandhoven Bushalte Heikant",
    "latitude": "51.2243125",
    "longitude": "4.6742969",
    "thumbnail_url": ""
  },
  {
    "id": "",
    "name": "Haasdonk Sportzone Tassijns - fietsrek",
    "latitude": "51.1813125",
    "longitude": "4.2343906",
    "thumbnail_url": ""
  },
  {
    "id": "",
    "name": "Beveren Halte N70 Kruisstraat",
    "latitude": "51.1947125",
    "longitude": "4.2170469",
    "thumbnail_url": ""
  },
  {
    "id": "",
    "name": "Vrasene Sportzone KFC - fietsrek",
    "latitude": "51.2203625",
    "longitude": "4.1861406",
    "thumbnail_url": ""
  },
  {
    "id": "",
    "name": "Beveren S+R De Meerminnen - fietsrek",
    "latitude": "51.2131875",
    "longitude": "4.2384531",
    "thumbnail_url": ""
  },
  {
    "id": "",
    "name": "Beveren Atletiek Volharding - tegen omheining",
    "latitude": "51.2095875",
    "longitude": "4.2421719",
    "thumbnail_url": ""
  },
  {
    "id": "",
    "name": "Beveren Sportpark - fietsrek",
    "latitude": "51.2113125",
    "longitude": "4.2429844",
    "thumbnail_url": ""
  },
  {
    "id": "",
    "name": "Beveren Parking Stadionplein",
    "latitude": "51.2155375",
    "longitude": "4.2442656",
    "thumbnail_url": ""
  },
  {
    "id": "",
    "name": "Beveren Schoolomgeving Kallobaan - gevel",
    "latitude": "51.2169625",
    "longitude": "4.2593281",
    "thumbnail_url": ""
  },
  {
    "id": "",
    "name": "Beveren Bushalte N70 Parein",
    "latitude": "51.2179375",
    "longitude": "4.2719531",
    "thumbnail_url": ""
  },
  {
    "id": "",
    "name": "Melsele Kapel van Gaverland - fietsrek",
    "latitude": "51.2257625",
    "longitude": "4.2677656",
    "thumbnail_url": ""
  },
  {
    "id": "",
    "name": "Melsele Sportzone 't Wit Zand - tegen gevel",
    "latitude": "51.2256875",
    "longitude": "4.2829531",
    "thumbnail_url": ""
  },
  {
    "id": "",
    "name": "Melsele Halte N70 Burggravenstraat - voetpad",
    "latitude": "51.2205875",
    "longitude": "4.2940781",
    "thumbnail_url": ""
  },
  {
    "id": "",
    "name": "Beveren Kallo Sportzone",
    "latitude": "51.2540125",
    "longitude": "4.2869219",
    "thumbnail_url": ""
  },
  {
    "id": "",
    "name": "Beveren Sportzone Hockey Club",
    "latitude": "51.2579875",
    "longitude": "4.1981094",
    "thumbnail_url": ""
  },
  {
    "id": "",
    "name": "Kieldrecht Sportzone - fietsrek",
    "latitude": "51.2880875",
    "longitude": "4.1867031",
    "thumbnail_url": ""
  },
  {
    "id": "",
    "name": "Beveren Prosperpolder Centrum",
    "latitude": "51.3267375",
    "longitude": "4.2145469",
    "thumbnail_url": ""
  },
  {
    "id": "",
    "name": "Antwerp Klooster",
    "latitude": "51.216478",
    "longitude": "4.3951673",
    "thumbnail_url": ""
  },
  {
    "id": "",
    "name": "Antwerp Ijzerlaan - fietsrek",
    "latitude": "51.2354672",
    "longitude": "4.4208485",
    "thumbnail_url": ""
  },
  {
    "id": "",
    "name": "Wuustwezel Sporthal Gooreind - fietsrek",
    "latitude": "51.3545125",
    "longitude": "4.5324531",
    "thumbnail_url": ""
  },
  {
    "id": "",
    "name": "Wuustwezel Kattegat - fietsrek",
    "latitude": "51.3982375",
    "longitude": "4.6001406",
    "thumbnail_url": ""
  },
  {
    "id": "",
    "name": "Wuustwezel Bar Woest",
    "latitude": "51.3830875",
    "longitude": "4.5969531",
    "thumbnail_url": ""
  },
  {
    "id": "",
    "name": "Wuustwezel Lidl - fietsrek",
    "latitude": "51.3935375",
    "longitude": "4.5958906",
    "thumbnail_url": ""
  },
  {
    "id": "",
    "name": "Wuustwezel Bibliotheek 1E2P - fietsrek",
    "latitude": "51.3881125",
    "longitude": "4.5957969",
    "thumbnail_url": ""
  },
  {
    "id": "",
    "name": "Wuustwezel Halte Weversstraat 1E2P",
    "latitude": "51.4000875",
    "longitude": "4.6489844",
    "thumbnail_url": ""
  },
  {
    "id": "",
    "name": "Wuustwezel Kerk Sint-Jozef 1E2P - fietsrek",
    "latitude": "51.3579637",
    "longitude": "4.5422936",
    "thumbnail_url": ""
  },
  {
    "id": "",
    "name": "Deurne Raoul Gr\u00e9goirplein - fietsrek",
    "latitude": "51.229974",
    "longitude": "4.4432054",
    "thumbnail_url": ""
  },
  {
    "id": "",
    "name": "Lier Cultuurcentrum De Mol - fietsrek",
    "latitude": "51.1248187",
    "longitude": "4.576043",
    "thumbnail_url": ""
  },
  {
    "id": "",
    "name": "Lier Dungelhoeff",
    "latitude": "51.131823",
    "longitude": "4.5596507",
    "thumbnail_url": ""
  },
  {
    "id": "",
    "name": "Niel Wetenschapspark 3E2P - fietsrek",
    "latitude": "51.1086625",
    "longitude": "4.3532031",
    "thumbnail_url": ""
  },
  {
    "id": "",
    "name": "Merksem Laarsebaan",
    "latitude": "51.2551436",
    "longitude": "4.4377276",
    "thumbnail_url": ""
  },
  {
    "id": "",
    "name": "Wijnegem Delhaize - fietsrek",
    "latitude": "51.2270861",
    "longitude": "4.5199718",
    "thumbnail_url": ""
  },
  {
    "id": "",
    "name": "Wijnegem R.G van Havrelaan - fietsrek",
    "latitude": "51.2288372",
    "longitude": "4.5146357",
    "thumbnail_url": ""
  },
  {
    "id": "",
    "name": "Wijnegem Quick - fietsrek",
    "latitude": "51.2360017",
    "longitude": "4.4885551",
    "thumbnail_url": ""
  },
  {
    "id": "",
    "name": "Wijnegem Dorenboslaan - fietsrek",
    "latitude": "51.2245386",
    "longitude": "4.5063544",
    "thumbnail_url": ""
  },
  {
    "id": "",
    "name": "Niel Het Geleeg fietsenrek",
    "latitude": "51.1114375",
    "longitude": "4.3442656",
    "thumbnail_url": ""
  },
  {
    "id": "",
    "name": "Niel Sporthal - fietsrek",
    "latitude": "51.1109215",
    "longitude": "4.3359574",
    "thumbnail_url": ""
  },
  {
    "id": "",
    "name": "Niel Blauwbrug",
    "latitude": "51.1130679",
    "longitude": "4.3269472",
    "thumbnail_url": ""
  },
  {
    "id": "",
    "name": "Niel SV Nielse",
    "latitude": "51.1006087",
    "longitude": "4.344476",
    "thumbnail_url": ""
  },
  {
    "id": "",
    "name": "Niel Elisabethplein",
    "latitude": "51.1067487",
    "longitude": "4.3272929",
    "thumbnail_url": ""
  },
  {
    "id": "",
    "name": "Beveren Gravenplein - overdekt",
    "latitude": "51.2129058",
    "longitude": "4.2605943",
    "thumbnail_url": ""
  },
  {
    "id": "",
    "name": "Sint-Gillis-Waas Sporthal De Gavers",
    "latitude": "51.2177875",
    "longitude": "4.1242969",
    "thumbnail_url": ""
  },
  {
    "id": "",
    "name": "Sint-Gillis-Waas Skatepark De Route",
    "latitude": "51.2219125",
    "longitude": "4.1125156",
    "thumbnail_url": ""
  },
  {
    "id": "",
    "name": "Sint-Gillis-Waas Eeckbergstraat",
    "latitude": "51.2366375",
    "longitude": "4.1010156",
    "thumbnail_url": ""
  },
  {
    "id": "",
    "name": "Sint-Gillis-Waas Klingspoor",
    "latitude": "51.2516625",
    "longitude": "4.0807969",
    "thumbnail_url": ""
  },
  {
    "id": "",
    "name": "Sint-Gillis-Waas Ijshoeve De Boey",
    "latitude": "51.2449125",
    "longitude": "4.1270781",
    "thumbnail_url": ""
  },
  {
    "id": "",
    "name": "Sint-Gillis-Waas Spaanskwartier",
    "latitude": "51.2631375",
    "longitude": "4.1133281",
    "thumbnail_url": ""
  },
  {
    "id": "",
    "name": "Linkeroever FPC - Rode Kruis",
    "latitude": "51.2069009",
    "longitude": "4.3643723",
    "thumbnail_url": ""
  },
  {
    "id": "",
    "name": "Antwerp Lobroek",
    "latitude": "51.2320903",
    "longitude": "4.4269099",
    "thumbnail_url": ""
  },
  {
    "id": "",
    "name": "Beveren NMBS Station (tijdelijk)",
    "latitude": "51.2086555",
    "longitude": "4.2607252",
    "thumbnail_url": ""
  },
  {
    "id": "",
    "name": "Borgerhout Vlag",
    "latitude": "51.2232122",
    "longitude": "4.4412074",
    "thumbnail_url": ""
  },
  {
    "id": "",
    "name": "Antwerp Campus Hallen",
    "latitude": "51.2298388",
    "longitude": "4.4363928",
    "thumbnail_url": ""
  },
  {
    "id": "",
    "name": "Rumst Terhagen Begraafplaats",
    "latitude": "51.0786727",
    "longitude": "4.3954044",
    "thumbnail_url": ""
  },
  {
    "id": "",
    "name": "Rumst Drie Rivieren - fietsrek",
    "latitude": "51.0743515",
    "longitude": "4.4214752",
    "thumbnail_url": ""
  },
  {
    "id": "",
    "name": "Reet Halte Donkerstraat",
    "latitude": "51.1073472",
    "longitude": "4.4094254",
    "thumbnail_url": ""
  },
  {
    "id": "",
    "name": "Reet Processieweg - fietsrek",
    "latitude": "51.1033976",
    "longitude": "4.4097529",
    "thumbnail_url": ""
  },
  {
    "id": "",
    "name": "Reet Seringenlaan",
    "latitude": "51.1080991",
    "longitude": "4.3897632",
    "thumbnail_url": ""
  },
  {
    "id": "",
    "name": "Rumst Terhagen Hof Van Crequi",
    "latitude": "51.0787762",
    "longitude": "4.4010529",
    "thumbnail_url": ""
  },
  {
    "id": "",
    "name": "Reet Rumstsestraat - fietsrek",
    "latitude": "51.1005274",
    "longitude": "4.4137935",
    "thumbnail_url": ""
  },
  {
    "id": "",
    "name": "Sint-Niklaas Heidebaan",
    "latitude": "51.1779108",
    "longitude": "4.191212",
    "thumbnail_url": ""
  },
  {
    "id": "",
    "name": "Nieuwkerken Sportcentrum De Meesterstraat",
    "latitude": "51.185162",
    "longitude": "4.1744641",
    "thumbnail_url": ""
  },
  {
    "id": "",
    "name": "Sint-Niklaas Atheneum/Zwembad",
    "latitude": "51.1581036",
    "longitude": "4.1515471",
    "thumbnail_url": ""
  },
  {
    "id": "",
    "name": "Sint-Niklaas Welzijnshuis",
    "latitude": "51.1581301",
    "longitude": "4.1424795",
    "thumbnail_url": ""
  },
  {
    "id": "",
    "name": "Sint-Niklaas Kuildamstraat",
    "latitude": "51.1757131",
    "longitude": "4.1357269",
    "thumbnail_url": ""
  },
  {
    "id": "",
    "name": "Sint-Niklaas Vitaz Moerland",
    "latitude": "51.1606891",
    "longitude": "4.1503935",
    "thumbnail_url": ""
  },
  {
    "id": "",
    "name": "Sint-Niklaas Lamstraat",
    "latitude": "51.1657875",
    "longitude": "4.1530156",
    "thumbnail_url": ""
  },
  {
    "id": "",
    "name": "Sint-Niklaas Europark Zuid",
    "latitude": "51.1625125",
    "longitude": "4.1675469",
    "thumbnail_url": ""
  },
  {
    "id": "",
    "name": "Sint-Niklaas Nieuwe Molenstraat",
    "latitude": "51.1711107",
    "longitude": "4.161404",
    "thumbnail_url": ""
  },
  {
    "id": "",
    "name": "Nieuwkerken Dorp",
    "latitude": "51.193087",
    "longitude": "4.1780203",
    "thumbnail_url": ""
  },
  {
    "id": "",
    "name": "Nieuwkerken Sportcentrum De Mispelaer",
    "latitude": "51.1960875",
    "longitude": "4.1779219",
    "thumbnail_url": ""
  },
  {
    "id": "",
    "name": "Sint-Niklaas Stationsstraat Casino",
    "latitude": "51.1691537",
    "longitude": "4.142483",
    "thumbnail_url": ""
  },
  {
    "id": "",
    "name": "Sint-Niklaas Recreatiepark Ster",
    "latitude": "51.1689584",
    "longitude": "4.1878332",
    "thumbnail_url": ""
  },
  {
    "id": "",
    "name": "Sint-Niklaas O.L.V. Plein",
    "latitude": "51.1662108",
    "longitude": "4.136001",
    "thumbnail_url": ""
  },
  {
    "id": "",
    "name": "Sint-Niklaas Pater Segersstraat",
    "latitude": "51.1564375",
    "longitude": "4.1388906",
    "thumbnail_url": ""
  },
  {
    "id": "",
    "name": "Sint-Niklaas Parking Heymanplein",
    "latitude": "51.1619269",
    "longitude": "4.1395411",
    "thumbnail_url": ""
  },
  {
    "id": "",
    "name": "Sint-Niklaas Parking 't Bau-huis",
    "latitude": "51.1736296",
    "longitude": "4.1476612",
    "thumbnail_url": ""
  },
  {
    "id": "",
    "name": "Antwerp Stormkop - fietsrek",
    "latitude": "51.2365196",
    "longitude": "4.403218",
    "thumbnail_url": ""
  },
  {
    "id": "",
    "name": "Luchtbal Schouwburg",
    "latitude": "51.248467",
    "longitude": "4.4231219",
    "thumbnail_url": ""
  },
  {
    "id": "",
    "name": "Antwerp Haven ZNA Kaai 142 4E",
    "latitude": "51.2571748",
    "longitude": "4.4152361",
    "thumbnail_url": ""
  },
  {
    "id": "",
    "name": "Antwerp Haven Kauwenstein 4E",
    "latitude": "51.2752667",
    "longitude": "4.3331088",
    "thumbnail_url": ""
  },
  {
    "id": "",
    "name": "Antwerp Haven Kaai 102 4E",
    "latitude": "51.2452849",
    "longitude": "4.4090862",
    "thumbnail_url": ""
  },
  {
    "id": "",
    "name": "Durmen Kerk - fietsrek",
    "latitude": "51.0857676",
    "longitude": "4.0561882",
    "thumbnail_url": ""
  },
  {
    "id": "",
    "name": "Lokeren Mosten",
    "latitude": "51.0807451",
    "longitude": "3.9968483",
    "thumbnail_url": ""
  },
  {
    "id": "",
    "name": "Lokeren Metaalbewerkersstraat",
    "latitude": "51.0764791",
    "longitude": "3.9784443",
    "thumbnail_url": ""
  },
  {
    "id": "",
    "name": "Lokeren Zelebaan",
    "latitude": "51.0935748",
    "longitude": "4.0143142",
    "thumbnail_url": ""
  },