[
  {
    "id": 29892,
    "name": "Op de Kerkbuurt",
    "latitude": "51.8201457",
    "longitude": "4.7752345",
    "thumbnail_url": ""
  },
  {
    "id": 29895,
    "name": "Kwantum",
    "latitude": "51.8318099",
    "longitude": "4.7496823",
    "thumbnail_url": ""
  },
  {
    "id": 29896,
    "name": "Jumbo Sliedrecht",
    "latitude": "51.8257134",
    "longitude": "4.759713",
    "thumbnail_url": ""
  },
  {
    "id": 21099,
    "name": "Jachthaven Sliedrecht",
    "latitude": "51.8201051",
    "longitude": "4.7694296",
    "thumbnail_url": ""
  },
  {
    "id": 29897,
    "name": "De Lockhorst",
    "latitude": "51.8282784",
    "longitude": "4.7822643",
    "thumbnail_url": ""
  },
  {
    "id": 21101,
    "name": "Simon Stevinstraat",
    "latitude": "51.8229451",
    "longitude": "4.7765333",
    "thumbnail_url": ""
  },
  {
    "id": 21097,
    "name": "Deltalaan",
    "latitude": "51.8257108",
    "longitude": "4.7547466",
    "thumbnail_url": ""
  },
  {
    "id": 21102,
    "name": "Middeldiep",
    "latitude": "51.817771",
    "longitude": "4.7767682",
    "thumbnail_url": ""
  },
  {
    "id": 29894,
    "name": "Sporthal de Basis",
    "latitude": "51.8276585",
    "longitude": "4.7442121",
    "thumbnail_url": ""
  },
  {
    "id": 21098,
    "name": "Doctor Willem Dreespark",
    "latitude": "51.8261896",
    "longitude": "4.7653274",
    "thumbnail_url": ""
  },
  {
    "id": 29891,
    "name": "AH Sliedrecht",
    "latitude": "51.8218463",
    "longitude": "4.7775731",
    "thumbnail_url": ""
  },
  {
    "id": 30246,
    "name": "De Grieden",
    "latitude": "51.821984",
    "longitude": "4.7947154",
    "thumbnail_url": ""
  },
  {
    "id": 29893,
    "name": "Kerkbuurt",
    "latitude": "51.822251",
    "longitude": "4.7712181",
    "thumbnail_url": ""
  },
  {
    "id": 22382,
    "name": "Station Baanhoek Sliedrecht",
    "latitude": "51.8289575",
    "longitude": "4.7422944",
    "thumbnail_url": ""
  },
  {
    "id": 22384,
    "name": "Gemeente Sliedrecht",
    "latitude": "51.8189302",
    "longitude": "4.7681227",
    "thumbnail_url": ""
  },
  {
    "id": 24261,
    "name": "Sliedrecht Station",
    "latitude": "51.8297198",
    "longitude": "4.7768141",
    "thumbnail_url": ""
  }
]