{
  "type": "FeatureCollection",
  "features": [
    {
      "type": "Feature",
      "geometry": {
        "type": "Point",
        "coordinates": [
          9.6508862,
          54.423647
        ]
      },
      "properties": {
        "id": 32303,
        "name": "Pop-up: Brekendorf: Wanderparkplatz",
        "address": "",
        "city": "",
        "capacity": 0,
        "available_bikes": 0,
        "hub_type": "standard",
        "status": "active"
      }
    },
    {
      "type": "Feature",
      "geometry": {
        "type": "Point",
        "coordinates": [
          9.6419802,
          54.421205
        ]
      },
      "properties": {
        "id": 32302,
        "name": "Pop-up: Brekendorf: Kammberg",
        "address": "",
        "city": "",
        "capacity": 0,
        "available_bikes": 0,
        "hub_type": "standard",
        "status": "active"
      }
    },
    {
      "type": "Feature",
      "geometry": {
        "type": "Point",
        "coordinates": [
          10.149154,
          54.3311459
        ]
      },
      "properties": {
        "id": 32441,
        "name": "Pop Up Ocean Race (bis 10.08.)",
        "address": "",
        "city": "",
        "capacity": 0,
        "available_bikes": 0,
        "hub_type": "standard",
        "status": "active"
      }
    },
    {
      "type": "Feature",
      "geometry": {
        "type": "Point",
        "coordinates": [
          10.2178414,
          54.4021434
        ]
      },
      "properties": {
        "id": 31587,
        "name": "Lotsenhaus (Opt. Station)",
        "address": "",
        "city": "",
        "capacity": 0,
        "available_bikes": 0,
        "hub_type": "standard",
        "status": "active"
      }
    },
    {
      "type": "Feature",
      "geometry": {
        "type": "Point",
        "coordinates": [
          10.076831,
          54.361297
        ]
      },
      "properties": {
        "id": 24416,
        "name": "Rungholtplatz",
        "address": "",
        "city": "",
        "capacity": 0,
        "available_bikes": 0,
        "hub_type": "standard",
        "status": "active"
      }
    },
    {
      "type": "Feature",
      "geometry": {
        "type": "Point",
        "coordinates": [
          10.1251452,
          54.3482587
        ]
      },
      "properties": {
        "id": 31090,
        "name": "Pop-Up Heimspiele Holstein Stadion",
        "address": "",
        "city": "",
        "capacity": 0,
        "available_bikes": 0,
        "hub_type": "standard",
        "status": "active"
      }
    },
    {
      "type": "Feature",
      "geometry": {
        "type": "Point",
        "coordinates": [
          10.1222534,
          54.341647
        ]
      },
      "properties": {
        "id": 29200,
        "name": "REWE digital am Wissenschaftszentrum",
        "address": "",
        "city": "",
        "capacity": 0,
        "available_bikes": 0,
        "hub_type": "standard",
        "status": "active"
      }
    },
    {
      "type": "Feature",
      "geometry": {
        "type": "Point",
        "coordinates": [
          10.2182377,
          54.4038794
        ]
      },
      "properties": {
        "id": 31586,
        "name": "Hafenplatz (Opt. Station)",
        "address": "",
        "city": "",
        "capacity": 0,
        "available_bikes": 0,
        "hub_type": "standard",
        "status": "active"
      }
    },
    {
      "type": "Feature",
      "geometry": {
        "type": "Point",
        "coordinates": [
          10.2405657,
          54.2842995
        ]
      },
      "properties": {
        "id": 30022,
        "name": "Rathaus Schwentinental",
        "address": "",
        "city": "",
        "capacity": 0,
        "available_bikes": 0,
        "hub_type": "standard",
        "status": "active"
      }
    },
    {
      "type": "Feature",
      "geometry": {
        "type": "Point",
        "coordinates": [
          10.048583,
          54.316404
        ]
      },
      "properties": {
        "id": 24473,
        "name": "Aalborgring",
        "address": "",
        "city": "",
        "capacity": 0,
        "available_bikes": 0,
        "hub_type": "standard",
        "status": "active"
      }
    },
    {
      "type": "Feature",
      "geometry": {
        "type": "Point",
        "coordinates": [
          10.1904627,
          54.401024
        ]
      },
      "properties": {
        "id": 31353,
        "name": "Falkensteiner Strand (Apr-Okt)",
        "address": "",
        "city": "",
        "capacity": 0,
        "available_bikes": 0,
        "hub_type": "standard",
        "status": "active"
      }
    },
    {
      "type": "Feature",
      "geometry": {
        "type": "Point",
        "coordinates": [
          10.072252,
          54.2858815
        ]
      },
      "properties": {
        "id": 29982,
        "name": "Eiderbad (bis 15.10)",
        "address": "",
        "city": "",
        "capacity": 0,
        "available_bikes": 0,
        "hub_type": "standard",
        "status": "active"
      }
    },
    {
      "type": "Feature",
      "geometry": {
        "type": "Point",
        "coordinates": [
          10.205576,
          54.370727
        ]
      },
      "properties": {
        "id": 24442,
        "name": "Rathaus Heikendorf",
        "address": "",
        "city": "",
        "capacity": 0,
        "available_bikes": 0,
        "hub_type": "standard",
        "status": "active"
      }
    },
    {
      "type": "Feature",
      "geometry": {
        "type": "Point",
        "coordinates": [
          10.207911,
          54.326055
        ]
      },
      "properties": {
        "id": 24406,
        "name": "Bahnhof Oppendorf",
        "address": "",
        "city": "",
        "capacity": 0,
        "available_bikes": 0,
        "hub_type": "standard",
        "status": "active"
      }
    },
    {
      "type": "Feature",
      "geometry": {
        "type": "Point",
        "coordinates": [
          10.143565,
          54.285725
        ]
      },
      "properties": {
        "id": 24414,
        "name": "Kuhlacker",
        "address": "",
        "city": "",
        "capacity": 0,
        "available_bikes": 0,
        "hub_type": "standard",
        "status": "active"
      }
    },
    {
      "type": "Feature",
      "geometry": {
        "type": "Point",
        "coordinates": [
          10.129012,
          54.401894
        ]
      },
      "properties": {
        "id": 24401,
        "name": "Dataport/FHVD",
        "address": "",
        "city": "",
        "capacity": 0,
        "available_bikes": 0,
        "hub_type": "standard",
        "status": "active"
      }
    },
    {
      "type": "Feature",
      "geometry": {
        "type": "Point",
        "coordinates": [
          10.099722,
          54.311667
        ]
      },
      "properties": {
        "id": 24390,
        "name": "CITTI-PARK",
        "address": "",
        "city": "",
        "capacity": 0,
        "available_bikes": 0,
        "hub_type": "standard",
        "status": "active"
      }
    },
    {
      "type": "Feature",
      "geometry": {
        "type": "Point",
        "coordinates": [
          10.1901603,
          54.3391019
        ]
      },
      "properties": {
        "id": 29964,
        "name": "Langer Rehm P+R",
        "address": "",
        "city": "",
        "capacity": 0,
        "available_bikes": 0,
        "hub_type": "standard",
        "status": "active"
      }
    },
    {
      "type": "Feature",
      "geometry": {
        "type": "Point",
        "coordinates": [
          10.220143,
          54.4054218
        ]
      },
      "properties": {
        "id": 31584,
        "name": "Gemeindeverwaltung Laboe (Opt. Station)",
        "address": "",
        "city": "",
        "capacity": 0,
        "available_bikes": 0,
        "hub_type": "standard",
        "status": "active"
      }
    },
    {
      "type": "Feature",
      "geometry": {
        "type": "Point",
        "coordinates": [
          10.06956,
          54.309867
        ]
      },
      "properties": {
        "id": 24448,
        "name": "Bahnhof Russee",
        "address": "",
        "city": "",
        "capacity": 0,
        "available_bikes": 0,
        "hub_type": "standard",
        "status": "active"
      }
    },
    {
      "type": "Feature",
      "geometry": {
        "type": "Point",
        "coordinates": [
          10.177173,
          54.390373
        ]
      },
      "properties": {
        "id": 24400,
        "name": "Anleger Friedrichsort",
        "address": "",
        "city": "",
        "capacity": 0,
        "available_bikes": 0,
        "hub_type": "standard",
        "status": "active"
      }
    },
    {
      "type": "Feature",
      "geometry": {
        "type": "Point",
        "coordinates": [
          10.0656004,
          54.2644031
        ]
      },
      "properties": {
        "id": 24468,
        "name": "Catharinenberg",
        "address": "",
        "city": "",
        "capacity": 0,
        "available_bikes": 0,
        "hub_type": "standard",
        "status": "active"
      }
    },
    {
      "type": "Feature",
      "geometry": {
        "type": "Point",
        "coordinates": [
          10.1456,
          54.280427
        ]
      },
      "properties": {
        "id": 24409,
        "name": "Braunstrasse",
        "address": "",
        "city": "",
        "capacity": 0,
        "available_bikes": 0,
        "hub_type": "standard",
        "status": "active"
      }
    },
    {
      "type": "Feature",
      "geometry": {
        "type": "Point",
        "coordinates": [
          10.223028,
          54.339056
        ]
      },
      "properties": {
        "id": 24388,
        "name": "Schönkirchen Gemeindehaus",
        "address": "",
        "city": "",
        "capacity": 0,
        "available_bikes": 0,
        "hub_type": "standard",
        "status": "active"
      }
    },
    {
      "type": "Feature",
      "geometry": {
        "type": "Point",
        "coordinates": [
          10.1961943,
          54.3296577
        ]
      },
      "properties": {
        "id": 29965,
        "name": "B502 Schönkirchener Strasse ",
        "address": "",
        "city": "",
        "capacity": 0,
        "available_bikes": 0,
        "hub_type": "standard",
        "status": "active"
      }
    },
    {
      "type": "Feature",
      "geometry": {
        "type": "Point",
        "coordinates": [
          10.1561757,
          54.3100193
        ]
      },
      "properties": {
        "id": 31501,
        "name": "Katzheide (bis 15.10)",
        "address": "",
        "city": "",
        "capacity": 0,
        "available_bikes": 0,
        "hub_type": "standard",
        "status": "active"
      }
    },
    {
      "type": "Feature",
      "geometry": {
        "type": "Point",
        "coordinates": [
          10.083113,
          54.331388
        ]
      },
      "properties": {
        "id": 24453,
        "name": "Kronshagen Bahnhof",
        "address": "",
        "city": "",
        "capacity": 0,
        "available_bikes": 0,
        "hub_type": "standard",
        "status": "active"
      }
    },
    {
      "type": "Feature",
      "geometry": {
        "type": "Point",
        "coordinates": [
          10.169784,
          54.313927
        ]
      },
      "properties": {
        "id": 24447,
        "name": "Bahnhalt Ellerbek",
        "address": "",
        "city": "",
        "capacity": 0,
        "available_bikes": 0,
        "hub_type": "standard",
        "status": "active"
      }
    },
    {
      "type": "Feature",
      "geometry": {
        "type": "Point",
        "coordinates": [
          10.1682239,
          54.4254534
        ]
      },
      "properties": {
        "id": 27183,
        "name": "Schilksee Olympiazentrum",
        "address": "",
        "city": "",
        "capacity": 0,
        "available_bikes": 0,
        "hub_type": "standard",
        "status": "active"
      }
    },
    {
      "type": "Feature",
      "geometry": {
        "type": "Point",
        "coordinates": [
          10.0854972,
          54.3327038
        ]
      },
      "properties": {
        "id": 24377,
        "name": "Kronshagen Rathaus",
        "address": "",
        "city": "",
        "capacity": 0,
        "available_bikes": 0,
        "hub_type": "standard",
        "status": "active"
      }
    },
    {
      "type": "Feature",
      "geometry": {
        "type": "Point",
        "coordinates": [
          10.1278724,
          54.4246632
        ]
      },
      "properties": {
        "id": 30151,
        "name": "Eiche Dänischenhagen",
        "address": "",
        "city": "",
        "capacity": 0,
        "available_bikes": 0,
        "hub_type": "standard",
        "status": "active"
      }
    },
    {
      "type": "Feature",
      "geometry": {
        "type": "Point",
        "coordinates": [
          10.2430089,
          54.2811376
        ]
      },
      "properties": {
        "id": 30024,
        "name": "Bahnhof Raisdorf",
        "address": "",
        "city": "",
        "capacity": 0,
        "available_bikes": 0,
        "hub_type": "standard",
        "status": "active"
      }
    },
    {
      "type": "Feature",
      "geometry": {
        "type": "Point",
        "coordinates": [
          10.090524,
          54.342126
        ]
      },
      "properties": {
        "id": 24394,
        "name": "KiTa Fusssteigkoppel",
        "address": "",
        "city": "",
        "capacity": 0,
        "available_bikes": 0,
        "hub_type": "standard",
        "status": "active"
      }
    },
    {
      "type": "Feature",
      "geometry": {
        "type": "Point",
        "coordinates": [
          10.2196891,
          54.4033599
        ]
      },
      "properties": {
        "id": 24403,
        "name": "Hafen Laboe",
        "address": "",
        "city": "",
        "capacity": 0,
        "available_bikes": 0,
        "hub_type": "standard",
        "status": "active"
      }
    },
    {
      "type": "Feature",
      "geometry": {
        "type": "Point",
        "coordinates": [
          10.066768,
          54.317015
        ]
      },
      "properties": {
        "id": 24474,
        "name": "Russeer Weg / Hofholzallee",
        "address": "",
        "city": "",
        "capacity": 0,
        "available_bikes": 0,
        "hub_type": "standard",
        "status": "active"
      }
    },
    {
      "type": "Feature",
      "geometry": {
        "type": "Point",
        "coordinates": [
          10.3126721,
          54.2168572
        ]
      },
      "properties": {
        "id": 28264,
        "name": "Freudenholm",
        "address": "",
        "city": "",
        "capacity": 0,
        "available_bikes": 0,
        "hub_type": "standard",
        "status": "active"
      }
    },
    {
      "type": "Feature",
      "geometry": {
        "type": "Point",
        "coordinates": [
          10.0375259,
          54.2844554
        ]
      },
      "properties": {
        "id": 26708,
        "name": "Schule Mielkendorf",
        "address": "",
        "city": "",
        "capacity": 0,
        "available_bikes": 0,
        "hub_type": "standard",
        "status": "active"
      }
    },
    {
      "type": "Feature",
      "geometry": {
        "type": "Point",
        "coordinates": [
          10.1958992,
          54.3772907
        ]
      },
      "properties": {
        "id": 24386,
        "name": "Fähranleger Möltenort",
        "address": "",
        "city": "",
        "capacity": 0,
        "available_bikes": 0,
        "hub_type": "standard",
        "status": "active"
      }
    },
    {
      "type": "Feature",
      "geometry": {
        "type": "Point",
        "coordinates": [
          10.1339529,
          54.3687939
        ]
      },
      "properties": {
        "id": 26209,
        "name": "Kanalfähre Holtenau",
        "address": "",
        "city": "",
        "capacity": 0,
        "available_bikes": 0,
        "hub_type": "standard",
        "status": "active"
      }
    },
    {
      "type": "Feature",
      "geometry": {
        "type": "Point",
        "coordinates": [
          10.2004707,
          54.3121896
        ]
      },
      "properties": {
        "id": 30027,
        "name": "REWE Klausdorf",
        "address": "",
        "city": "",
        "capacity": 0,
        "available_bikes": 0,
        "hub_type": "standard",
        "status": "active"
      }
    },
    {
      "type": "Feature",
      "geometry": {
        "type": "Point",
        "coordinates": [
          10.2264654,
          54.2914887
        ]
      },
      "properties": {
        "id": 29663,
        "name": "GTZ Raisdorf",
        "address": "",
        "city": "",
        "capacity": 0,
        "available_bikes": 0,
        "hub_type": "standard",
        "status": "active"
      }
    },
    {
      "type": "Feature",
      "geometry": {
        "type": "Point",
        "coordinates": [
          9.5727218,
          54.5310498
        ]
      },
      "properties": {
        "id": 31381,
        "name": "DEKRA Zulassungsstelle",
        "address": "",
        "city": "",
        "capacity": 0,
        "available_bikes": 0,
        "hub_type": "standard",
        "status": "active"
      }
    },
    {
      "type": "Feature",
      "geometry": {
        "type": "Point",
        "coordinates": [
          10.0900422,
          54.2897063
        ]
      },
      "properties": {
        "id": 30147,
        "name": "Bushaltestelle Eiderbrücke",
        "address": "",
        "city": "",
        "capacity": 0,
        "available_bikes": 0,
        "hub_type": "standard",
        "status": "active"
      }
    },
    {
      "type": "Feature",
      "geometry": {
        "type": "Point",
        "coordinates": [
          10.131535,
          54.283892
        ]
      },
      "properties": {
        "id": 24441,
        "name": "Meimersdorf Kontor",
        "address": "",
        "city": "",
        "capacity": 0,
        "available_bikes": 0,
        "hub_type": "standard",
        "status": "active"
      }
    },
    {
      "type": "Feature",
      "geometry": {
        "type": "Point",
        "coordinates": [
          9.93739,
          54.3038568
        ]
      },
      "properties": {
        "id": 29112,
        "name": "Felde Dorfplatz",
        "address": "",
        "city": "",
        "capacity": 0,
        "available_bikes": 0,
        "hub_type": "standard",
        "status": "active"
      }
    },
    {
      "type": "Feature",
      "geometry": {
        "type": "Point",
        "coordinates": [
          9.9466436,
          54.309801
        ]
      },
      "properties": {
        "id": 29109,
        "name": "Felde Bahnhof ",
        "address": "",
        "city": "",
        "capacity": 0,
        "available_bikes": 0,
        "hub_type": "standard",
        "status": "active"
      }
    },
    {
      "type": "Feature",
      "geometry": {
        "type": "Point",
        "coordinates": [
          10.1186942,
          54.3237645
        ]
      },
      "properties": {
        "id": 29946,
        "name": "Wörthstrasse",
        "address": "",
        "city": "",
        "capacity": 0,
        "available_bikes": 0,
        "hub_type": "standard",
        "status": "active"
      }
    },
    {
      "type": "Feature",
      "geometry": {
        "type": "Point",
        "coordinates": [
          10.1784451,
          54.3514446
        ]
      },
      "properties": {
        "id": 24387,
        "name": "Mönkeberg Anleger",
        "address": "",
        "city": "",
        "capacity": 0,
        "available_bikes": 0,
        "hub_type": "standard",
        "status": "active"
      }
    },
    {
      "type": "Feature",
      "geometry": {
        "type": "Point",
        "coordinates": [
          10.136875,
          54.386203
        ]
      },
      "properties": {
        "id": 24407,
        "name": "Rathaus Altenholz",
        "address": "",
        "city": "",
        "capacity": 0,
        "available_bikes": 0,
        "hub_type": "standard",
        "status": "active"
      }
    },
    {
      "type": "Feature",
      "geometry": {
        "type": "Point",
        "coordinates": [
          10.1121392,
          54.303617
        ]
      },
      "properties": {
        "id": 31758,
        "name": "Helgolandstraße",
        "address": "",
        "city": "",
        "capacity": 0,
        "available_bikes": 0,
        "hub_type": "standard",
        "status": "active"
      }
    },
    {
      "type": "Feature",
      "geometry": {
        "type": "Point",
        "coordinates": [
          10.1254699,
          54.3045643
        ]
      },
      "properties": {
        "id": 30515,
        "name": "Alte Lübecker Chaussee",
        "address": "",
        "city": "",
        "capacity": 0,
        "available_bikes": 0,
        "hub_type": "standard",
        "status": "active"
      }
    },
    {
      "type": "Feature",
      "geometry": {
        "type": "Point",
        "coordinates": [
          10.2460814,
          54.2859985
        ]
      },
      "properties": {
        "id": 30023,
        "name": "Freibad Raisdorf (April - Oktober)",
        "address": "",
        "city": "",
        "capacity": 0,
        "available_bikes": 0,
        "hub_type": "standard",
        "status": "active"
      }
    },
    {
      "type": "Feature",
      "geometry": {
        "type": "Point",
        "coordinates": [
          10.0909467,
          54.3498224
        ]
      },
      "properties": {
        "id": 24372,
        "name": "Bahnhof Suchsdorf",
        "address": "",
        "city": "",
        "capacity": 0,
        "available_bikes": 0,
        "hub_type": "standard",
        "status": "active"
      }
    },
    {
      "type": "Feature",
      "geometry": {
        "type": "Point",
        "coordinates": [
          10.228306,
          54.411667
        ]
      },
      "properties": {
        "id": 24405,
        "name": "Marine-Ehrenmal",
        "address": "",
        "city": "",
        "capacity": 0,
        "available_bikes": 0,
        "hub_type": "standard",
        "status": "active"
      }
    },
    {
      "type": "Feature",
      "geometry": {
        "type": "Point",
        "coordinates": [
          10.0794572,
          54.281617
        ]
      },
      "properties": {
        "id": 26805,
        "name": "Amt Eidertal",
        "address": "",
        "city": "",
        "capacity": 0,
        "available_bikes": 0,
        "hub_type": "standard",
        "status": "active"
      }
    },
    {
      "type": "Feature",
      "geometry": {
        "type": "Point",
        "coordinates": [
          10.2152081,
          54.3393023
        ]
      },
      "properties": {
        "id": 29049,
        "name": "Falkemedia",
        "address": "",
        "city": "",
        "capacity": 0,
        "available_bikes": 0,
        "hub_type": "standard",
        "status": "active"
      }
    },
    {
      "type": "Feature",
      "geometry": {
        "type": "Point",
        "coordinates": [
          10.2156178,
          54.3033719
        ]
      },
      "properties": {
        "id": 30025,
        "name": "Stadtwerke / Bürgerhaus Klausdorf",
        "address": "",
        "city": "",
        "capacity": 0,
        "available_bikes": 0,
        "hub_type": "standard",
        "status": "active"
      }
    },
    {
      "type": "Feature",
      "geometry": {
        "type": "Point",
        "coordinates": [
          10.1872627,
          54.2920407
        ]
      },
      "properties": {
        "id": 24440,
        "name": "Förde Sparkasse Teplitzer Allee",
        "address": "",
        "city": "",
        "capacity": 0,
        "available_bikes": 0,
        "hub_type": "standard",
        "status": "active"
      }
    },
    {
      "type": "Feature",
      "geometry": {
        "type": "Point",
        "coordinates": [
          10.157109,
          54.307029
        ]
      },
      "properties": {
        "id": 24450,
        "name": "Schulen am Langsee",
        "address": "",
        "city": "",
        "capacity": 0,
        "available_bikes": 0,
        "hub_type": "standard",
        "status": "active"
      }
    },
    {
      "type": "Feature",
      "geometry": {
        "type": "Point",
        "coordinates": [
          10.2177163,
          54.2887936
        ]
      },
      "properties": {
        "id": 30026,
        "name": "Ostseepark",
        "address": "",
        "city": "",
        "capacity": 0,
        "available_bikes": 0,
        "hub_type": "standard",
        "status": "active"
      }
    },
    {
      "type": "Feature",
      "geometry": {
        "type": "Point",
        "coordinates": [
          9.9338166,
          54.2995516
        ]
      },
      "properties": {
        "id": 30434,
        "name": "Felde Gemeindezentrum",
        "address": "",
        "city": "",
        "capacity": 0,
        "available_bikes": 0,
        "hub_type": "standard",
        "status": "active"
      }
    },
    {
      "type": "Feature",
      "geometry": {
        "type": "Point",
        "coordinates": [
          10.130672,
          54.2832
        ]
      },
      "properties": {
        "id": 24411,
        "name": "Grot Steenbusch",
        "address": "",
        "city": "",
        "capacity": 0,
        "available_bikes": 0,
        "hub_type": "standard",
        "status": "active"
      }
    },
    {
      "type": "Feature",
      "geometry": {
        "type": "Point",
        "coordinates": [
          10.074943,
          54.274827
        ]
      },
      "properties": {
        "id": 24454,
        "name": "Freilichtmuseum Molfsee",
        "address": "",
        "city": "",
        "capacity": 0,
        "available_bikes": 0,
        "hub_type": "standard",
        "status": "active"
      }
    },
    {
      "type": "Feature",
      "geometry": {
        "type": "Point",
        "coordinates": [
          10.185079,
          54.294629
        ]
      },
      "properties": {
        "id": 24449,
        "name": "Bebelplatz",
        "address": "",
        "city": "",
        "capacity": 0,
        "available_bikes": 0,
        "hub_type": "standard",
        "status": "active"
      }
    },
    {
      "type": "Feature",
      "geometry": {
        "type": "Point",
        "coordinates": [
          10.173146,
          54.395459
        ]
      },
      "properties": {
        "id": 24402,
        "name": "Stadtteilzentrum Pries",
        "address": "",
        "city": "",
        "capacity": 0,
        "available_bikes": 0,
        "hub_type": "standard",
        "status": "active"
      }
    },
    {
      "type": "Feature",
      "geometry": {
        "type": "Point",
        "coordinates": [
          10.0536245,
          54.322339
        ]
      },
      "properties": {
        "id": 24476,
        "name": "Kurt-Schumacher-Platz",
        "address": "",
        "city": "",
        "capacity": 0,
        "available_bikes": 0,
        "hub_type": "standard",
        "status": "active"
      }
    },
    {
      "type": "Feature",
      "geometry": {
        "type": "Point",
        "coordinates": [
          10.158649,
          54.27697
        ]
      },
      "properties": {
        "id": 24410,
        "name": "Bunsenstrasse",
        "address": "",
        "city": "",
        "capacity": 0,
        "available_bikes": 0,
        "hub_type": "standard",
        "status": "active"
      }
    },
    {
      "type": "Feature",
      "geometry": {
        "type": "Point",
        "coordinates": [
          10.2332235,
          54.3974944
        ]
      },
      "properties": {
        "id": 24404,
        "name": "Bullbrücke",
        "address": "",
        "city": "",
        "capacity": 0,
        "available_bikes": 0,
        "hub_type": "standard",
        "status": "active"
      }
    },
    {
      "type": "Feature",
      "geometry": {
        "type": "Point",
        "coordinates": [
          10.1897436,
          54.3366433
        ]
      },
      "properties": {
        "id": 29963,
        "name": "Langer Rehm (Rewe)",
        "address": "",
        "city": "",
        "capacity": 0,
        "available_bikes": 0,
        "hub_type": "standard",
        "status": "active"
      }
    }
  ],
  "metadata": {
    "city": "schlei-region",
    "total_hubs": 69,
    "generated_at": "2025-08-25T14:23:56.044Z",
    "endpoints": [
      "https://stables.donkey.bike/api/public/nearby?filter_type=account&account_id=866",
      "https://stables.donkey.bike/api/public/cities/516/hubs/"
    ]
  }
}